[
  {
    "newsch": 1,
    "lat": 25.028516,
    "lng": 121.516018,
    "sid": "MAAyADEAMAAwADAAMAAwADAAMQA=",
    "name": "(私立)臺北市私立南門幼兒園",
    "type": "spub1"
  },
  {
    "newsch": 1,
    "lat": 25.0250769,
    "lng": 121.51433,
    "sid": "MAAyADEAMAAwADAAMAAwADAAMgA=",
    "name": "(公立)臺北市中正區螢橋國民小學附設幼兒園",
    "type": "spub0"
  },
  {
    "newsch": 1,
    "lat": 25.032512,
    "lng": 121.512606,
    "sid": "MAAyADEAMAAwADAAMAAwADAAMwA=",
    "name": "(公立)臺北市中正區國語實驗國民小學附設幼兒園",
    "type": "spub0"
  },
  {
    "newsch": 1,
    "lat": 25.038581,
    "lng": 121.520868,
    "sid": "MAAyADEAMAAwADAAMAAwADAANAA=",
    "name": "(公立)臺北市中正區東門國民小學附設幼兒園",
    "type": "spub0"
  },
  {
    "newsch": 1,
    "lat": 25.0232928,
    "lng": 121.5226586,
    "sid": "MAAyADEAMAAwADAAMAAwADAANgA=",
    "name": "(公立)臺北市中正區河堤國民小學附設幼兒園",
    "type": "spub0"
  },
  {
    "newsch": 1,
    "lat": 25.0429292,
    "lng": 121.531547,
    "sid": "MAAyADEAMAAwADAAMAAwADAANwA=",
    "name": "(公立)臺北市中正區忠孝國民小學附設幼兒園",
    "type": "spub0"
  },
  {
    "newsch": 1,
    "lat": 25.0355355,
    "lng": 121.5150033,
    "sid": "MAAyADEAMAAwADAAMAAwADAAOAA=",
    "name": "(公立)臺北市立大學附設實驗國民小學附設幼兒園",
    "type": "spub0"
  },
  {
    "newsch": 1,
    "lat": 25.040316,
    "lng": 121.530902,
    "sid": "MAAyADEAMAAwADAAMAAwADAAOQA=",
    "name": "(公立)臺北市立中正幼兒園",
    "type": "spub0"
  },
  {
    "newsch": 1,
    "lat": 25.032686,
    "lng": 121.519715,
    "sid": "MAAyADEAMAAwADAAMAAwADEAMAA=",
    "name": "(準公共)財團法人中華基督教衛理公會附設臺北市私立城中衛理幼兒園",
    "type": "spub3"
  },
  {
    "newsch": 1,
    "lat": 25.0250075,
    "lng": 121.5199524,
    "sid": "MAAyADEAMAAwADAAMAAwADEAMQA=",
    "name": "(私立)財團法人台北市私立強恕高級中學附設臺北市私立幼兒園",
    "type": "spub1"
  },
  {
    "newsch": 1,
    "lat": 25.0159255,
    "lng": 121.528034,
    "sid": "MAAyADEAMAAwADAAMAAwADEAMgA=",
    "name": "(準公共)國防醫學院附設臺北市私立愛德幼兒園",
    "type": "spub3"
  },
  {
    "newsch": 1,
    "lat": 25.044948,
    "lng": 121.523832,
    "sid": "MAAyADEAMAAwADAAMAAwADEAMwA=",
    "name": "(私立)臺北市私立傑瑞富幼兒園",
    "type": "spub1"
  },
  {
    "newsch": 1,
    "lat": 25.027722,
    "lng": 121.508037,
    "sid": "MAAyADEAMAAwADAAMAAwADEANAA=",
    "name": "(私立)臺北市私立聯華幼兒園",
    "type": "spub1"
  },
  {
    "newsch": 1,
    "lat": 25.0388329,
    "lng": 121.509362,
    "sid": "MAAyADEAMAAwADAAMAAwADEANQA=",
    "name": "(私立)臺北市私立中正區清華幼兒園",
    "type": "spub1"
  },
  {
    "newsch": 1,
    "lat": 25.0264249,
    "lng": 121.509609,
    "sid": "MAAyADEAMAAwADAAMAAwADEANgA=",
    "name": "(準公共)臺北市私立寶貝幼兒園",
    "type": "spub3"
  },
  {
    "newsch": 1,
    "lat": 25.0362398,
    "lng": 121.51249,
    "sid": "MAAyADEAMAAwADAAMAAwADEAOAA=",
    "name": "(私立)法務部附設臺北市私立員工子女幼兒園",
    "type": "spub1"
  },
  {
    "newsch": 1,
    "lat": 25.041417,
    "lng": 121.517181,
    "sid": "MAAyADEAMAAwADAAMAAwADEAOQA=",
    "name": "(私立)國立臺灣大學醫學院附設醫院附設臺北市私立員工子女幼兒園",
    "type": "spub1"
  },
  {
    "newsch": 1,
    "lat": 25.040139,
    "lng": 121.531501,
    "sid": "MAAyADEAMAAwADAAMAAwADIAMAA=",
    "name": "(私立)臺北市私立蒙特梭利童圓幼兒園",
    "type": "spub1"
  },
  {
    "newsch": 1,
    "lat": 25.037654,
    "lng": 121.528711,
    "sid": "MAAyADEAMAAwADAAMAAwADIAMQA=",
    "name": "(私立)臺北市私立巨勝幼兒園",
    "type": "spub1"
  },
  {
    "newsch": 1,
    "lat": 25.036115,
    "lng": 121.511764,
    "sid": "MAAyADEAMAAwADAAMAAwADIAMgA=",
    "name": "(準公共)臺灣高等法院附設臺北市私立員工子女幼兒園",
    "type": "spub3"
  },
  {
    "newsch": 1,
    "lat": 25.029974,
    "lng": 121.51542,
    "sid": "MAAyADEAMAAwADAAMAAwADIAMwA=",
    "name": "(私立)財團法人信誼基金會附設臺北市私立實驗幼兒園",
    "type": "spub1"
  },
  {
    "newsch": 1,
    "lat": 25.0427212,
    "lng": 121.5226226,
    "sid": "MAAyADEAMAAwADAAMAAwADIANQA=",
    "name": "(準公共)臺北市私立涵鈺新天地幼兒園",
    "type": "spub3"
  },
  {
    "newsch": 1,
    "lat": 25.027827,
    "lng": 121.521596,
    "sid": "MAAyADEAMAAwADAAMAAwADIANgA=",
    "name": "(私立)臺北市私立智寶園幼兒園",
    "type": "spub1"
  },
  {
    "newsch": 1,
    "lat": 25.034954,
    "lng": 121.507507,
    "sid": "MAAyADEAMAAwADAAMAAwADIAOAA=",
    "name": "(私立)臺北市私立百家姓幼兒園",
    "type": "spub1"
  },
  {
    "newsch": 1,
    "lat": 25.034453,
    "lng": 121.50814,
    "sid": "MAAyADEAMAAwADAAMAAwADIAOQA=",
    "name": "(私立)臺北市私立維格幼兒園",
    "type": "spub1"
  },
  {
    "newsch": 1,
    "lat": 25.02848,
    "lng": 121.508408,
    "sid": "MAAyADEAMAAwADAAMAAwADMAMAA=",
    "name": "(準公共)臺北市私立乖乖幼兒園",
    "type": "spub3"
  },
  {
    "newsch": 1,
    "lat": 25.036632,
    "lng": 121.525383,
    "sid": "MAAyADEAMAAwADAAMAAwADMAMQA=",
    "name": "(私立)臺北市私立家緣蒙特梭利幼兒園",
    "type": "spub1"
  },
  {
    "newsch": 1,
    "lat": 25.0363509,
    "lng": 121.528696,
    "sid": "MAAyADEAMAAwADAAMAAwADMAMgA=",
    "name": "(私立)臺北市私立何嘉仁臨沂幼兒園",
    "type": "spub1"
  },
  {
    "newsch": 1,
    "lat": 25.0352657,
    "lng": 121.5090687,
    "sid": "MAAyADEAMAAwADAAMAAwADMAMwA=",
    "name": "(公立)臺北市中正區南門國民小學附設幼兒園",
    "type": "spub0"
  },
  {
    "newsch": 1,
    "lat": 25.0194559,
    "lng": 121.5261508,
    "sid": "MAAyADEAMAAwADAAMAAwADMANAA=",
    "name": "(非營利)臺北市螢橋非營利幼兒園(委託耕莘健康管理專科學校辦理)",
    "type": "spub2"
  },
  {
    "newsch": 1,
    "lat": 25.043955958737374,
    "lng": 121.52627742328636,
    "sid": "MAAyADEAMAAwADAAMAAwADMANQA=",
    "name": "(私立)教育部忠孝大樓職場互助教保服務中心(委託社團法人台北市教保人員協會辦理)",
    "type": "spub1"
  },
  {
    "newsch": 1,
    "lat": 25.0400769,
    "lng": 121.5251699,
    "sid": "MAAyADEAMAAwADAAMAAwADMANgA=",
    "name": "(私立)教育部徐州大樓職場互助教保服務中心（委託社團法人台北市教保人員協會辦理）",
    "type": "spub1"
  },
  {
    "newsch": 1,
    "lat": 25.0416173,
    "lng": 121.5103238,
    "sid": "MAAyADEAMAAwADAAMAAwADMANwA=",
    "name": "(私立)臺灣銀行桃源大樓職場互助教保服務中心（委託社團法人台灣公共托育協會辦理）",
    "type": "spub1"
  },
  {
    "newsch": 1,
    "lat": 25.0379911,
    "lng": 121.5237376,
    "sid": "MAAyADEAMAAwADAAMAAwADMAOAA=",
    "name": "(私立)臺北市中華電信仁愛職場互助教保服務中心（委託社團法人台灣幼兒早期教育協會辦理）",
    "type": "spub1"
  },
  {
    "newsch": 1,
    "lat": 25.0384755,
    "lng": 121.5077819,
    "sid": "MAAyADEAMAAwADAAMAAwADMAOQA=",
    "name": "(私立)行政院環境保護署職場互助教保服務中心（委託社團法人金字塔幼兒教育研究學會辦理）",
    "type": "spub1"
  },
  {
    "newsch": 1,
    "lat": 25.0359751,
    "lng": 121.52260389999999,
    "sid": "MAAyADEAMAAwADAAMAAwADQAMAA=",
    "name": "(私立)國立中正紀念堂管理處職場互助教保服務中心（委託社團法人台北市教保人員協會辦理）",
    "type": "spub1"
  },
  {
    "newsch": 1,
    "lat": 25.0287773,
    "lng": 121.5175033,
    "sid": "MAAyADEAMAAwADAAMAAwADQAMQA=",
    "name": "(私立)台電公司輸變電工程處職場互助教保服務中心（委託社團法人台灣公共托育協會辦理）",
    "type": "spub1"
  },
  {
    "newsch": 1,
    "lat": 25.0359291,
    "lng": 121.5082551,
    "sid": "MAAyADEAMAAwADAAMAAwADQAMgA=",
    "name": "(私立)內政部移民署職場互助教保服務中心（委託社團法人臺北市飛亞特全人福利服務文教發展協會辦理）",
    "type": "spub1"
  },
  {
    "newsch": 1,
    "lat": 25.0479239,
    "lng": 121.517081,
    "sid": "MAAyADEAMAAwADAAMAAwADQAMwA=",
    "name": "(私立)交通部臺灣鐵路管理局臺北車站職場互助教保服務中心（委託社團法人臺灣兒童教育發展協會辦理）",
    "type": "spub1"
  },
  {
    "newsch": 1,
    "lat": 25.0452184,
    "lng": 121.5226462,
    "sid": "MAAyADEAMAAwADAAMAAwADQANAA=",
    "name": "(私立)內政部警政署職場互助教保服務中心（委託社團法人中華創造力訓練發展協會辦理）",
    "type": "spub1"
  }
]