[
  {
    "newsch": 1,
    "lat": 25.028506,
    "lng": 121.515997,
    "sid": "MAAyADEAMAAwADAAMAAwADAAMQA=",
    "name": "(私立)臺北市私立南門幼兒園",
    "type": "spub1"
  },
  {
    "newsch": 1,
    "lat": 25.025405,
    "lng": 121.515402,
    "sid": "MAAyADEAMAAwADAAMAAwADAAMgA=",
    "name": "(公立)臺北市中正區螢橋國民小學附設幼兒園",
    "type": "spub0"
  },
  {
    "newsch": 1,
    "lat": 25.032323,
    "lng": 121.512549,
    "sid": "MAAyADEAMAAwADAAMAAwADAAMwA=",
    "name": "(公立)臺北市國語實驗國民小學附設幼兒園",
    "type": "spub0"
  },
  {
    "newsch": 1,
    "lat": 25.038082,
    "lng": 121.5199,
    "sid": "MAAyADEAMAAwADAAMAAwADAANAA=",
    "name": "(公立)臺北市中正區東門國民小學附設幼兒園",
    "type": "spub0"
  },
  {
    "newsch": 1,
    "lat": 25.022621,
    "lng": 121.522012,
    "sid": "MAAyADEAMAAwADAAMAAwADAANgA=",
    "name": "(公立)臺北市中正區河堤國民小學附設幼兒園",
    "type": "spub0"
  },
  {
    "newsch": 1,
    "lat": 25.043043,
    "lng": 121.531649,
    "sid": "MAAyADEAMAAwADAAMAAwADAANwA=",
    "name": "(公立)臺北市中正區忠孝國民小學附設幼兒園",
    "type": "spub0"
  },
  {
    "newsch": 1,
    "lat": 25.036286,
    "lng": 121.515393,
    "sid": "MAAyADEAMAAwADAAMAAwADAAOAA=",
    "name": "(公立)臺北市立大學附設實驗國民小學附設幼兒園",
    "type": "spub0"
  },
  {
    "newsch": 1,
    "lat": 25.040265,
    "lng": 121.530876,
    "sid": "MAAyADEAMAAwADAAMAAwADAAOQA=",
    "name": "(公立)臺北市立中正幼兒園",
    "type": "spub0"
  },
  {
    "newsch": 1,
    "lat": 25.032613,
    "lng": 121.519635,
    "sid": "MAAyADEAMAAwADAAMAAwADEAMAA=",
    "name": "(準公共)財團法人中華基督教衛理公會附設臺北市私立城中衛理幼兒園",
    "type": "spub3"
  },
  {
    "newsch": 1,
    "lat": 25.025298,
    "lng": 121.519944,
    "sid": "MAAyADEAMAAwADAAMAAwADEAMQA=",
    "name": "(私立)財團法人台北市私立強恕高級中學附設臺北市私立幼兒園",
    "type": "spub1"
  },
  {
    "newsch": 1,
    "lat": 25.044933,
    "lng": 121.52367,
    "sid": "MAAyADEAMAAwADAAMAAwADEAMwA=",
    "name": "(私立)臺北市私立傑瑞富幼兒園",
    "type": "spub1"
  },
  {
    "newsch": 1,
    "lat": 25.038865,
    "lng": 121.509348,
    "sid": "MAAyADEAMAAwADAAMAAwADEANQA=",
    "name": "(私立)臺北市私立中正區清華幼兒園",
    "type": "spub1"
  },
  {
    "newsch": 1,
    "lat": 25.026398,
    "lng": 121.509629,
    "sid": "MAAyADEAMAAwADAAMAAwADEANgA=",
    "name": "(準公共)臺北市私立寶貝幼兒園",
    "type": "spub3"
  },
  {
    "newsch": 1,
    "lat": 25.036186,
    "lng": 121.512357,
    "sid": "MAAyADEAMAAwADAAMAAwADEAOAA=",
    "name": "(準公共)法務部附設臺北市私立員工子女幼兒園",
    "type": "spub3"
  },
  {
    "newsch": 1,
    "lat": 25.041605,
    "lng": 121.517239,
    "sid": "MAAyADEAMAAwADAAMAAwADEAOQA=",
    "name": "(私立)國立臺灣大學醫學院附設醫院附設臺北市私立員工子女幼兒園",
    "type": "spub1"
  },
  {
    "newsch": 1,
    "lat": 25.039896,
    "lng": 121.531617,
    "sid": "MAAyADEAMAAwADAAMAAwADIAMAA=",
    "name": "(私立)臺北市私立蒙特梭利童圓幼兒園",
    "type": "spub1"
  },
  {
    "newsch": 1,
    "lat": 25.03766,
    "lng": 121.528693,
    "sid": "MAAyADEAMAAwADAAMAAwADIAMQA=",
    "name": "(準公共)臺北市私立巨勝幼兒園",
    "type": "spub3"
  },
  {
    "newsch": 1,
    "lat": 25.036139,
    "lng": 121.511814,
    "sid": "MAAyADEAMAAwADAAMAAwADIAMgA=",
    "name": "(準公共)臺灣高等法院附設臺北市私立員工子女幼兒園",
    "type": "spub3"
  },
  {
    "newsch": 1,
    "lat": 25.029968,
    "lng": 121.515383,
    "sid": "MAAyADEAMAAwADAAMAAwADIAMwA=",
    "name": "(私立)財團法人信誼基金會附設臺北市私立實驗幼兒園",
    "type": "spub1"
  },
  {
    "newsch": 1,
    "lat": 25.042659,
    "lng": 121.522594,
    "sid": "MAAyADEAMAAwADAAMAAwADIANQA=",
    "name": "(準公共)臺北市私立涵鈺新天地幼兒園",
    "type": "spub3"
  },
  {
    "newsch": 1,
    "lat": 25.02786,
    "lng": 121.521595,
    "sid": "MAAyADEAMAAwADAAMAAwADIANgA=",
    "name": "(準公共)臺北市私立智寶園幼兒園",
    "type": "spub3"
  },
  {
    "newsch": 1,
    "lat": 25.033174,
    "lng": 121.506835,
    "sid": "MAAyADEAMAAwADAAMAAwADIAOAA=",
    "name": "(私立)臺北市私立百家姓幼兒園",
    "type": "spub1"
  },
  {
    "newsch": 1,
    "lat": 25.034452,
    "lng": 121.508146,
    "sid": "MAAyADEAMAAwADAAMAAwADIAOQA=",
    "name": "(私立)臺北市私立維格幼兒園",
    "type": "spub1"
  },
  {
    "newsch": 1,
    "lat": 25.028453,
    "lng": 121.508485,
    "sid": "MAAyADEAMAAwADAAMAAwADMAMAA=",
    "name": "(準公共)臺北市私立乖乖幼兒園",
    "type": "spub3"
  },
  {
    "newsch": 1,
    "lat": 25.036563,
    "lng": 121.525348,
    "sid": "MAAyADEAMAAwADAAMAAwADMAMQA=",
    "name": "(準公共)臺北市私立家緣蒙特梭利幼兒園",
    "type": "spub3"
  },
  {
    "newsch": 1,
    "lat": 25.03653,
    "lng": 121.528844,
    "sid": "MAAyADEAMAAwADAAMAAwADMAMgA=",
    "name": "(私立)臺北市私立何嘉仁臨沂幼兒園",
    "type": "spub1"
  },
  {
    "newsch": 1,
    "lat": 25.035001,
    "lng": 121.508553,
    "sid": "MAAyADEAMAAwADAAMAAwADMAMwA=",
    "name": "(公立)臺北市中正區南門國民小學附設幼兒園",
    "type": "spub0"
  },
  {
    "newsch": 1,
    "lat": 25.018724,
    "lng": 121.526355,
    "sid": "MAAyADEAMAAwADAAMAAwADMANAA=",
    "name": "(非營利)臺北市螢橋非營利幼兒園(委託耕莘健康管理專科學校辦理)",
    "type": "spub2"
  },
  {
    "newsch": 1,
    "lat": 25.043876,
    "lng": 121.526303,
    "sid": "MAAyADEAMAAwADAAMAAwADMANQA=",
    "name": "(私立)教育部忠孝大樓職場互助教保服務中心(委託社團法人台北市教保人員協會辦理)",
    "type": "spub1"
  },
  {
    "newsch": 1,
    "lat": 25.040107,
    "lng": 121.525231,
    "sid": "MAAyADEAMAAwADAAMAAwADMANgA=",
    "name": "(私立)教育部徐州大樓職場互助教保服務中心（委託社團法人台北市教保人員協會辦理）",
    "type": "spub1"
  },
  {
    "newsch": 1,
    "lat": 25.04154,
    "lng": 121.510316,
    "sid": "MAAyADEAMAAwADAAMAAwADMANwA=",
    "name": "(私立)臺灣銀行桃源大樓職場互助教保服務中心（委託社團法人台灣公共托育協會辦理）",
    "type": "spub1"
  },
  {
    "newsch": 1,
    "lat": 25.038056,
    "lng": 121.523659,
    "sid": "MAAyADEAMAAwADAAMAAwADMAOAA=",
    "name": "(私立)臺北市中華電信仁愛職場互助教保服務中心（委託社團法人台灣幼兒早期教育協會辦理）",
    "type": "spub1"
  },
  {
    "newsch": 1,
    "lat": 25.038476,
    "lng": 121.507782,
    "sid": "MAAyADEAMAAwADAAMAAwADMAOQA=",
    "name": "(私立)環境部職場互助教保服務中心（委託社團法人金字塔幼兒教育研究學會辦理）",
    "type": "spub1"
  },
  {
    "newsch": 1,
    "lat": 25.033455,
    "lng": 121.522666,
    "sid": "MAAyADEAMAAwADAAMAAwADQAMAA=",
    "name": "(私立)國立中正紀念堂管理處職場互助教保服務中心（委託社團法人台北市教保人員協會辦理）",
    "type": "spub1"
  },
  {
    "newsch": 1,
    "lat": 25.0288,
    "lng": 121.517534,
    "sid": "MAAyADEAMAAwADAAMAAwADQAMQA=",
    "name": "(私立)台電公司輸變電工程處職場互助教保服務中心（委託社團法人台灣公共托育協會辦理）",
    "type": "spub1"
  },
  {
    "newsch": 1,
    "lat": 25.035868,
    "lng": 121.50829,
    "sid": "MAAyADEAMAAwADAAMAAwADQAMgA=",
    "name": "(私立)內政部移民署職場互助教保服務中心（委託社團法人臺北市飛亞特全人福利服務文教發展協會辦理）",
    "type": "spub1"
  },
  {
    "newsch": 1,
    "lat": 25.047864,
    "lng": 121.517424,
    "sid": "MAAyADEAMAAwADAAMAAwADQAMwA=",
    "name": "(私立)國營臺灣鐵路股份有限公司臺北車站職場互助教保服務中心（委託社團法人臺灣兒童教育發展協會辦理）",
    "type": "spub1"
  },
  {
    "newsch": 1,
    "lat": 25.045375,
    "lng": 121.522511,
    "sid": "MAAyADEAMAAwADAAMAAwADQANAA=",
    "name": "(私立)內政部警政署職場互助教保服務中心（委託社團法人中華創造力訓練發展協會辦理）",
    "type": "spub1"
  },
  {
    "newsch": 1,
    "lat": 25.031003,
    "lng": 121.515624,
    "sid": "MAAyADEAMAAwADAAMAAwADQANQA=",
    "name": "(私立)財團法人佳音教育基金會附設臺北市私立新視野幼兒園",
    "type": "spub1"
  },
  {
    "newsch": 1,
    "lat": 25.03438,
    "lng": 121.515366,
    "sid": "MAAyADEAMAAwADAAMAAwADQANgA=",
    "name": "(私立)財政部國有財產署職場互助教保服務中心（委託社團法人臺灣兒童教育發展協會辦理）",
    "type": "spub1"
  },
  {
    "newsch": 1,
    "lat": 25.039648,
    "lng": 121.52641,
    "sid": "MAAyADEAMAAwADAAMAAwADQANwA=",
    "name": "(私立)臺北市私立夏莉絲國際幼兒園",
    "type": "spub1"
  },
  {
    "newsch": 1,
    "lat": 25.033011,
    "lng": 121.513233,
    "sid": "MAAyADEAMAAwADAAMAAwADQAOAA=",
    "name": "(私立)農業部職場互助教保服務中心（委託社團法人中華音樂舞蹈暨表演藝術教育協會辦理）",
    "type": "spub1"
  }
]