[
  {
    "newsch": 1,
    "lat": 25.08928,
    "lng": 121.505219,
    "sid": "MAAyADEAMQAxADAAMAAwADAAMQA=",
    "name": "(私立)臺北市私立太和騰幼兒園",
    "type": "spub1"
  },
  {
    "newsch": 1,
    "lat": 25.091036,
    "lng": 121.505859,
    "sid": "MAAyADEAMQAxADAAMAAwADAANQA=",
    "name": "(準公共)臺北市私立慈暉幼兒園",
    "type": "spub3"
  },
  {
    "newsch": 1,
    "lat": 25.127681,
    "lng": 121.533106,
    "sid": "MAAyADEAMQAxADAAMAAwADAANgA=",
    "name": "(私立)臺北市私立好來幼兒園",
    "type": "spub1"
  },
  {
    "newsch": 1,
    "lat": 25.089467,
    "lng": 121.504902,
    "sid": "MAAyADEAMQAxADAAMAAwADAANwA=",
    "name": "(準公共)臺北市私立飛達幼兒園",
    "type": "spub3"
  },
  {
    "newsch": 1,
    "lat": 25.081494,
    "lng": 121.523089,
    "sid": "MAAyADEAMQAxADAAMAAwADAAOAA=",
    "name": "(準公共)臺北市私立淘兒園幼兒園",
    "type": "spub3"
  },
  {
    "newsch": 1,
    "lat": 25.110008,
    "lng": 121.527138,
    "sid": "MAAyADEAMQAxADAAMAAwADAAOQA=",
    "name": "(準公共)臺北市私立華邇街幼兒園",
    "type": "spub3"
  },
  {
    "newsch": 1,
    "lat": 25.085417,
    "lng": 121.518974,
    "sid": "MAAyADEAMQAxADAAMAAwADEAMAA=",
    "name": "(公立)臺北市士林區百齡國民小學附設幼兒園",
    "type": "spub0"
  },
  {
    "newsch": 1,
    "lat": 25.091424,
    "lng": 121.502288,
    "sid": "MAAyADEAMQAxADAAMAAwADEAMQA=",
    "name": "(公立)臺北市士林區社子國民小學附設幼兒園",
    "type": "spub0"
  },
  {
    "newsch": 1,
    "lat": 25.098705,
    "lng": 121.530154,
    "sid": "MAAyADEAMQAxADAAMAAwADEAMgA=",
    "name": "(公立)臺北市士林區福林國民小學附設幼兒園",
    "type": "spub0"
  },
  {
    "newsch": 1,
    "lat": 25.119455,
    "lng": 121.552474,
    "sid": "MAAyADEAMQAxADAAMAAwADEAMwA=",
    "name": "(公立)臺北市士林區陽明山國民小學附設幼兒園",
    "type": "spub0"
  },
  {
    "newsch": 1,
    "lat": 25.10499,
    "lng": 121.529871,
    "sid": "MAAyADEAMQAxADAAMAAwADEANAA=",
    "name": "(公立)臺北市士林區雨農國民小學附設幼兒園",
    "type": "spub0"
  },
  {
    "newsch": 1,
    "lat": 25.09963,
    "lng": 121.521171,
    "sid": "MAAyADEAMQAxADAAMAAwADEANQA=",
    "name": "(公立)臺北市士林區文昌國民小學附設幼兒園",
    "type": "spub0"
  },
  {
    "newsch": 1,
    "lat": 25.111116,
    "lng": 121.536333,
    "sid": "MAAyADEAMQAxADAAMAAwADEANgA=",
    "name": "(公立)臺北市士林區芝山國民小學附設幼兒園",
    "type": "spub0"
  },
  {
    "newsch": 1,
    "lat": 25.10576,
    "lng": 121.482486,
    "sid": "MAAyADEAMQAxADAAMAAwADEANwA=",
    "name": "(公立)臺北市士林區富安國民小學附設幼兒園",
    "type": "spub0"
  },
  {
    "newsch": 1,
    "lat": 25.093426,
    "lng": 121.524794,
    "sid": "MAAyADEAMQAxADAAMAAwADEAOAA=",
    "name": "(公立)臺北市士林區士林國民小學附設幼兒園",
    "type": "spub0"
  },
  {
    "newsch": 1,
    "lat": 25.102869,
    "lng": 121.53513,
    "sid": "MAAyADEAMQAxADAAMAAwADEAOQA=",
    "name": "(公立)臺北市士林區雨聲國民小學附設幼兒園",
    "type": "spub0"
  },
  {
    "newsch": 1,
    "lat": 25.106263,
    "lng": 121.564823,
    "sid": "MAAyADEAMQAxADAAMAAwADIAMAA=",
    "name": "(公立)臺北市士林區雙溪國民小學附設幼兒園",
    "type": "spub0"
  },
  {
    "newsch": 1,
    "lat": 25.079823,
    "lng": 121.522816,
    "sid": "MAAyADEAMQAxADAAMAAwADIAMQA=",
    "name": "(公立)臺北市士林區劍潭國民小學附設幼兒園",
    "type": "spub0"
  },
  {
    "newsch": 1,
    "lat": 25.10844,
    "lng": 121.523005,
    "sid": "MAAyADEAMQAxADAAMAAwADIAMgA=",
    "name": "(公立)臺北市士林區蘭雅國民小學附設幼兒園",
    "type": "spub0"
  },
  {
    "newsch": 1,
    "lat": 25.11268,
    "lng": 121.526821,
    "sid": "MAAyADEAMQAxADAAMAAwADIAMwA=",
    "name": "(公立)臺北市士林區士東國民小學附設幼兒園",
    "type": "spub0"
  },
  {
    "newsch": 1,
    "lat": 25.084111,
    "lng": 121.507069,
    "sid": "MAAyADEAMQAxADAAMAAwADIANAA=",
    "name": "(公立)臺北市士林區葫蘆國民小學附設幼兒園",
    "type": "spub0"
  },
  {
    "newsch": 1,
    "lat": 25.129364,
    "lng": 121.57664,
    "sid": "MAAyADEAMQAxADAAMAAwADIANQA=",
    "name": "(公立)臺北市士林區平等國民小學附設幼兒園",
    "type": "spub0"
  },
  {
    "newsch": 1,
    "lat": 25.08185,
    "lng": 121.519409,
    "sid": "MAAyADEAMQAxADAAMAAwADIANgA=",
    "name": "(公立)臺北市立士林幼兒園",
    "type": "spub0"
  },
  {
    "newsch": 1,
    "lat": 25.119876,
    "lng": 121.579878,
    "sid": "MAAyADEAMQAxADAAMAAwADIANwA=",
    "name": "(公立)臺北市溪山實驗國民小學附設幼兒園",
    "type": "spub0"
  },
  {
    "newsch": 1,
    "lat": 25.100897,
    "lng": 121.551833,
    "sid": "MAAyADEAMQAxADAAMAAwADIAOAA=",
    "name": "(私立)財團法人林迺翁文教基金會附設臺北市私立天鵝堡幼兒園",
    "type": "spub1"
  },
  {
    "newsch": 1,
    "lat": 25.084574,
    "lng": 121.509181,
    "sid": "MAAyADEAMQAxADAAMAAwADIAOQA=",
    "name": "(私立)臺北市私立多多種子幼兒園",
    "type": "spub1"
  },
  {
    "newsch": 1,
    "lat": 25.111437,
    "lng": 121.528382,
    "sid": "MAAyADEAMQAxADAAMAAwADMAMAA=",
    "name": "(準公共)臺北市私立忠義幼兒園",
    "type": "spub3"
  },
  {
    "newsch": 1,
    "lat": 25.088332,
    "lng": 121.519685,
    "sid": "MAAyADEAMQAxADAAMAAwADMAMQA=",
    "name": "(準公共)臺北市私立民華幼兒園",
    "type": "spub3"
  },
  {
    "newsch": 1,
    "lat": 25.117992,
    "lng": 121.536059,
    "sid": "MAAyADEAMQAxADAAMAAwADMAMgA=",
    "name": "(私立)臺北市私立十大幼兒園",
    "type": "spub1"
  },
  {
    "newsch": 1,
    "lat": 25.093837,
    "lng": 121.522902,
    "sid": "MAAyADEAMQAxADAAMAAwADMAMwA=",
    "name": "(準公共)臺北市私立幼心幼兒園",
    "type": "spub3"
  },
  {
    "newsch": 1,
    "lat": 25.101727,
    "lng": 121.525106,
    "sid": "MAAyADEAMQAxADAAMAAwADMANAA=",
    "name": "(準公共)臺北市私立泰安幼兒園",
    "type": "spub3"
  },
  {
    "newsch": 1,
    "lat": 25.114681,
    "lng": 121.525612,
    "sid": "MAAyADEAMQAxADAAMAAwADMANQA=",
    "name": "(私立)臺北市私立博仁幼兒園",
    "type": "spub1"
  },
  {
    "newsch": 1,
    "lat": 25.080011,
    "lng": 121.521295,
    "sid": "MAAyADEAMQAxADAAMAAwADMANwA=",
    "name": "(準公共)臺北市私立育成幼兒園",
    "type": "spub3"
  },
  {
    "newsch": 1,
    "lat": 25.096177,
    "lng": 121.529063,
    "sid": "MAAyADEAMQAxADAAMAAwADMAOAA=",
    "name": "(私立)臺北市私立何嘉仁士林幼兒園",
    "type": "spub1"
  },
  {
    "newsch": 1,
    "lat": 25.119975,
    "lng": 121.525544,
    "sid": "MAAyADEAMQAxADAAMAAwADQAMQA=",
    "name": "(私立)臺北市私立天母蒙特梭利幼兒園",
    "type": "spub1"
  },
  {
    "newsch": 1,
    "lat": 25.09193,
    "lng": 121.502569,
    "sid": "MAAyADEAMQAxADAAMAAwADQAMgA=",
    "name": "(準公共)臺北市私立社中幼兒園",
    "type": "spub3"
  },
  {
    "newsch": 1,
    "lat": 25.088031,
    "lng": 121.518606,
    "sid": "MAAyADEAMQAxADAAMAAwADQANAA=",
    "name": "(準公共)臺北市私立幼天才幼兒園",
    "type": "spub3"
  },
  {
    "newsch": 1,
    "lat": 25.125869,
    "lng": 121.537055,
    "sid": "MAAyADEAMQAxADAAMAAwADQANQA=",
    "name": "(私立)臺北市私立心愛幼兒園",
    "type": "spub1"
  },
  {
    "newsch": 1,
    "lat": 25.109336,
    "lng": 121.529443,
    "sid": "MAAyADEAMQAxADAAMAAwADQANgA=",
    "name": "(準公共)臺北市私立有緣蒙特梭利幼兒園",
    "type": "spub3"
  },
  {
    "newsch": 1,
    "lat": 25.108631,
    "lng": 121.527411,
    "sid": "MAAyADEAMQAxADAAMAAwADQANwA=",
    "name": "(私立)臺北市私立德行幼兒園",
    "type": "spub1"
  },
  {
    "newsch": 1,
    "lat": 25.084198,
    "lng": 121.509406,
    "sid": "MAAyADEAMQAxADAAMAAwADQAOAA=",
    "name": "(私立)臺北市私立何嘉仁幼兒園",
    "type": "spub1"
  },
  {
    "newsch": 1,
    "lat": 25.091408,
    "lng": 121.517545,
    "sid": "MAAyADEAMQAxADAAMAAwADQAOQA=",
    "name": "(私立)財團法人臺灣聖公會附設臺北市私立牧愛堂幼兒園",
    "type": "spub1"
  },
  {
    "newsch": 1,
    "lat": 25.100944,
    "lng": 121.53085,
    "sid": "MAAyADEAMQAxADAAMAAwADUAMAA=",
    "name": "(私立)臺北市私立博如幼兒園",
    "type": "spub1"
  },
  {
    "newsch": 1,
    "lat": 25.109452,
    "lng": 121.523048,
    "sid": "MAAyADEAMQAxADAAMAAwADUAMQA=",
    "name": "(私立)臺北市私立博如日本幼兒園",
    "type": "spub1"
  },
  {
    "newsch": 1,
    "lat": 25.091689,
    "lng": 121.525563,
    "sid": "MAAyADEAMQAxADAAMAAwADUAMgA=",
    "name": "(準公共)臺北市私立佳嬰幼兒園",
    "type": "spub3"
  },
  {
    "newsch": 1,
    "lat": 25.122128,
    "lng": 121.533226,
    "sid": "MAAyADEAMQAxADAAMAAwADUAMwA=",
    "name": "(準公共)臺北市私立弘明幼兒園",
    "type": "spub3"
  },
  {
    "newsch": 1,
    "lat": 25.087133,
    "lng": 121.517111,
    "sid": "MAAyADEAMQAxADAAMAAwADUANAA=",
    "name": "(準公共)臺北市私立求真幼兒園",
    "type": "spub3"
  },
  {
    "newsch": 1,
    "lat": 25.107698,
    "lng": 121.527023,
    "sid": "MAAyADEAMQAxADAAMAAwADUANQA=",
    "name": "(私立)臺北市私立翰諾幼兒園",
    "type": "spub1"
  },
  {
    "newsch": 1,
    "lat": 25.106231,
    "lng": 121.533446,
    "sid": "MAAyADEAMQAxADAAMAAwADUANwA=",
    "name": "(私立)臺北市私立浩恩幼兒園",
    "type": "spub1"
  },
  {
    "newsch": 1,
    "lat": 25.112228,
    "lng": 121.539851,
    "sid": "MAAyADEAMQAxADAAMAAwADUAOAA=",
    "name": "(準公共)臺北市私立華育幼兒園",
    "type": "spub3"
  },
  {
    "newsch": 1,
    "lat": 25.089632,
    "lng": 121.509698,
    "sid": "MAAyADEAMQAxADAAMAAwADYAMAA=",
    "name": "(準公共)臺北市私立育強幼兒園",
    "type": "spub3"
  },
  {
    "newsch": 1,
    "lat": 25.092002,
    "lng": 121.505947,
    "sid": "MAAyADEAMQAxADAAMAAwADYAMgA=",
    "name": "(準公共)臺北市私立星莆幼兒園",
    "type": "spub3"
  },
  {
    "newsch": 1,
    "lat": 25.119544,
    "lng": 121.533764,
    "sid": "MAAyADEAMQAxADAAMAAwADYAMwA=",
    "name": "(私立)臺北市私立太和綠意幼兒園",
    "type": "spub1"
  },
  {
    "newsch": 1,
    "lat": 25.108188,
    "lng": 121.531373,
    "sid": "MAAyADEAMQAxADAAMAAwADYANAA=",
    "name": "(準公共)臺北市私立敦品幼兒園",
    "type": "spub3"
  },
  {
    "newsch": 1,
    "lat": 25.087928,
    "lng": 121.522469,
    "sid": "MAAyADEAMQAxADAAMAAwADYANQA=",
    "name": "(準公共)臺北市私立孩子國幼兒園",
    "type": "spub3"
  },
  {
    "newsch": 1,
    "lat": 25.1101,
    "lng": 121.526668,
    "sid": "MAAyADEAMQAxADAAMAAwADYANgA=",
    "name": "(私立)臺北市私立種籽幼兒園",
    "type": "spub1"
  },
  {
    "newsch": 1,
    "lat": 25.111607,
    "lng": 121.532413,
    "sid": "MAAyADEAMQAxADAAMAAwADcAMQA=",
    "name": "(非營利)臺北市三玉非營利幼兒園（委託社團法人台北市幼兒園協會辦理）",
    "type": "spub2"
  },
  {
    "newsch": 1,
    "lat": 25.103482,
    "lng": 121.527557,
    "sid": "MAAyADEAMQAxADAAMAAwADcAMgA=",
    "name": "(準公共)臺北市私立怡寶幼兒園",
    "type": "spub3"
  },
  {
    "newsch": 1,
    "lat": 25.103557,
    "lng": 121.527798,
    "sid": "MAAyADEAMQAxADAAMAAwADcAMwA=",
    "name": "(準公共)臺北市私立怡寶資優幼兒園",
    "type": "spub3"
  },
  {
    "newsch": 1,
    "lat": 25.126927,
    "lng": 121.53338,
    "sid": "MAAyADEAMQAxADAAMAAwADcANAA=",
    "name": "(私立)臺北市私立卡兒堡國際幼兒園",
    "type": "spub1"
  },
  {
    "newsch": 1,
    "lat": 25.090357,
    "lng": 121.507672,
    "sid": "MAAyADEAMQAxADAAMAAwADcANQA=",
    "name": "(準公共)臺北市私立幼安幼兒園",
    "type": "spub3"
  },
  {
    "newsch": 1,
    "lat": 25.082333,
    "lng": 121.510737,
    "sid": "MAAyADEAMQAxADAAMAAwADcANgA=",
    "name": "(非營利)臺北市葫蘆非營利幼兒園（委託社團法人台灣公共托育協會辦理）",
    "type": "spub2"
  },
  {
    "newsch": 1,
    "lat": 25.097418,
    "lng": 121.543005,
    "sid": "MAAyADEAMQAxADAAMAAwADcAOAA=",
    "name": "(私立)臺北市私立奧爾仕幼兒園",
    "type": "spub1"
  },
  {
    "newsch": 1,
    "lat": 25.087895,
    "lng": 121.523315,
    "sid": "MAAyADEAMQAxADAAMAAwADcAOQA=",
    "name": "(私立)臺北市私立美蒂思幼兒園",
    "type": "spub1"
  },
  {
    "newsch": 1,
    "lat": 25.087798,
    "lng": 121.50684,
    "sid": "MAAyADEAMQAxADAAMAAwADgAMAA=",
    "name": "(準公共)臺北市私立瑞比特幼兒園",
    "type": "spub3"
  },
  {
    "newsch": 1,
    "lat": 25.083806,
    "lng": 121.517953,
    "sid": "MAAyADEAMQAxADAAMAAwADgAMQA=",
    "name": "(準公共)臺北市私立欣光幼兒園",
    "type": "spub3"
  },
  {
    "newsch": 1,
    "lat": 25.112803,
    "lng": 121.530082,
    "sid": "MAAyADEAMQAxADAAMAAwADgAMgA=",
    "name": "(私立)臺北市私立師達幼兒園",
    "type": "spub1"
  },
  {
    "newsch": 1,
    "lat": 25.110611,
    "lng": 121.527373,
    "sid": "MAAyADEAMQAxADAAMAAwADgAMwA=",
    "name": "(私立)臺北市私立熊寶貝幼兒園",
    "type": "spub1"
  },
  {
    "newsch": 1,
    "lat": 25.116812,
    "lng": 121.536178,
    "sid": "MAAyADEAMQAxADAAMAAwADgANQA=",
    "name": "(公立)臺北市立臺北特殊教育學校幼兒部",
    "type": "spub0"
  },
  {
    "newsch": 1,
    "lat": 25.116826,
    "lng": 121.53526599999999,
    "sid": "MAAyADEAMQAxADAAMAAwADgANgA=",
    "name": "(公立)臺北市立啟明學校幼兒部",
    "type": "spub0"
  },
  {
    "newsch": 1,
    "lat": 25.120487,
    "lng": 121.526094,
    "sid": "MAAyADEAMQAxADAAMAAwADgANwA=",
    "name": "(私立)臺北市私立精采童年幼兒園",
    "type": "spub1"
  },
  {
    "newsch": 1,
    "lat": 25.110465,
    "lng": 121.526435,
    "sid": "MAAyADEAMQAxADAAMAAwADgAOAA=",
    "name": "(私立)臺北市私立太和蒙特梭利幼兒園",
    "type": "spub1"
  },
  {
    "newsch": 1,
    "lat": 25.120073,
    "lng": 121.527593,
    "sid": "MAAyADEAMQAxADAAMAAwADgAOQA=",
    "name": "(非營利)臺北市天母非營利幼兒園（委託社團法人台北市幼兒園協會辦理）",
    "type": "spub2"
  },
  {
    "newsch": 1,
    "lat": 25.121427,
    "lng": 121.526921,
    "sid": "MAAyADEAMQAxADAAMAAwADkAMAA=",
    "name": "(私立)臺北市私立道思幼兒園",
    "type": "spub1"
  },
  {
    "newsch": 1,
    "lat": 25.101504,
    "lng": 121.534113,
    "sid": "MAAyADEAMQAxADAAMAAwADkAMQA=",
    "name": "(私立)臺北市私立微笑音符幼兒園",
    "type": "spub1"
  },
  {
    "newsch": 1,
    "lat": 25.1178,
    "lng": 121.537389,
    "sid": "MAAyADEAMQAxADAAMAAwADkAMgA=",
    "name": "(非營利)臺北市新三玉非營利幼兒園(委託財團法人毛毛蟲兒童哲學基金會辦理)",
    "type": "spub2"
  },
  {
    "newsch": 1,
    "lat": 25.09746,
    "lng": 121.534294,
    "sid": "MAAyADEAMQAxADAAMAAwADkAMwA=",
    "name": "(非營利)臺北市泰北非營利幼兒園(委託財團法人三之三生命教育基金會辦理)",
    "type": "spub2"
  },
  {
    "newsch": 1,
    "lat": 25.111825,
    "lng": 121.533343,
    "sid": "MAAyADEAMQAxADAAMAAwADkANAA=",
    "name": "(私立)臺灣士林地方檢察署職場互助教保服務中心（委託社團法人中華音樂舞蹈暨表演藝術教育協會辦理）",
    "type": "spub1"
  },
  {
    "newsch": 1,
    "lat": 25.121414,
    "lng": 121.526983,
    "sid": "MAAyADEAMQAxADAAMAAwADkANQA=",
    "name": "(私立)臺北市多元教育職場互助教保服務中心",
    "type": "spub1"
  },
  {
    "newsch": 1,
    "lat": 25.10945079,
    "lng": 121.52669982,
    "sid": "MAAyADEAMQAxADAAMAAwADkANgA=",
    "name": "(私立)臺北市太和職場互助教保服務中心",
    "type": "spub1"
  }
]