[
  {
    "newsch": 1,
    "lat": 25.089289,
    "lng": 121.505106,
    "sid": "MAAyADEAMQAxADAAMAAwADAAMQA=",
    "name": "(私立)臺北市私立太和騰幼兒園",
    "type": "spub1"
  },
  {
    "newsch": 1,
    "lat": 25.091122,
    "lng": 121.505882,
    "sid": "MAAyADEAMQAxADAAMAAwADAANQA=",
    "name": "(準公共)臺北市私立慈暉幼兒園",
    "type": "spub3"
  },
  {
    "newsch": 1,
    "lat": 25.127562,
    "lng": 121.532855,
    "sid": "MAAyADEAMQAxADAAMAAwADAANgA=",
    "name": "(私立)臺北市私立好來幼兒園",
    "type": "spub1"
  },
  {
    "newsch": 1,
    "lat": 25.089488,
    "lng": 121.504935,
    "sid": "MAAyADEAMQAxADAAMAAwADAANwA=",
    "name": "(準公共)臺北市私立飛達幼兒園",
    "type": "spub3"
  },
  {
    "newsch": 1,
    "lat": 25.081469,
    "lng": 121.523104,
    "sid": "MAAyADEAMQAxADAAMAAwADAAOAA=",
    "name": "(準公共)臺北市私立淘兒園幼兒園",
    "type": "spub3"
  },
  {
    "newsch": 1,
    "lat": 25.110095,
    "lng": 121.5272043,
    "sid": "MAAyADEAMQAxADAAMAAwADAAOQA=",
    "name": "(準公共)臺北市私立華邇街幼兒園",
    "type": "spub3"
  },
  {
    "newsch": 1,
    "lat": 25.08636,
    "lng": 121.517996,
    "sid": "MAAyADEAMQAxADAAMAAwADEAMAA=",
    "name": "(公立)臺北市士林區百齡國民小學附設幼兒園",
    "type": "spub0"
  },
  {
    "newsch": 1,
    "lat": 25.0899999,
    "lng": 121.502685,
    "sid": "MAAyADEAMQAxADAAMAAwADEAMQA=",
    "name": "(公立)臺北市士林區社子國民小學附設幼兒園",
    "type": "spub0"
  },
  {
    "newsch": 1,
    "lat": 25.098594,
    "lng": 121.529656,
    "sid": "MAAyADEAMQAxADAAMAAwADEAMgA=",
    "name": "(公立)臺北市士林區福林國民小學附設幼兒園",
    "type": "spub0"
  },
  {
    "newsch": 1,
    "lat": 25.119869,
    "lng": 121.552844,
    "sid": "MAAyADEAMQAxADAAMAAwADEAMwA=",
    "name": "(公立)臺北市士林區陽明山國民小學附設幼兒園",
    "type": "spub0"
  },
  {
    "newsch": 1,
    "lat": 25.105269,
    "lng": 121.529455,
    "sid": "MAAyADEAMQAxADAAMAAwADEANAA=",
    "name": "(公立)臺北市士林區雨農國民小學附設幼兒園",
    "type": "spub0"
  },
  {
    "newsch": 1,
    "lat": 25.099402,
    "lng": 121.521336,
    "sid": "MAAyADEAMQAxADAAMAAwADEANQA=",
    "name": "(公立)臺北市士林區文昌國民小學附設幼兒園",
    "type": "spub0"
  },
  {
    "newsch": 1,
    "lat": 25.1102979,
    "lng": 121.536413,
    "sid": "MAAyADEAMQAxADAAMAAwADEANgA=",
    "name": "(公立)臺北市士林區芝山國民小學附設幼兒園",
    "type": "spub0"
  },
  {
    "newsch": 1,
    "lat": 25.105838,
    "lng": 121.482581,
    "sid": "MAAyADEAMQAxADAAMAAwADEANwA=",
    "name": "(公立)臺北市士林區富安國民小學附設幼兒園",
    "type": "spub0"
  },
  {
    "newsch": 1,
    "lat": 25.09258,
    "lng": 121.525064,
    "sid": "MAAyADEAMQAxADAAMAAwADEAOAA=",
    "name": "(公立)臺北市士林區士林國民小學附設幼兒園",
    "type": "spub0"
  },
  {
    "newsch": 1,
    "lat": 25.10354,
    "lng": 121.534873,
    "sid": "MAAyADEAMQAxADAAMAAwADEAOQA=",
    "name": "(公立)臺北市士林區雨聲國民小學附設幼兒園",
    "type": "spub0"
  },
  {
    "newsch": 1,
    "lat": 25.106057,
    "lng": 121.5639321,
    "sid": "MAAyADEAMQAxADAAMAAwADIAMAA=",
    "name": "(公立)臺北市士林區雙溪國民小學附設幼兒園",
    "type": "spub0"
  },
  {
    "newsch": 1,
    "lat": 25.079905,
    "lng": 121.522893,
    "sid": "MAAyADEAMQAxADAAMAAwADIAMQA=",
    "name": "(公立)臺北市士林區劍潭國民小學附設幼兒園",
    "type": "spub0"
  },
  {
    "newsch": 1,
    "lat": 25.108283,
    "lng": 121.523121,
    "sid": "MAAyADEAMQAxADAAMAAwADIAMgA=",
    "name": "(公立)臺北市士林區蘭雅國民小學附設幼兒園",
    "type": "spub0"
  },
  {
    "newsch": 1,
    "lat": 25.1128811,
    "lng": 121.5267641,
    "sid": "MAAyADEAMQAxADAAMAAwADIAMwA=",
    "name": "(公立)臺北市士林區士東國民小學附設幼兒園",
    "type": "spub0"
  },
  {
    "newsch": 1,
    "lat": 25.083645,
    "lng": 121.507802,
    "sid": "MAAyADEAMQAxADAAMAAwADIANAA=",
    "name": "(公立)臺北市士林區葫蘆國民小學附設幼兒園",
    "type": "spub0"
  },
  {
    "newsch": 1,
    "lat": 25.129443,
    "lng": 121.576607,
    "sid": "MAAyADEAMQAxADAAMAAwADIANQA=",
    "name": "(公立)臺北市士林區平等國民小學附設幼兒園",
    "type": "spub0"
  },
  {
    "newsch": 1,
    "lat": 25.081838,
    "lng": 121.519574,
    "sid": "MAAyADEAMQAxADAAMAAwADIANgA=",
    "name": "(公立)臺北市立士林幼兒園",
    "type": "spub0"
  },
  {
    "newsch": 1,
    "lat": 25.119671,
    "lng": 121.579593,
    "sid": "MAAyADEAMQAxADAAMAAwADIANwA=",
    "name": "(公立)臺北市溪山實驗國民小學附設幼兒園",
    "type": "spub0"
  },
  {
    "newsch": 1,
    "lat": 25.1008815,
    "lng": 121.5516164,
    "sid": "MAAyADEAMQAxADAAMAAwADIAOAA=",
    "name": "(私立)財團法人林迺翁文教基金會附設臺北市私立天鵝堡幼兒園",
    "type": "spub1"
  },
  {
    "newsch": 1,
    "lat": 25.084724,
    "lng": 121.509421,
    "sid": "MAAyADEAMQAxADAAMAAwADIAOQA=",
    "name": "(私立)臺北市私立多多種子幼兒園",
    "type": "spub1"
  },
  {
    "newsch": 1,
    "lat": 25.111434,
    "lng": 121.528409,
    "sid": "MAAyADEAMQAxADAAMAAwADMAMAA=",
    "name": "(準公共)臺北市私立忠義幼兒園",
    "type": "spub3"
  },
  {
    "newsch": 1,
    "lat": 25.0883086,
    "lng": 121.5197032,
    "sid": "MAAyADEAMQAxADAAMAAwADMAMQA=",
    "name": "(準公共)臺北市私立民華幼兒園",
    "type": "spub3"
  },
  {
    "newsch": 1,
    "lat": 25.118002,
    "lng": 121.536095,
    "sid": "MAAyADEAMQAxADAAMAAwADMAMgA=",
    "name": "(私立)臺北市私立十大幼兒園",
    "type": "spub1"
  },
  {
    "newsch": 1,
    "lat": 25.0938139,
    "lng": 121.522896,
    "sid": "MAAyADEAMQAxADAAMAAwADMAMwA=",
    "name": "(準公共)臺北市私立幼心幼兒園",
    "type": "spub3"
  },
  {
    "newsch": 1,
    "lat": 25.101741,
    "lng": 121.525102,
    "sid": "MAAyADEAMQAxADAAMAAwADMANAA=",
    "name": "(準公共)臺北市私立泰安幼兒園",
    "type": "spub3"
  },
  {
    "newsch": 1,
    "lat": 25.114664,
    "lng": 121.52557,
    "sid": "MAAyADEAMQAxADAAMAAwADMANQA=",
    "name": "(私立)臺北市私立博仁幼兒園",
    "type": "spub1"
  },
  {
    "newsch": 1,
    "lat": 25.079982,
    "lng": 121.521392,
    "sid": "MAAyADEAMQAxADAAMAAwADMANwA=",
    "name": "(準公共)臺北市私立育成幼兒園",
    "type": "spub3"
  },
  {
    "newsch": 1,
    "lat": 25.0961824,
    "lng": 121.5291814,
    "sid": "MAAyADEAMQAxADAAMAAwADMAOAA=",
    "name": "(私立)臺北市私立何嘉仁士林幼兒園",
    "type": "spub1"
  },
  {
    "newsch": 1,
    "lat": 25.120009,
    "lng": 121.525187,
    "sid": "MAAyADEAMQAxADAAMAAwADQAMQA=",
    "name": "(私立)臺北市私立天母蒙特梭利幼兒園",
    "type": "spub1"
  },
  {
    "newsch": 1,
    "lat": 25.091905,
    "lng": 121.502535,
    "sid": "MAAyADEAMQAxADAAMAAwADQAMgA=",
    "name": "(準公共)臺北市私立社中幼兒園",
    "type": "spub3"
  },
  {
    "newsch": 1,
    "lat": 25.120488,
    "lng": 121.527467,
    "sid": "MAAyADEAMQAxADAAMAAwADQAMwA=",
    "name": "(私立)臺北市私立捷森幼兒園",
    "type": "spub1"
  },
  {
    "newsch": 1,
    "lat": 25.088123,
    "lng": 121.518632,
    "sid": "MAAyADEAMQAxADAAMAAwADQANAA=",
    "name": "(準公共)臺北市私立幼天才幼兒園",
    "type": "spub3"
  },
  {
    "newsch": 1,
    "lat": 25.125853,
    "lng": 121.537079,
    "sid": "MAAyADEAMQAxADAAMAAwADQANQA=",
    "name": "(私立)臺北市私立心愛幼兒園",
    "type": "spub1"
  },
  {
    "newsch": 1,
    "lat": 25.109365,
    "lng": 121.529431,
    "sid": "MAAyADEAMQAxADAAMAAwADQANgA=",
    "name": "(準公共)臺北市私立有緣蒙特梭利幼兒園",
    "type": "spub3"
  },
  {
    "newsch": 1,
    "lat": 25.108753,
    "lng": 121.527325,
    "sid": "MAAyADEAMQAxADAAMAAwADQANwA=",
    "name": "(私立)臺北市私立德行幼兒園",
    "type": "spub1"
  },
  {
    "newsch": 1,
    "lat": 25.0843629,
    "lng": 121.509692,
    "sid": "MAAyADEAMQAxADAAMAAwADQAOAA=",
    "name": "(私立)臺北市私立何嘉仁幼兒園",
    "type": "spub1"
  },
  {
    "newsch": 1,
    "lat": 25.0915749,
    "lng": 121.517659,
    "sid": "MAAyADEAMQAxADAAMAAwADQAOQA=",
    "name": "(私立)財團法人臺灣聖公會附設臺北市私立牧愛堂幼兒園",
    "type": "spub1"
  },
  {
    "newsch": 1,
    "lat": 25.100793,
    "lng": 121.530746,
    "sid": "MAAyADEAMQAxADAAMAAwADUAMAA=",
    "name": "(私立)臺北市私立博如幼兒園",
    "type": "spub1"
  },
  {
    "newsch": 1,
    "lat": 25.1094197,
    "lng": 121.5235236,
    "sid": "MAAyADEAMQAxADAAMAAwADUAMQA=",
    "name": "(私立)臺北市私立博如日本幼兒園",
    "type": "spub1"
  },
  {
    "newsch": 1,
    "lat": 25.091826,
    "lng": 121.525551,
    "sid": "MAAyADEAMQAxADAAMAAwADUAMgA=",
    "name": "(準公共)臺北市私立佳嬰幼兒園",
    "type": "spub3"
  },
  {
    "newsch": 1,
    "lat": 25.122276,
    "lng": 121.533136,
    "sid": "MAAyADEAMQAxADAAMAAwADUAMwA=",
    "name": "(準公共)臺北市私立弘明幼兒園",
    "type": "spub3"
  },
  {
    "newsch": 1,
    "lat": 25.087131,
    "lng": 121.517067,
    "sid": "MAAyADEAMQAxADAAMAAwADUANAA=",
    "name": "(準公共)臺北市私立求真幼兒園",
    "type": "spub3"
  },
  {
    "newsch": 1,
    "lat": 25.107691,
    "lng": 121.527029,
    "sid": "MAAyADEAMQAxADAAMAAwADUANQA=",
    "name": "(私立)臺北市私立翰諾幼兒園",
    "type": "spub1"
  },
  {
    "newsch": 1,
    "lat": 25.10626,
    "lng": 121.533227,
    "sid": "MAAyADEAMQAxADAAMAAwADUANwA=",
    "name": "(私立)臺北市私立浩恩幼兒園",
    "type": "spub1"
  },
  {
    "newsch": 1,
    "lat": 25.1122,
    "lng": 121.539892,
    "sid": "MAAyADEAMQAxADAAMAAwADUAOAA=",
    "name": "(準公共)臺北市私立華育幼兒園",
    "type": "spub3"
  },
  {
    "newsch": 1,
    "lat": 25.089672,
    "lng": 121.509697,
    "sid": "MAAyADEAMQAxADAAMAAwADYAMAA=",
    "name": "(準公共)臺北市私立育強幼兒園",
    "type": "spub3"
  },
  {
    "newsch": 1,
    "lat": 25.092005,
    "lng": 121.505901,
    "sid": "MAAyADEAMQAxADAAMAAwADYAMgA=",
    "name": "(準公共)臺北市私立星莆幼兒園",
    "type": "spub3"
  },
  {
    "newsch": 1,
    "lat": 25.119507,
    "lng": 121.533781,
    "sid": "MAAyADEAMQAxADAAMAAwADYAMwA=",
    "name": "(私立)臺北市私立太和綠意幼兒園",
    "type": "spub1"
  },
  {
    "newsch": 1,
    "lat": 25.1081579,
    "lng": 121.531425,
    "sid": "MAAyADEAMQAxADAAMAAwADYANAA=",
    "name": "(準公共)臺北市私立敦品幼兒園",
    "type": "spub3"
  },
  {
    "newsch": 1,
    "lat": 25.0878694,
    "lng": 121.5224116,
    "sid": "MAAyADEAMQAxADAAMAAwADYANQA=",
    "name": "(準公共)臺北市私立孩子國幼兒園",
    "type": "spub3"
  },
  {
    "newsch": 1,
    "lat": 25.1099108,
    "lng": 121.5269761,
    "sid": "MAAyADEAMQAxADAAMAAwADYANgA=",
    "name": "(私立)臺北市私立種籽幼兒園",
    "type": "spub1"
  },
  {
    "newsch": 1,
    "lat": 25.1114379,
    "lng": 121.532297,
    "sid": "MAAyADEAMQAxADAAMAAwADcAMQA=",
    "name": "(非營利)臺北市三玉非營利幼兒園（委託社團法人台北市幼兒園協會辦理）",
    "type": "spub2"
  },
  {
    "newsch": 1,
    "lat": 25.103469,
    "lng": 121.527575,
    "sid": "MAAyADEAMQAxADAAMAAwADcAMgA=",
    "name": "(準公共)臺北市私立怡寶幼兒園",
    "type": "spub3"
  },
  {
    "newsch": 1,
    "lat": 25.103542,
    "lng": 121.527827,
    "sid": "MAAyADEAMQAxADAAMAAwADcAMwA=",
    "name": "(準公共)臺北市私立怡寶資優幼兒園",
    "type": "spub3"
  },
  {
    "newsch": 1,
    "lat": 25.126981,
    "lng": 121.533307,
    "sid": "MAAyADEAMQAxADAAMAAwADcANAA=",
    "name": "(私立)臺北市私立卡兒堡國際幼兒園",
    "type": "spub1"
  },
  {
    "newsch": 1,
    "lat": 25.0912828,
    "lng": 121.507839,
    "sid": "MAAyADEAMQAxADAAMAAwADcANQA=",
    "name": "(準公共)臺北市私立幼安幼兒園",
    "type": "spub3"
  },
  {
    "newsch": 1,
    "lat": 25.082193,
    "lng": 121.510873,
    "sid": "MAAyADEAMQAxADAAMAAwADcANgA=",
    "name": "(非營利)臺北市葫蘆非營利幼兒園（委託社團法人台灣公共托育協會辦理）",
    "type": "spub2"
  },
  {
    "newsch": 1,
    "lat": 25.097715,
    "lng": 121.5433,
    "sid": "MAAyADEAMQAxADAAMAAwADcAOAA=",
    "name": "(私立)臺北市私立奧爾仕幼兒園",
    "type": "spub1"
  },
  {
    "newsch": 1,
    "lat": 25.0878837,
    "lng": 121.5231597,
    "sid": "MAAyADEAMQAxADAAMAAwADcAOQA=",
    "name": "(私立)臺北市私立凱斯幼兒園",
    "type": "spub1"
  },
  {
    "newsch": 1,
    "lat": 25.0878349,
    "lng": 121.506715,
    "sid": "MAAyADEAMQAxADAAMAAwADgAMAA=",
    "name": "(準公共)臺北市私立瑞比特幼兒園",
    "type": "spub3"
  },
  {
    "newsch": 1,
    "lat": 25.083797,
    "lng": 121.517926,
    "sid": "MAAyADEAMQAxADAAMAAwADgAMQA=",
    "name": "(準公共)臺北市私立欣光幼兒園",
    "type": "spub3"
  },
  {
    "newsch": 1,
    "lat": 25.112876,
    "lng": 121.5302817,
    "sid": "MAAyADEAMQAxADAAMAAwADgAMgA=",
    "name": "(私立)臺北市私立師達幼兒園",
    "type": "spub1"
  },
  {
    "newsch": 1,
    "lat": 25.110613,
    "lng": 121.527312,
    "sid": "MAAyADEAMQAxADAAMAAwADgAMwA=",
    "name": "(私立)臺北市私立熊寶貝幼兒園",
    "type": "spub1"
  },
  {
    "newsch": 1,
    "lat": 25.116617,
    "lng": 121.536225,
    "sid": "MAAyADEAMQAxADAAMAAwADgANQA=",
    "name": "(公立)臺北市立臺北特殊教育學校幼兒部",
    "type": "spub0"
  },
  {
    "newsch": 1,
    "lat": 25.116621,
    "lng": 121.534969,
    "sid": "MAAyADEAMQAxADAAMAAwADgANgA=",
    "name": "(公立)臺北市立啟明學校幼兒部",
    "type": "spub0"
  },
  {
    "newsch": 1,
    "lat": 25.1211321,
    "lng": 121.5266742,
    "sid": "MAAyADEAMQAxADAAMAAwADgANwA=",
    "name": "(私立)臺北市私立精采童年幼兒園",
    "type": "spub1"
  },
  {
    "newsch": 1,
    "lat": 25.1104814,
    "lng": 121.5264565,
    "sid": "MAAyADEAMQAxADAAMAAwADgAOAA=",
    "name": "(私立)臺北市私立太和蒙特梭利幼兒園",
    "type": "spub1"
  },
  {
    "newsch": 1,
    "lat": 25.1197914,
    "lng": 121.5275331,
    "sid": "MAAyADEAMQAxADAAMAAwADgAOQA=",
    "name": "(非營利)臺北市天母非營利幼兒園（委託社團法人台北市幼兒園協會辦理）",
    "type": "spub2"
  },
  {
    "newsch": 1,
    "lat": 25.1214928,
    "lng": 121.5268787,
    "sid": "MAAyADEAMQAxADAAMAAwADkAMAA=",
    "name": "(私立)臺北市私立道思幼兒園",
    "type": "spub1"
  },
  {
    "newsch": 1,
    "lat": 25.1011922,
    "lng": 121.5371019,
    "sid": "MAAyADEAMQAxADAAMAAwADkAMQA=",
    "name": "(私立)臺北市私立微笑音符幼兒園",
    "type": "spub1"
  },
  {
    "newsch": 1,
    "lat": 25.117882,
    "lng": 121.53727,
    "sid": "MAAyADEAMQAxADAAMAAwADkAMgA=",
    "name": "(非營利)臺北市新三玉非營利幼兒園(委託財團法人毛毛蟲兒童哲學基金會辦理)",
    "type": "spub2"
  },
  {
    "newsch": 1,
    "lat": 25.0973651,
    "lng": 121.5339431,
    "sid": "MAAyADEAMQAxADAAMAAwADkAMwA=",
    "name": "(非營利)臺北市泰北非營利幼兒園(委託財團法人三之三生命教育基金會辦理)",
    "type": "spub2"
  },
  {
    "newsch": 1,
    "lat": 25.111825,
    "lng": 121.5333428,
    "sid": "MAAyADEAMQAxADAAMAAwADkANAA=",
    "name": "(私立)臺灣士林地方檢察署職場互助教保服務中心（委託社團法人中華音樂舞蹈暨表演藝術教育協會辦理）",
    "type": "spub1"
  },
  {
    "newsch": 1,
    "lat": 25.1214531,
    "lng": 121.527087,
    "sid": "MAAyADEAMQAxADAAMAAwADkANQA=",
    "name": "(私立)臺北市多元教育職場互助教保服務中心",
    "type": "spub1"
  },
  {
    "newsch": 1,
    "lat": 25.1094335,
    "lng": 121.526717,
    "sid": "MAAyADEAMQAxADAAMAAwADkANgA=",
    "name": "(私立)臺北市太和職場互助教保服務中心",
    "type": "spub1"
  }
]