[
  {
    "newsch": 1,
    "lat": 25.036204,
    "lng": 121.616547,
    "sid": "MAAyADEAMQA1ADAAMAAwADAAMgA=",
    "name": "(私立)臺北市私立大方凌雲幼兒園",
    "type": "spub1"
  },
  {
    "newsch": 1,
    "lat": 25.046335,
    "lng": 121.615992,
    "sid": "MAAyADEAMQA1ADAAMAAwADAANAA=",
    "name": "(私立)臺北市私立新莒光幼兒園",
    "type": "spub1"
  },
  {
    "newsch": 1,
    "lat": 25.043551,
    "lng": 121.618686,
    "sid": "MAAyADEAMQA1ADAAMAAwADAANQA=",
    "name": "(私立)臺北市私立南光幼兒園",
    "type": "spub1"
  },
  {
    "newsch": 1,
    "lat": 25.055866,
    "lng": 121.603335,
    "sid": "MAAyADEAMQA1ADAAMAAwADAANgA=",
    "name": "(公立)臺北市南港區東新國民小學附設幼兒園",
    "type": "spub0"
  },
  {
    "newsch": 1,
    "lat": 25.045422,
    "lng": 121.589951,
    "sid": "MAAyADEAMQA1ADAAMAAwADAANwA=",
    "name": "(公立)臺北市南港區修德國民小學附設幼兒園",
    "type": "spub0"
  },
  {
    "newsch": 1,
    "lat": 25.058149,
    "lng": 121.610481,
    "sid": "MAAyADEAMQA1ADAAMAAwADAAOAA=",
    "name": "(公立)臺北市南港區南港國民小學附設幼兒園",
    "type": "spub0"
  },
  {
    "newsch": 1,
    "lat": 25.053473,
    "lng": 121.594428,
    "sid": "MAAyADEAMQA1ADAAMAAwADAAOQA=",
    "name": "(公立)臺北市南港區玉成國民小學附設幼兒園",
    "type": "spub0"
  },
  {
    "newsch": 1,
    "lat": 25.047126,
    "lng": 121.586609,
    "sid": "MAAyADEAMQA1ADAAMAAwADEAMAA=",
    "name": "(公立)臺北市南港區成德國民小學附設幼兒園",
    "type": "spub0"
  },
  {
    "newsch": 1,
    "lat": 25.058015,
    "lng": 121.598857,
    "sid": "MAAyADEAMQA1ADAAMAAwADEAMQA=",
    "name": "(公立)臺北市立南港幼兒園",
    "type": "spub0"
  },
  {
    "newsch": 1,
    "lat": 25.040057,
    "lng": 121.619542,
    "sid": "MAAyADEAMQA1ADAAMAAwADEAMgA=",
    "name": "(公立)臺北市南港區舊莊國民小學附設幼兒園",
    "type": "spub0"
  },
  {
    "newsch": 1,
    "lat": 25.039564,
    "lng": 121.622008,
    "sid": "MAAyADEAMQA1ADAAMAAwADEAMwA=",
    "name": "(準公共)臺北市私立莒光幼兒園",
    "type": "spub3"
  },
  {
    "newsch": 1,
    "lat": 25.045561,
    "lng": 121.587437,
    "sid": "MAAyADEAMQA1ADAAMAAwADEANAA=",
    "name": "(準公共)臺北市私立樹德幼兒園",
    "type": "spub3"
  },
  {
    "newsch": 1,
    "lat": 25.042957,
    "lng": 121.586125,
    "sid": "MAAyADEAMQA1ADAAMAAwADEANgA=",
    "name": "(準公共)臺北市私立龍華幼兒園",
    "type": "spub3"
  },
  {
    "newsch": 1,
    "lat": 25.048257,
    "lng": 121.581408,
    "sid": "MAAyADEAMQA1ADAAMAAwADEANwA=",
    "name": "(私立)臺北市私立大大樹幼兒園",
    "type": "spub1"
  },
  {
    "newsch": 1,
    "lat": 25.053843,
    "lng": 121.600486,
    "sid": "MAAyADEAMQA1ADAAMAAwADEAOQA=",
    "name": "(私立)財團法人國光慈善事業基金會附設臺北市私立三軍幼兒園",
    "type": "spub1"
  },
  {
    "newsch": 1,
    "lat": 25.056795,
    "lng": 121.592483,
    "sid": "MAAyADEAMQA1ADAAMAAwADIAMAA=",
    "name": "(私立)世平興業股份有限公司附設臺北市私立員工子女幼兒園",
    "type": "spub1"
  },
  {
    "newsch": 1,
    "lat": 25.041866,
    "lng": 121.618728,
    "sid": "MAAyADEAMQA1ADAAMAAwADIAMQA=",
    "name": "(準公共)臺北市私立惠群幼兒園",
    "type": "spub3"
  },
  {
    "newsch": 1,
    "lat": 25.048022,
    "lng": 121.587122,
    "sid": "MAAyADEAMQA1ADAAMAAwADIANAA=",
    "name": "(準公共)臺北市私立大華幼兒園",
    "type": "spub3"
  },
  {
    "newsch": 1,
    "lat": 25.04053,
    "lng": 121.587273,
    "sid": "MAAyADEAMQA1ADAAMAAwADIANQA=",
    "name": "(準公共)臺北市私立海格斯大千幼兒園",
    "type": "spub3"
  },
  {
    "newsch": 1,
    "lat": 25.046906,
    "lng": 121.613909,
    "sid": "MAAyADEAMQA1ADAAMAAwADIANgA=",
    "name": "(私立)臺北市私立欣苗幼兒園",
    "type": "spub1"
  },
  {
    "newsch": 1,
    "lat": 25.040163,
    "lng": 121.589539,
    "sid": "MAAyADEAMQA1ADAAMAAwADIANwA=",
    "name": "(私立)臺北市私立傑生寶華國際幼兒園",
    "type": "spub1"
  },
  {
    "newsch": 1,
    "lat": 25.057086,
    "lng": 121.604487,
    "sid": "MAAyADEAMQA1ADAAMAAwADIAOAA=",
    "name": "(私立)臺北市私立東美幼兒園",
    "type": "spub1"
  },
  {
    "newsch": 1,
    "lat": 25.047756,
    "lng": 121.613059,
    "sid": "MAAyADEAMQA1ADAAMAAwADIAOQA=",
    "name": "(私立)中央研究院附設臺北市私立幼兒園",
    "type": "spub1"
  },
  {
    "newsch": 1,
    "lat": 25.040895,
    "lng": 121.58862,
    "sid": "MAAyADEAMQA1ADAAMAAwADMAMQA=",
    "name": "(準公共)臺北市私立小騎士幼兒園",
    "type": "spub3"
  },
  {
    "newsch": 1,
    "lat": 25.03895,
    "lng": 121.591764,
    "sid": "MAAyADEAMQA1ADAAMAAwADMAMwA=",
    "name": "(非營利)臺北市港福非營利幼兒園(委託中華學校財團法人辦理)",
    "type": "spub2"
  },
  {
    "newsch": 1,
    "lat": 25.052434,
    "lng": 121.594847,
    "sid": "MAAyADEAMQA1ADAAMAAwADMANAA=",
    "name": "(準公共)臺北市立南港高級中學教師會附設臺北市私立員工子女幼兒園",
    "type": "spub3"
  },
  {
    "newsch": 1,
    "lat": 25.054235,
    "lng": 121.605271,
    "sid": "MAAyADEAMQA1ADAAMAAwADMANQA=",
    "name": "(私立)臺北市私立兒童灣幼兒園",
    "type": "spub1"
  },
  {
    "newsch": 1,
    "lat": 25.047047,
    "lng": 121.614302,
    "sid": "MAAyADEAMQA1ADAAMAAwADMANgA=",
    "name": "(私立)臺北市私立欣苗寶貝幼兒園",
    "type": "spub1"
  },
  {
    "newsch": 1,
    "lat": 25.057188,
    "lng": 121.598914,
    "sid": "MAAyADEAMQA1ADAAMAAwADMANwA=",
    "name": "(私立)臺北市私立道生南港幼兒園",
    "type": "spub1"
  },
  {
    "newsch": 1,
    "lat": 25.04228,
    "lng": 121.617649,
    "sid": "MAAyADEAMQA1ADAAMAAwADMAOAA=",
    "name": "(非營利)臺北市胡適非營利幼兒園（委託財團法人仁德醫護管理專科學校辦理）",
    "type": "spub2"
  },
  {
    "newsch": 1,
    "lat": 25.054048,
    "lng": 121.5928,
    "sid": "MAAyADEAMQA1ADAAMAAwADMAOQA=",
    "name": "(非營利)臺北市向陽非營利幼兒園（委託社團法人嬰幼兒教育與家庭發展協會辦理）",
    "type": "spub2"
  },
  {
    "newsch": 1,
    "lat": 25.063189,
    "lng": 121.614068,
    "sid": "MAAyADEAMQA1ADAAMAAwADQAMAA=",
    "name": "(私立)臺北市私立咪咪陳幼兒園",
    "type": "spub1"
  },
  {
    "newsch": 1,
    "lat": 25.05909,
    "lng": 121.610391,
    "sid": "MAAyADEAMQA1ADAAMAAwADQAMQA=",
    "name": "(私立)臺北市私立經貿夢想幼兒園",
    "type": "spub1"
  },
  {
    "newsch": 1,
    "lat": 25.047181,
    "lng": 121.585227,
    "sid": "MAAyADEAMQA1ADAAMAAwADQAMgA=",
    "name": "(私立)奇異文教股份有限公司附設臺北市私立奇異鳥幼兒園",
    "type": "spub1"
  },
  {
    "newsch": 1,
    "lat": 25.048637,
    "lng": 121.597301,
    "sid": "MAAyADEAMQA1ADAAMAAwADQAMwA=",
    "name": "(私立)國防部軍備局光華營區職場互助教保服務中心（委託財團法人三之三生命教育基金會辦理）",
    "type": "spub1"
  },
  {
    "newsch": 1,
    "lat": 25.050124,
    "lng": 121.595387,
    "sid": "MAAyADEAMQA1ADAAMAAwADQANAA=",
    "name": "(私立)衛生福利部職場互助教保服務中心（委託社團法人金字塔幼兒教育研究學會辦理）",
    "type": "spub1"
  },
  {
    "newsch": 1,
    "lat": 25.056377,
    "lng": 121.610314,
    "sid": "MAAyADEAMQA1ADAAMAAwADQANQA=",
    "name": "(非營利)臺北市經貿非營利幼兒園（委託財團法人慈心兒童教育基金會辦理）",
    "type": "spub2"
  }
]