[
  {
    "newsch": 1,
    "lat": 25.1282935,
    "lng": 121.747944,
    "sid": "MAAxADIAMAAwADAAMAAwADAAMQA=",
    "name": "(私立)基隆市私立人愛幼兒園",
    "type": "spub1"
  },
  {
    "newsch": 1,
    "lat": 25.125651,
    "lng": 121.742598,
    "sid": "MAAxADIAMAAwADAAMAAwADAAMwA=",
    "name": "(私立)基隆市私立維也納幼兒園",
    "type": "spub1"
  },
  {
    "newsch": 1,
    "lat": 25.118424,
    "lng": 121.744705,
    "sid": "MAAxADIAMAAwADAAMAAwADAANQA=",
    "name": "(準公共)基隆市私立雙全幼兒園",
    "type": "spub3"
  },
  {
    "newsch": 1,
    "lat": 25.127682,
    "lng": 121.746264,
    "sid": "MAAxADIAMAAwADAAMAAwADAANgA=",
    "name": "(公立)基隆市仁愛區仁愛國民小學附設幼兒園",
    "type": "spub0"
  },
  {
    "newsch": 1,
    "lat": 25.119212,
    "lng": 121.7439789,
    "sid": "MAAxADIAMAAwADAAMAAwADAANwA=",
    "name": "(公立)基隆市仁愛區南榮國民小學附設幼兒園",
    "type": "spub0"
  },
  {
    "newsch": 1,
    "lat": 25.125957,
    "lng": 121.738942,
    "sid": "MAAxADIAMAAwADAAMAAwADAAOAA=",
    "name": "(公立)基隆市仁愛區成功國民小學附設幼兒園",
    "type": "spub0"
  },
  {
    "newsch": 1,
    "lat": 25.1273529,
    "lng": 121.746922,
    "sid": "MAAxADIAMAAwADAAMAAwADEAMAA=",
    "name": "(公立)基隆市信義區信義國民小學附設幼兒園",
    "type": "spub0"
  },
  {
    "newsch": 1,
    "lat": 25.129004,
    "lng": 121.745107,
    "sid": "MAAxADIAMAAwADAAMAAwADEAMQA=",
    "name": "(私立)基隆市私立筌勝幼兒園",
    "type": "spub1"
  },
  {
    "newsch": 1,
    "lat": 25.1201786,
    "lng": 121.7460791,
    "sid": "MAAxADIAMAAwADAAMAAwADEAMgA=",
    "name": "(非營利)基隆市南榮非營利幼兒園(委託財團法人伊甸社會福利基金會辦理)",
    "type": "spub2"
  },
  {
    "newsch": 1,
    "lat": 25.128394,
    "lng": 121.736484,
    "sid": "MAAxADIAMAA0ADAAMAAwADEANwAtADAAOAA=",
    "name": "(公立)基隆市立安心幼兒園光華分班",
    "type": "spub0"
  }
]