[
  {
    "newsch": 1,
    "lat": 25.132445,
    "lng": 121.78186,
    "sid": "MAAxADIAMAAxADAAMAAwADAAMQA=",
    "name": "(私立)基隆市私立新美幼兒園",
    "type": "spub1"
  },
  {
    "newsch": 1,
    "lat": 25.132093,
    "lng": 121.769547,
    "sid": "MAAxADIAMAAxADAAMAAwADAAMwA=",
    "name": "(私立)基隆市私立道生幼兒園",
    "type": "spub1"
  },
  {
    "newsch": 1,
    "lat": 25.128695,
    "lng": 121.76299,
    "sid": "MAAxADIAMAAxADAAMAAwADAANQA=",
    "name": "(公立)基隆市信義區東光國民小學附設幼兒園",
    "type": "spub0"
  },
  {
    "newsch": 1,
    "lat": 25.132224,
    "lng": 121.760633,
    "sid": "MAAxADIAMAAxADAAMAAwADAANgA=",
    "name": "(公立)基隆市信義區東信國民小學附設幼兒園",
    "type": "spub0"
  },
  {
    "newsch": 1,
    "lat": 25.136734,
    "lng": 121.777775,
    "sid": "MAAxADIAMAAxADAAMAAwADAANwA=",
    "name": "(私立)基隆市私立哈博士幼兒園",
    "type": "spub1"
  },
  {
    "newsch": 1,
    "lat": 25.13113,
    "lng": 121.757113,
    "sid": "MAAxADIAMAAxADAAMAAwADAAOAA=",
    "name": "(公立)基隆市信義區中興國民小學附設幼兒園",
    "type": "spub0"
  },
  {
    "newsch": 1,
    "lat": 25.128909,
    "lng": 121.783114,
    "sid": "MAAxADIAMAAxADAAMAAwADAAOQA=",
    "name": "(公立)基隆市信義區深澳國民小學附設幼兒園",
    "type": "spub0"
  },
  {
    "newsch": 1,
    "lat": 25.137703,
    "lng": 121.777337,
    "sid": "MAAxADIAMAAxADAAMAAwADEAMAA=",
    "name": "(公立)基隆市信義區深美國民小學附設幼兒園",
    "type": "spub0"
  },
  {
    "newsch": 1,
    "lat": 25.128988,
    "lng": 121.752072,
    "sid": "MAAxADIAMAAxADAAMAAwADEAMQA=",
    "name": "(私立)財團法人天主教會台北教區基隆市私立若石幼兒園",
    "type": "spub1"
  },
  {
    "newsch": 1,
    "lat": 25.133624,
    "lng": 121.781192,
    "sid": "MAAxADIAMAAxADAAMAAwADEAMgA=",
    "name": "(準公共)基隆市私立培利園幼兒園",
    "type": "spub3"
  },
  {
    "newsch": 1,
    "lat": 25.134643,
    "lng": 121.782524,
    "sid": "MAAxADIAMAAxADAAMAAwADEANQA=",
    "name": "(準公共)基隆市私立森美幼兒園",
    "type": "spub3"
  },
  {
    "newsch": 1,
    "lat": 25.131652,
    "lng": 121.761422,
    "sid": "MAAxADIAMAAxADAAMAAwADEANgA=",
    "name": "(準公共)基隆市私立啟賢幼兒園",
    "type": "spub3"
  },
  {
    "newsch": 1,
    "lat": 25.132576,
    "lng": 121.782427,
    "sid": "MAAxADIAMAAxADAAMAAwADEAOAA=",
    "name": "(私立)基隆市私立嘉美幼兒園",
    "type": "spub1"
  },
  {
    "newsch": 1,
    "lat": 25.129417,
    "lng": 121.768293,
    "sid": "MAAxADIAMAAxADAAMAAwADIAMAA=",
    "name": "(非營利)基隆市信義非營利幼兒園(委託社團法人台北市教保人員協會辦理)",
    "type": "spub2"
  },
  {
    "newsch": 1,
    "lat": 25.127764,
    "lng": 121.780799,
    "sid": "MAAxADIAMAAxADAAMAAwADIAMQA=",
    "name": "(私立)基隆市私立薇莘幼兒園",
    "type": "spub1"
  },
  {
    "newsch": 1,
    "lat": 25.129648,
    "lng": 121.746649,
    "sid": "MAAxADIAMAAxADAAMAAwADIAMgA=",
    "name": "(私立)基隆市陽明海運職場互助教保服務中心(委託社團法人臺灣兒童教育發展協會辦理)",
    "type": "spub1"
  }
]