[
  {
    "newsch": 1,
    "lat": 25.221675,
    "lng": 121.635661,
    "sid": "MAAzADIAMAA4ADAAMAAwADAAMQA=",
    "name": "(準公共)財團法人天主教聖母聖心會附設新北市私立天仁幼兒園",
    "type": "spub3"
  },
  {
    "newsch": 1,
    "lat": 25.219137,
    "lng": 121.602621,
    "sid": "MAAzADIAMAA4ADAAMAAwADAAMwA=",
    "name": "(公立)新北市金山區三和國民小學附設幼兒園",
    "type": "spub0"
  },
  {
    "newsch": 1,
    "lat": 25.239789,
    "lng": 121.630037,
    "sid": "MAAzADIAMAA4ADAAMAAwADAANAA=",
    "name": "(公立)新北市金山區中角國民小學附設幼兒園",
    "type": "spub0"
  },
  {
    "newsch": 1,
    "lat": 25.221191,
    "lng": 121.63569,
    "sid": "MAAzADIAMAA4ADAAMAAwADAANQA=",
    "name": "(公立)新北市金山區金美國民小學附設幼兒園",
    "type": "spub0"
  },
  {
    "newsch": 1,
    "lat": 25.223639,
    "lng": 121.636407,
    "sid": "MAAzADIAMAA4ADAAMAAwADAANgA=",
    "name": "(公立)新北市金山區金山國民小學附設幼兒園",
    "type": "spub0"
  },
  {
    "newsch": 1,
    "lat": 25.223394,
    "lng": 121.63615,
    "sid": "MAAzADIAMAA4ADAAMAAwADAANgAtADAAMQA=",
    "name": "(公立)新北市金山區金山國民小學附設幼兒園美田分班",
    "type": "spub0"
  }
]