[
  {
    "newsch": 1,
    "lat": 25.004286,
    "lng": 121.466394,
    "sid": "MAAzADIAMgAwADAAMAAwADAAMQA=",
    "name": "(準公共)新北市私立忠孝幼兒園",
    "type": "spub3"
  },
  {
    "newsch": 1,
    "lat": 25.027488,
    "lng": 121.473,
    "sid": "MAAzADIAMgAwADAAMAAwADAAMgA=",
    "name": "(私立)新北市私立寶貝媽咪幼兒園",
    "type": "spub1"
  },
  {
    "newsch": 1,
    "lat": 25.0268843,
    "lng": 121.4787531,
    "sid": "MAAzADIAMgAwADAAMAAwADAAMwA=",
    "name": "(私立)新北市私立愛唯兒幼兒園",
    "type": "spub1"
  },
  {
    "newsch": 1,
    "lat": 25.023113,
    "lng": 121.45618,
    "sid": "MAAzADIAMgAwADAAMAAwADAANgA=",
    "name": "(私立)新北市私立幼祥幼兒園",
    "type": "spub1"
  },
  {
    "newsch": 1,
    "lat": 24.995564,
    "lng": 121.45464,
    "sid": "MAAzADIAMgAwADAAMAAwADAANwA=",
    "name": "(準公共)新北市私立小奈米幼兒園",
    "type": "spub3"
  },
  {
    "newsch": 1,
    "lat": 25.028303,
    "lng": 121.471794,
    "sid": "MAAzADIAMgAwADAAMAAwADAAOAA=",
    "name": "(私立)新北市私立寶仁幼兒園",
    "type": "spub1"
  },
  {
    "newsch": 1,
    "lat": 25.027917,
    "lng": 121.47855,
    "sid": "MAAzADIAMgAwADAAMAAwADAAOQA=",
    "name": "(私立)新北市私立凱思莉幼兒園",
    "type": "spub1"
  },
  {
    "newsch": 1,
    "lat": 24.985112,
    "lng": 121.427878,
    "sid": "MAAzADIAMgAwADAAMAAwADEAMAA=",
    "name": "(準公共)新北市私立省思幼兒園",
    "type": "spub3"
  },
  {
    "newsch": 1,
    "lat": 25.019355,
    "lng": 121.466271,
    "sid": "MAAzADIAMgAwADAAMAAwADEAMQA=",
    "name": "(私立)新北市私立光星幼兒園",
    "type": "spub1"
  },
  {
    "newsch": 1,
    "lat": 25.0158194,
    "lng": 121.4580137,
    "sid": "MAAzADIAMgAwADAAMAAwADEAMgA=",
    "name": "(私立)新北市私立育樂幼兒園",
    "type": "spub1"
  },
  {
    "newsch": 1,
    "lat": 25.0206015,
    "lng": 121.4683506,
    "sid": "MAAzADIAMgAwADAAMAAwADEAMwA=",
    "name": "(私立)新北市私立晨暘幼兒園",
    "type": "spub1"
  },
  {
    "newsch": 1,
    "lat": 25.01296,
    "lng": 121.479077,
    "sid": "MAAzADIAMgAwADAAMAAwADEANAA=",
    "name": "(私立)陽光森林文教股份有限公司臺北縣分公司附設新北市私立陽光小子幼兒園",
    "type": "spub1"
  },
  {
    "newsch": 1,
    "lat": 25.0111111,
    "lng": 121.4458333,
    "sid": "MAAzADIAMgAwADAAMAAwADEANQA=",
    "name": "(準公共)新北市私立道安幼兒園",
    "type": "spub3"
  },
  {
    "newsch": 1,
    "lat": 25.0280459,
    "lng": 121.474623,
    "sid": "MAAzADIAMgAwADAAMAAwADEANgA=",
    "name": "(私立)新北市私立悅嘉幼兒園",
    "type": "spub1"
  },
  {
    "newsch": 1,
    "lat": 25.0052069,
    "lng": 121.468101,
    "sid": "MAAzADIAMgAwADAAMAAwADEANwA=",
    "name": "(準公共)新北市私立立信幼兒園",
    "type": "spub3"
  },
  {
    "newsch": 1,
    "lat": 25.023597,
    "lng": 121.477405,
    "sid": "MAAzADIAMgAwADAAMAAwADEAOAA=",
    "name": "(準公共)新北市私立雙成幼兒園",
    "type": "spub3"
  },
  {
    "newsch": 1,
    "lat": 25.0182967,
    "lng": 121.4531777,
    "sid": "MAAzADIAMgAwADAAMAAwADIAMQA=",
    "name": "(準公共)新北市私立忠山幼兒園",
    "type": "spub3"
  },
  {
    "newsch": 1,
    "lat": 25.0070276,
    "lng": 121.4718245,
    "sid": "MAAzADIAMgAwADAAMAAwADIAMgA=",
    "name": "(私立)新北市私立幼暉幼兒園",
    "type": "spub1"
  },
  {
    "newsch": 1,
    "lat": 25.017524,
    "lng": 121.475112,
    "sid": "MAAzADIAMgAwADAAMAAwADIAMwA=",
    "name": "(準公共)新北市私立遠東幼兒園",
    "type": "spub3"
  },
  {
    "newsch": 1,
    "lat": 25.028516,
    "lng": 121.480204,
    "sid": "MAAzADIAMgAwADAAMAAwADIANAA=",
    "name": "(私立)新北市私立愛唯揚幼兒園",
    "type": "spub1"
  },
  {
    "newsch": 1,
    "lat": 25.013005,
    "lng": 121.47462,
    "sid": "MAAzADIAMgAwADAAMAAwADIANQA=",
    "name": "(私立)財團法人台北市中華基督教青年會附設新北市私立板新幼兒園",
    "type": "spub1"
  },
  {
    "newsch": 1,
    "lat": 25.0232049,
    "lng": 121.474202,
    "sid": "MAAzADIAMgAwADAAMAAwADIANgA=",
    "name": "(私立)新北市私立蘇格拉底幼兒園",
    "type": "spub1"
  },
  {
    "newsch": 1,
    "lat": 24.9995062,
    "lng": 121.462199,
    "sid": "MAAzADIAMgAwADAAMAAwADIAOQA=",
    "name": "(準公共)新北市私立大業幼兒園",
    "type": "spub3"
  },
  {
    "newsch": 1,
    "lat": 25.0130804,
    "lng": 121.4727712,
    "sid": "MAAzADIAMgAwADAAMAAwADMAMQA=",
    "name": "(準公共)新北市私立鴻園幼兒園",
    "type": "spub3"
  },
  {
    "newsch": 1,
    "lat": 25.003032,
    "lng": 121.45677,
    "sid": "MAAzADIAMgAwADAAMAAwADMAMgA=",
    "name": "(準公共)新北市私立培揚幼兒園",
    "type": "spub3"
  },
  {
    "newsch": 1,
    "lat": 25.0096215,
    "lng": 121.4620562,
    "sid": "MAAzADIAMgAwADAAMAAwADMAMwA=",
    "name": "(準公共)新北市私立福音幼兒園",
    "type": "spub3"
  },
  {
    "newsch": 1,
    "lat": 25.027991,
    "lng": 121.463408,
    "sid": "MAAzADIAMgAwADAAMAAwADMANAA=",
    "name": "(準公共)新北市私立艾維恩四維幼兒園",
    "type": "spub3"
  },
  {
    "newsch": 1,
    "lat": 25.0272829,
    "lng": 121.45847,
    "sid": "MAAzADIAMgAwADAAMAAwADMANQA=",
    "name": "(私立)新北市私立緹家寶幼兒園",
    "type": "spub1"
  },
  {
    "newsch": 1,
    "lat": 25.008885,
    "lng": 121.473863,
    "sid": "MAAzADIAMgAwADAAMAAwADMANgA=",
    "name": "(準公共)新北市私立小康幼兒園",
    "type": "spub3"
  },
  {
    "newsch": 1,
    "lat": 25.0166834,
    "lng": 121.4596025,
    "sid": "MAAzADIAMgAwADAAMAAwADMANwA=",
    "name": "(私立)新北市私立和平幼兒園",
    "type": "spub1"
  },
  {
    "newsch": 1,
    "lat": 25.018654,
    "lng": 121.469728,
    "sid": "MAAzADIAMgAwADAAMAAwADMAOAA=",
    "name": "(準公共)新北市私立致理幼兒園",
    "type": "spub3"
  },
  {
    "newsch": 1,
    "lat": 25.0114422,
    "lng": 121.4558606,
    "sid": "MAAzADIAMgAwADAAMAAwADMAOQA=",
    "name": "(私立)財團法人新北市大觀書社附設新北市私立大觀幼兒園",
    "type": "spub1"
  },
  {
    "newsch": 1,
    "lat": 25.02409,
    "lng": 121.461217,
    "sid": "MAAzADIAMgAwADAAMAAwADQAMAA=",
    "name": "(私立)新北市私立雨農幼兒園",
    "type": "spub1"
  },
  {
    "newsch": 1,
    "lat": 25.0191829,
    "lng": 121.466487,
    "sid": "MAAzADIAMgAwADAAMAAwADQAMQA=",
    "name": "(私立)新北市私立童心幼兒園",
    "type": "spub1"
  },
  {
    "newsch": 1,
    "lat": 25.017125,
    "lng": 121.46302,
    "sid": "MAAzADIAMgAwADAAMAAwADQAMgA=",
    "name": "(準公共)新北市私立漢林堡幼兒園",
    "type": "spub3"
  },
  {
    "newsch": 1,
    "lat": 24.995073,
    "lng": 121.450194,
    "sid": "MAAzADIAMgAwADAAMAAwADQAMwA=",
    "name": "(私立)新北市私立童苑幼兒園",
    "type": "spub1"
  },
  {
    "newsch": 1,
    "lat": 25.025824,
    "lng": 121.46995,
    "sid": "MAAzADIAMgAwADAAMAAwADQANAA=",
    "name": "(私立)新北市私立嘉穎幼兒園",
    "type": "spub1"
  },
  {
    "newsch": 1,
    "lat": 25.0270339,
    "lng": 121.475451,
    "sid": "MAAzADIAMgAwADAAMAAwADQANQA=",
    "name": "(私立)新北市私立艾法薇爾幼兒園",
    "type": "spub1"
  },
  {
    "newsch": 1,
    "lat": 25.005482,
    "lng": 121.463894,
    "sid": "MAAzADIAMgAwADAAMAAwADQANgA=",
    "name": "(私立)新北市私立嘉盛幼兒園",
    "type": "spub1"
  },
  {
    "newsch": 1,
    "lat": 24.9900689,
    "lng": 121.464235,
    "sid": "MAAzADIAMgAwADAAMAAwADQANwA=",
    "name": "(私立)新北市私立田園幼兒園",
    "type": "spub1"
  },
  {
    "newsch": 1,
    "lat": 25.002668,
    "lng": 121.461497,
    "sid": "MAAzADIAMgAwADAAMAAwADQAOAA=",
    "name": "(私立)新北市私立喬幼光明幼兒園",
    "type": "spub1"
  },
  {
    "newsch": 1,
    "lat": 25.002683,
    "lng": 121.461582,
    "sid": "MAAzADIAMgAwADAAMAAwADQAOQA=",
    "name": "(私立)新北市私立喬幼幼兒園",
    "type": "spub1"
  },
  {
    "newsch": 1,
    "lat": 25.02748,
    "lng": 121.4739,
    "sid": "MAAzADIAMgAwADAAMAAwADUAMAA=",
    "name": "(私立)新北市私立寶貝媽咪資優幼兒園",
    "type": "spub1"
  },
  {
    "newsch": 1,
    "lat": 25.030447,
    "lng": 121.478091,
    "sid": "MAAzADIAMgAwADAAMAAwADUAMQA=",
    "name": "(私立)新北市私立康園幼兒園",
    "type": "spub1"
  },
  {
    "newsch": 1,
    "lat": 25.0214208,
    "lng": 121.4612,
    "sid": "MAAzADIAMgAwADAAMAAwADUAMgA=",
    "name": "(準公共)新北市私立幸福幼兒園",
    "type": "spub3"
  },
  {
    "newsch": 1,
    "lat": 24.992198,
    "lng": 121.432196,
    "sid": "MAAzADIAMgAwADAAMAAwADUAMwA=",
    "name": "(私立)新北市私立恬馨幼兒園",
    "type": "spub1"
  },
  {
    "newsch": 1,
    "lat": 25.008096,
    "lng": 121.458121,
    "sid": "MAAzADIAMgAwADAAMAAwADUANAA=",
    "name": "(準公共)新北市私立悅淨幼兒園",
    "type": "spub3"
  },
  {
    "newsch": 1,
    "lat": 25.023755,
    "lng": 121.463639,
    "sid": "MAAzADIAMgAwADAAMAAwADUANQA=",
    "name": "(準公共)新北市私立智翔幼兒園",
    "type": "spub3"
  },
  {
    "newsch": 1,
    "lat": 25.020148,
    "lng": 121.468151,
    "sid": "MAAzADIAMgAwADAAMAAwADUANgA=",
    "name": "(準公共)新北市私立大恩幼兒園",
    "type": "spub3"
  },
  {
    "newsch": 1,
    "lat": 25.022438,
    "lng": 121.466552,
    "sid": "MAAzADIAMgAwADAAMAAwADUANwA=",
    "name": "(私立)新北市私立大同幼兒園",
    "type": "spub1"
  },
  {
    "newsch": 1,
    "lat": 24.992,
    "lng": 121.429483,
    "sid": "MAAzADIAMgAwADAAMAAwADUAOQA=",
    "name": "(私立)新北市私立吉智幼兒園",
    "type": "spub1"
  },
  {
    "newsch": 1,
    "lat": 25.005315,
    "lng": 121.463519,
    "sid": "MAAzADIAMgAwADAAMAAwADYAMAA=",
    "name": "(準公共)新北市私立優兒幼兒園",
    "type": "spub3"
  },
  {
    "newsch": 1,
    "lat": 25.020884,
    "lng": 121.47911,
    "sid": "MAAzADIAMgAwADAAMAAwADYAMQA=",
    "name": "(私立)新北市私立喬一幼兒園",
    "type": "spub1"
  },
  {
    "newsch": 1,
    "lat": 25.009824,
    "lng": 121.46127,
    "sid": "MAAzADIAMgAwADAAMAAwADYAMgA=",
    "name": "(私立)新北市私立科見板橋幼兒園",
    "type": "spub1"
  },
  {
    "newsch": 1,
    "lat": 25.02611,
    "lng": 121.472347,
    "sid": "MAAzADIAMgAwADAAMAAwADYAMwA=",
    "name": "(私立)新北市私立卡爾斯登幼兒園",
    "type": "spub1"
  },
  {
    "newsch": 1,
    "lat": 24.98481,
    "lng": 121.427537,
    "sid": "MAAzADIAMgAwADAAMAAwADYANAA=",
    "name": "(私立)新北市私立永錡板橋幼兒園",
    "type": "spub1"
  },
  {
    "newsch": 1,
    "lat": 25.020879,
    "lng": 121.476521,
    "sid": "MAAzADIAMgAwADAAMAAwADYANQA=",
    "name": "(私立)新北市私立文堡幼兒園",
    "type": "spub1"
  },
  {
    "newsch": 1,
    "lat": 25.0126649,
    "lng": 121.477527,
    "sid": "MAAzADIAMgAwADAAMAAwADYANgA=",
    "name": "(準公共)新北市私立優貝兒幼兒園",
    "type": "spub3"
  },
  {
    "newsch": 1,
    "lat": 25.020431,
    "lng": 121.458765,
    "sid": "MAAzADIAMgAwADAAMAAwADYANwA=",
    "name": "(準公共)新北市私立育群幼兒園",
    "type": "spub3"
  },
  {
    "newsch": 1,
    "lat": 25.028999,
    "lng": 121.47307,
    "sid": "MAAzADIAMgAwADAAMAAwADYAOQA=",
    "name": "(私立)新北市私立心世紀幼兒園",
    "type": "spub1"
  },
  {
    "newsch": 1,
    "lat": 25.019725,
    "lng": 121.474494,
    "sid": "MAAzADIAMgAwADAAMAAwADcAMQA=",
    "name": "(準公共)新北市私立慧晟幼兒園",
    "type": "spub3"
  },
  {
    "newsch": 1,
    "lat": 24.995611,
    "lng": 121.451442,
    "sid": "MAAzADIAMgAwADAAMAAwADcAMwA=",
    "name": "(準公共)新北市私立聖路易幼兒園",
    "type": "spub3"
  },
  {
    "newsch": 1,
    "lat": 25.018349,
    "lng": 121.473771,
    "sid": "MAAzADIAMgAwADAAMAAwADcANAA=",
    "name": "(準公共)新北市私立愛森堡幼兒園",
    "type": "spub3"
  },
  {
    "newsch": 1,
    "lat": 25.023999,
    "lng": 121.473096,
    "sid": "MAAzADIAMgAwADAAMAAwADcANQA=",
    "name": "(私立)新北市私立喬治亞幼兒園",
    "type": "spub1"
  },
  {
    "newsch": 1,
    "lat": 24.9957059,
    "lng": 121.460908,
    "sid": "MAAzADIAMgAwADAAMAAwADcANgA=",
    "name": "(私立)新北市私立捧馨園幼兒園",
    "type": "spub1"
  },
  {
    "newsch": 1,
    "lat": 25.000818,
    "lng": 121.463946,
    "sid": "MAAzADIAMgAwADAAMAAwADcANwA=",
    "name": "(準公共)新北市私立班尼迪克幼兒園",
    "type": "spub3"
  },
  {
    "newsch": 1,
    "lat": 25.017207,
    "lng": 121.474205,
    "sid": "MAAzADIAMgAwADAAMAAwADcAOAA=",
    "name": "(私立)新北市私立全能愛彌兒板橋幼兒園",
    "type": "spub1"
  },
  {
    "newsch": 1,
    "lat": 25.017418,
    "lng": 121.474237,
    "sid": "MAAzADIAMgAwADAAMAAwADcAOAAtADAAMQA=",
    "name": "(私立)新北市私立全能愛彌兒板橋幼兒園永豐分班",
    "type": "spub1"
  },
  {
    "newsch": 1,
    "lat": 25.03275,
    "lng": 121.4726425,
    "sid": "MAAzADIAMgAwADAAMAAwADcAOQA=",
    "name": "(私立)新北市私立偉仁幼兒園",
    "type": "spub1"
  },
  {
    "newsch": 1,
    "lat": 25.001603,
    "lng": 121.462915,
    "sid": "MAAzADIAMgAwADAAMAAwADgAMAA=",
    "name": "(私立)新北市私立愷僑幼兒園",
    "type": "spub1"
  },
  {
    "newsch": 1,
    "lat": 25.024776,
    "lng": 121.45756,
    "sid": "MAAzADIAMgAwADAAMAAwADgAMgA=",
    "name": "(私立)新北市私立喬心幼兒園",
    "type": "spub1"
  },
  {
    "newsch": 1,
    "lat": 25.008442,
    "lng": 121.444523,
    "sid": "MAAzADIAMgAwADAAMAAwADgANAA=",
    "name": "(私立)新北市私立興名陽幼兒園",
    "type": "spub1"
  },
  {
    "newsch": 1,
    "lat": 25.0276349,
    "lng": 121.469348,
    "sid": "MAAzADIAMgAwADAAMAAwADgANQA=",
    "name": "(私立)新北市私立莒光幼兒園",
    "type": "spub1"
  },
  {
    "newsch": 1,
    "lat": 24.9840239,
    "lng": 121.429817,
    "sid": "MAAzADIAMgAwADAAMAAwADgANgA=",
    "name": "(私立)新北市私立藍天幼兒園",
    "type": "spub1"
  },
  {
    "newsch": 1,
    "lat": 25.024902,
    "lng": 121.461502,
    "sid": "MAAzADIAMgAwADAAMAAwADgANwA=",
    "name": "(私立)新北市私立雅森幼兒園",
    "type": "spub1"
  },
  {
    "newsch": 1,
    "lat": 24.9873339,
    "lng": 121.430073,
    "sid": "MAAzADIAMgAwADAAMAAwADgAOAA=",
    "name": "(準公共)新北市私立欣勵德幼兒園",
    "type": "spub3"
  },
  {
    "newsch": 1,
    "lat": 25.008,
    "lng": 121.458121,
    "sid": "MAAzADIAMgAwADAAMAAwADgAOQA=",
    "name": "(準公共)新北市私立悅欣幼兒園",
    "type": "spub3"
  },
  {
    "newsch": 1,
    "lat": 25.023653,
    "lng": 121.472599,
    "sid": "MAAzADIAMgAwADAAMAAwADkAMAA=",
    "name": "(私立)新北市私立育人幼兒園",
    "type": "spub1"
  },
  {
    "newsch": 1,
    "lat": 25.011582,
    "lng": 121.470433,
    "sid": "MAAzADIAMgAwADAAMAAwADkAMQA=",
    "name": "(私立)新北市私立漢東幼兒園",
    "type": "spub1"
  },
  {
    "newsch": 1,
    "lat": 25.030448,
    "lng": 121.473072,
    "sid": "MAAzADIAMgAwADAAMAAwADkAMgA=",
    "name": "(私立)新北市私立山姆叔叔板橋幼兒園",
    "type": "spub1"
  },
  {
    "newsch": 1,
    "lat": 25.001412,
    "lng": 121.463254,
    "sid": "MAAzADIAMgAwADAAMAAwADkAMwA=",
    "name": "(私立)新北市私立育太幼兒園",
    "type": "spub1"
  },
  {
    "newsch": 1,
    "lat": 25.0087,
    "lng": 121.454675,
    "sid": "MAAzADIAMgAwADAAMAAwADkANAA=",
    "name": "(準公共)新北市私立彬彬幼兒園",
    "type": "spub3"
  },
  {
    "newsch": 1,
    "lat": 25.0147389,
    "lng": 121.451708,
    "sid": "MAAzADIAMgAwADAAMAAwADkANQA=",
    "name": "(準公共)新北市私立板橋天翔幼兒園",
    "type": "spub3"
  },
  {
    "newsch": 1,
    "lat": 25.030573,
    "lng": 121.471789,
    "sid": "MAAzADIAMgAwADAAMAAwADkANgA=",
    "name": "(準公共)新北市私立古典幼兒園",
    "type": "spub3"
  },
  {
    "newsch": 1,
    "lat": 25.032128,
    "lng": 121.469605,
    "sid": "MAAzADIAMgAwADAAMAAwADkANwA=",
    "name": "(準公共)新北市私立江翠幼兒園",
    "type": "spub3"
  },
  {
    "newsch": 1,
    "lat": 25.027823,
    "lng": 121.478923,
    "sid": "MAAzADIAMgAwADAAMAAwADkAOAA=",
    "name": "(私立)新北市私立圓心坊幼兒園",
    "type": "spub1"
  },
  {
    "newsch": 1,
    "lat": 25.02741,
    "lng": 121.478,
    "sid": "MAAzADIAMgAwADAAMAAwADkAOQA=",
    "name": "(私立)新北市私立若仁幼兒園",
    "type": "spub1"
  },
  {
    "newsch": 1,
    "lat": 25.012249,
    "lng": 121.478523,
    "sid": "MAAzADIAMgAwADAAMAAxADAAMAA=",
    "name": "(私立)新北市私立正隆幼兒園",
    "type": "spub1"
  },
  {
    "newsch": 1,
    "lat": 25.023899,
    "lng": 121.4594626,
    "sid": "MAAzADIAMgAwADAAMAAxADAAMQA=",
    "name": "(私立)新北市私立皇佳幼兒園",
    "type": "spub1"
  },
  {
    "newsch": 1,
    "lat": 25.0285837,
    "lng": 121.4724421,
    "sid": "MAAzADIAMgAwADAAMAAxADAAMgA=",
    "name": "(私立)新北市私立夏恩雙響幼兒園",
    "type": "spub1"
  },
  {
    "newsch": 1,
    "lat": 25.0029219,
    "lng": 121.463331,
    "sid": "MAAzADIAMgAwADAAMAAxADAAMwA=",
    "name": "(私立)新北市私立天愛幼兒園",
    "type": "spub1"
  },
  {
    "newsch": 1,
    "lat": 25.018696,
    "lng": 121.455857,
    "sid": "MAAzADIAMgAwADAAMAAxADAANAA=",
    "name": "(準公共)新北市私立立聖幼兒園",
    "type": "spub3"
  },
  {
    "newsch": 1,
    "lat": 25.0122349,
    "lng": 121.465541,
    "sid": "MAAzADIAMgAwADAAMAAxADAANQA=",
    "name": "(私立)財團法人台北基督教女青年會附設新北市私立員工實驗幼兒園（新北市政府委託辦理）",
    "type": "spub1"
  },
  {
    "newsch": 1,
    "lat": 25.0010389,
    "lng": 121.460511,
    "sid": "MAAzADIAMgAwADAAMAAxADAANgA=",
    "name": "(私立)新北市私立大自然幼兒園",
    "type": "spub1"
  },
  {
    "newsch": 1,
    "lat": 25.0243865,
    "lng": 121.479961,
    "sid": "MAAzADIAMgAwADAAMAAxADAANwA=",
    "name": "(私立)新北市私立板橋大華幼兒園",
    "type": "spub1"
  },
  {
    "newsch": 1,
    "lat": 25.012606,
    "lng": 121.480296,
    "sid": "MAAzADIAMgAwADAAMAAxADAAOAA=",
    "name": "(私立)新北市私立國儷幼兒園",
    "type": "spub1"
  },
  {
    "newsch": 1,
    "lat": 25.0282159,
    "lng": 121.461177,
    "sid": "MAAzADIAMgAwADAAMAAxADAAOQA=",
    "name": "(準公共)新北市私立靜立幼兒園",
    "type": "spub3"
  },
  {
    "newsch": 1,
    "lat": 25.0124595,
    "lng": 121.4451053,
    "sid": "MAAzADIAMgAwADAAMAAxADEAMQA=",
    "name": "(準公共)新北市私立天藍幼兒園",
    "type": "spub3"
  },
  {
    "newsch": 1,
    "lat": 25.002615,
    "lng": 121.447588,
    "sid": "MAAzADIAMgAwADAAMAAxADEAMwA=",
    "name": "(私立)新北市私立大安幼兒園",
    "type": "spub1"
  },
  {
    "newsch": 1,
    "lat": 25.016906,
    "lng": 121.456672,
    "sid": "MAAzADIAMgAwADAAMAAxADEANQA=",
    "name": "(私立)新北市私立諾亞幼兒園",
    "type": "spub1"
  },
  {
    "newsch": 1,
    "lat": 25.008369,
    "lng": 121.454898,
    "sid": "MAAzADIAMgAwADAAMAAxADEANgA=",
    "name": "(準公共)新北市私立力品幼兒園",
    "type": "spub3"
  },
  {
    "newsch": 1,
    "lat": 25.0250629,
    "lng": 121.474231,
    "sid": "MAAzADIAMgAwADAAMAAxADEANwA=",
    "name": "(公立)新北市板橋區莒光國民小學附設幼兒園",
    "type": "spub0"
  },
  {
    "newsch": 1,
    "lat": 25.0032479,
    "lng": 121.462758,
    "sid": "MAAzADIAMgAwADAAMAAxADEAOAA=",
    "name": "(公立)新北市板橋區後埔國民小學附設幼兒園",
    "type": "spub0"
  },
  {
    "newsch": 1,
    "lat": 25.0047939,
    "lng": 121.461589,
    "sid": "MAAzADIAMgAwADAAMAAxADEAOQA=",
    "name": "(公立)新北市立忠孝國民中學附設幼兒園",
    "type": "spub0"
  },
  {
    "newsch": 1,
    "lat": 24.987692,
    "lng": 121.430941,
    "sid": "MAAzADIAMgAwADAAMAAxADIAMAA=",
    "name": "(公立)新北市板橋區溪洲國民小學附設幼兒園",
    "type": "spub0"
  },
  {
    "newsch": 1,
    "lat": 25.0290699,
    "lng": 121.468325,
    "sid": "MAAzADIAMgAwADAAMAAxADIAMQA=",
    "name": "(公立)新北市立江翠國民中學附設幼兒園",
    "type": "spub0"
  },
  {
    "newsch": 1,
    "lat": 25.0109889,
    "lng": 121.458308,
    "sid": "MAAzADIAMgAwADAAMAAxADIAMwA=",
    "name": "(公立)新北市板橋區板橋國民小學附設幼兒園",
    "type": "spub0"
  },
  {
    "newsch": 1,
    "lat": 25.032318,
    "lng": 121.474079,
    "sid": "MAAzADIAMgAwADAAMAAxADIANAA=",
    "name": "(公立)新北市板橋區江翠國民小學附設幼兒園",
    "type": "spub0"
  },
  {
    "newsch": 1,
    "lat": 25.0086059,
    "lng": 121.449821,
    "sid": "MAAzADIAMgAwADAAMAAxADIANQA=",
    "name": "(公立)新北市板橋區大觀國民小學附設幼兒園",
    "type": "spub0"
  },
  {
    "newsch": 1,
    "lat": 25.002266,
    "lng": 121.447733,
    "sid": "MAAzADIAMgAwADAAMAAxADIANgA=",
    "name": "(公立)新北市板橋區中山國民小學附設幼兒園",
    "type": "spub0"
  },
  {
    "newsch": 1,
    "lat": 24.994877,
    "lng": 121.462617,
    "sid": "MAAzADIAMgAwADAAMAAxADIANwA=",
    "name": "(公立)新北市板橋區重慶國民小學附設幼兒園",
    "type": "spub0"
  },
  {
    "newsch": 1,
    "lat": 25.023382,
    "lng": 121.458812,
    "sid": "MAAzADIAMgAwADAAMAAxADIAOAA=",
    "name": "(公立)新北市板橋區文德國民小學附設幼兒園",
    "type": "spub0"
  },
  {
    "newsch": 1,
    "lat": 25.009392,
    "lng": 121.47092,
    "sid": "MAAzADIAMgAwADAAMAAxADIAOQA=",
    "name": "(公立)新北市板橋區海山國民小學附設幼兒園",
    "type": "spub0"
  },
  {
    "newsch": 1,
    "lat": 24.9918199,
    "lng": 121.452605,
    "sid": "MAAzADIAMgAwADAAMAAxADMAMAA=",
    "name": "(公立)新北市板橋區信義國民小學附設幼兒園",
    "type": "spub0"
  },
  {
    "newsch": 1,
    "lat": 25.006107,
    "lng": 121.462416,
    "sid": "MAAzADIAMgAwADAAMAAxADMAMQA=",
    "name": "(準公共)新北市私立精緻之家幼兒園",
    "type": "spub3"
  },
  {
    "newsch": 1,
    "lat": 25.018003,
    "lng": 121.458257,
    "sid": "MAAzADIAMgAwADAAMAAxADMAMgA=",
    "name": "(準公共)新北市私立亞特幼兒園",
    "type": "spub3"
  },
  {
    "newsch": 1,
    "lat": 24.998121,
    "lng": 121.463336,
    "sid": "MAAzADIAMgAwADAAMAAxADMANAA=",
    "name": "(公立)新北市立重慶國民中學附設幼兒園",
    "type": "spub0"
  },
  {
    "newsch": 1,
    "lat": 25.02027,
    "lng": 121.4536,
    "sid": "MAAzADIAMgAwADAAMAAxADMANQA=",
    "name": "(公立)新北市立板橋幼兒園",
    "type": "spub0"
  },
  {
    "newsch": 1,
    "lat": 25.0286933,
    "lng": 121.480669,
    "sid": "MAAzADIAMgAwADAAMAAxADMANQAtADAAMQA=",
    "name": "(公立)新北市立板橋幼兒園新民分班",
    "type": "spub0"
  },
  {
    "newsch": 1,
    "lat": 24.9978,
    "lng": 121.4641873,
    "sid": "MAAzADIAMgAwADAAMAAxADMANQAtADAAMgA=",
    "name": "(公立)新北市立板橋幼兒園和平分班",
    "type": "spub0"
  },
  {
    "newsch": 1,
    "lat": 25.029664,
    "lng": 121.477377,
    "sid": "MAAzADIAMgAwADAAMAAxADMANgA=",
    "name": "(公立)新北市板橋區文聖國民小學附設幼兒園",
    "type": "spub0"
  },
  {
    "newsch": 1,
    "lat": 24.9968681,
    "lng": 121.4314941,
    "sid": "MAAzADIAMgAwADAAMAAxADMANwA=",
    "name": "(公立)新北市立溪崑國民中學附設幼兒園",
    "type": "spub0"
  },
  {
    "newsch": 1,
    "lat": 24.99005,
    "lng": 121.4307,
    "sid": "MAAzADIAMgAwADAAMAAxADMAOAA=",
    "name": "(公立)新北市板橋區沙崙國民小學附設幼兒園",
    "type": "spub0"
  },
  {
    "newsch": 1,
    "lat": 25.026309,
    "lng": 121.462223,
    "sid": "MAAzADIAMgAwADAAMAAxADMAOQA=",
    "name": "(公立)新北市板橋區新埔國民小學附設幼兒園",
    "type": "spub0"
  },
  {
    "newsch": 1,
    "lat": 25.018887,
    "lng": 121.45289,
    "sid": "MAAzADIAMgAwADAAMAAxADQAMAA=",
    "name": "(公立)新北市板橋區國光國民小學附設幼兒園",
    "type": "spub0"
  },
  {
    "newsch": 1,
    "lat": 25.025624,
    "lng": 121.459147,
    "sid": "MAAzADIAMgAwADAAMAAxADQAMQA=",
    "name": "(公立)新北市立新埔國民中學附設幼兒園",
    "type": "spub0"
  },
  {
    "newsch": 1,
    "lat": 25.005086,
    "lng": 121.466362,
    "sid": "MAAzADIAMgAwADAAMAAxADQAMgA=",
    "name": "(公立)新北市板橋區實踐國民小學附設幼兒園",
    "type": "spub0"
  },
  {
    "newsch": 1,
    "lat": 25.0176738,
    "lng": 121.4742452,
    "sid": "MAAzADIAMgAwADAAMAAxADQAMwA=",
    "name": "(公立)新北市板橋區埔墘國民小學附設幼兒園",
    "type": "spub0"
  },
  {
    "newsch": 1,
    "lat": 25.0141713,
    "lng": 121.4728115,
    "sid": "MAAzADIAMgAwADAAMAAxADQANAA=",
    "name": "(私立)新北市私立卡爾威特幼兒園",
    "type": "spub1"
  },
  {
    "newsch": 1,
    "lat": 25.02838,
    "lng": 121.479437,
    "sid": "MAAzADIAMgAwADAAMAAxADQANQA=",
    "name": "(準公共)新北市私立心耶魯幼兒園",
    "type": "spub3"
  },
  {
    "newsch": 1,
    "lat": 25.017355,
    "lng": 121.456012,
    "sid": "MAAzADIAMgAwADAAMAAxADQANgA=",
    "name": "(準公共)新北市私立葳肯幼兒園",
    "type": "spub3"
  },
  {
    "newsch": 1,
    "lat": 25.027761,
    "lng": 121.458651,
    "sid": "MAAzADIAMgAwADAAMAAxADQANwA=",
    "name": "(準公共)新北市私立溫馨幼兒園",
    "type": "spub3"
  },
  {
    "newsch": 1,
    "lat": 25.0337829,
    "lng": 121.476721,
    "sid": "MAAzADIAMgAwADAAMAAxADQAOAA=",
    "name": "(私立)新北市私立板橋育安幼兒園",
    "type": "spub1"
  },
  {
    "newsch": 1,
    "lat": 25.030527,
    "lng": 121.477345,
    "sid": "MAAzADIAMgAwADAAMAAxADQAOQA=",
    "name": "(私立)新北市私立巧可麗巧宇幼兒園",
    "type": "spub1"
  },
  {
    "newsch": 1,
    "lat": 25.0238983,
    "lng": 121.4760783,
    "sid": "MAAzADIAMgAwADAAMAAxADUAMAA=",
    "name": "(準公共)新北市私立新雙成幼兒園",
    "type": "spub3"
  },
  {
    "newsch": 1,
    "lat": 24.998959,
    "lng": 121.464561,
    "sid": "MAAzADIAMgAwADAAMAAxADUAMQA=",
    "name": "(私立)新北市私立鹿兒堡幼兒園",
    "type": "spub1"
  },
  {
    "newsch": 1,
    "lat": 24.989008,
    "lng": 121.431999,
    "sid": "MAAzADIAMgAwADAAMAAxADUAMgA=",
    "name": "(準公共)新北市私立菩提幼兒園",
    "type": "spub3"
  },
  {
    "newsch": 1,
    "lat": 25.028303,
    "lng": 121.471794,
    "sid": "MAAzADIAMgAwADAAMAAxADUAMwA=",
    "name": "(私立)新北市私立發現小熊森林幼兒園",
    "type": "spub1"
  },
  {
    "newsch": 1,
    "lat": 25.008503,
    "lng": 121.46602,
    "sid": "MAAzADIAMgAwADAAMAAxADUANAA=",
    "name": "(私立)新北市私立茁壯園板橋幼兒園",
    "type": "spub1"
  },
  {
    "newsch": 1,
    "lat": 24.9895749,
    "lng": 121.432991,
    "sid": "MAAzADIAMgAwADAAMAAxADUANQA=",
    "name": "(私立)新北市私立皇家貴族幼兒園",
    "type": "spub1"
  },
  {
    "newsch": 1,
    "lat": 25.023802,
    "lng": 121.48059,
    "sid": "MAAzADIAMgAwADAAMAAxADUANgA=",
    "name": "(私立)新北市私立今仁幼兒園",
    "type": "spub1"
  },
  {
    "newsch": 1,
    "lat": 24.989926,
    "lng": 121.432987,
    "sid": "MAAzADIAMgAwADAAMAAxADUANwA=",
    "name": "(私立)新北市私立漂亮寶貝幼兒園",
    "type": "spub1"
  },
  {
    "newsch": 1,
    "lat": 25.0225224,
    "lng": 121.4732917,
    "sid": "MAAzADIAMgAwADAAMAAxADUAOAA=",
    "name": "(私立)新北市私立幼菁幼兒園",
    "type": "spub1"
  },
  {
    "newsch": 1,
    "lat": 25.0127351,
    "lng": 121.4479901,
    "sid": "MAAzADIAMgAwADAAMAAxADUAOQA=",
    "name": "(準公共)新北市私立台大幼兒園",
    "type": "spub3"
  },
  {
    "newsch": 1,
    "lat": 25.0165059,
    "lng": 121.454526,
    "sid": "MAAzADIAMgAwADAAMAAxADYAMAA=",
    "name": "(準公共)新北市私立幼華幼兒園",
    "type": "spub3"
  },
  {
    "newsch": 1,
    "lat": 24.9885511,
    "lng": 121.4264514,
    "sid": "MAAzADIAMgAwADAAMAAxADYAMQA=",
    "name": "(私立)新北市私立禾稼幼兒園",
    "type": "spub1"
  },
  {
    "newsch": 1,
    "lat": 25.024427,
    "lng": 121.467825,
    "sid": "MAAzADIAMgAwADAAMAAxADYAMgA=",
    "name": "(私立)新北市私立三元幼兒園",
    "type": "spub1"
  },
  {
    "newsch": 1,
    "lat": 25.006094,
    "lng": 121.455822,
    "sid": "MAAzADIAMgAwADAAMAAxADYAMwA=",
    "name": "(私立)新北市私立吉的堡南雅幼兒園",
    "type": "spub1"
  },
  {
    "newsch": 1,
    "lat": 25.0071817,
    "lng": 121.4721284,
    "sid": "MAAzADIAMgAwADAAMAAxADYANAA=",
    "name": "(私立)新北市私立生活村幼兒園",
    "type": "spub1"
  },
  {
    "newsch": 1,
    "lat": 25.016651,
    "lng": 121.461078,
    "sid": "MAAzADIAMgAwADAAMAAxADYANQA=",
    "name": "(準公共)新北市私立慈惠幼兒園",
    "type": "spub3"
  },
  {
    "newsch": 1,
    "lat": 25.031379,
    "lng": 121.472081,
    "sid": "MAAzADIAMgAwADAAMAAxADYANgA=",
    "name": "(準公共)新北市私立文聖幼兒園",
    "type": "spub3"
  },
  {
    "newsch": 1,
    "lat": 24.993683,
    "lng": 121.458725,
    "sid": "MAAzADIAMgAwADAAMAAxADYANwA=",
    "name": "(準公共)新北市私立薇吉妮亞幼兒園",
    "type": "spub3"
  },
  {
    "newsch": 1,
    "lat": 25.010635,
    "lng": 121.466892,
    "sid": "MAAzADIAMgAwADAAMAAxADYAOAA=",
    "name": "(私立)新北市私立艾法貝爾幼兒園",
    "type": "spub1"
  },
  {
    "newsch": 1,
    "lat": 25.0111269,
    "lng": 121.4489382,
    "sid": "MAAzADIAMgAwADAAMAAxADYAOQA=",
    "name": "(非營利)新北市大觀非營利幼兒園(委託社團法人新北市中華國際嬰幼兒發展學會辦理)",
    "type": "spub2"
  },
  {
    "newsch": 1,
    "lat": 25.0239742,
    "lng": 121.454208,
    "sid": "MAAzADIAMgAwADAAMAAxADcAMAA=",
    "name": "(非營利)新北市新月非營利幼兒園(委託財團法人彭婉如文教基金會辦理)",
    "type": "spub2"
  },
  {
    "newsch": 1,
    "lat": 25.035104,
    "lng": 121.4737117,
    "sid": "MAAzADIAMgAwADAAMAAxADcAMQA=",
    "name": "(非營利)新北市柏翠非營利幼兒園(委託財團法人心路社會福利基金會辦理)",
    "type": "spub2"
  },
  {
    "newsch": 1,
    "lat": 24.9973707,
    "lng": 121.4441609,
    "sid": "MAAzADIAMgAwADAAMAAxADcAMgA=",
    "name": "(私立)新北市私立布查花園幼兒園",
    "type": "spub1"
  }
]