[
  {
    "newsch": 1,
    "lat": 25.004186,
    "lng": 121.466422,
    "sid": "MAAzADIAMgAwADAAMAAwADAAMQA=",
    "name": "(準公共)新北市私立忠孝幼兒園",
    "type": "spub3"
  },
  {
    "newsch": 1,
    "lat": 25.027424,
    "lng": 121.472684,
    "sid": "MAAzADIAMgAwADAAMAAwADAAMgA=",
    "name": "(私立)新北市私立寶貝媽咪幼兒園",
    "type": "spub1"
  },
  {
    "newsch": 1,
    "lat": 25.026777,
    "lng": 121.478807,
    "sid": "MAAzADIAMgAwADAAMAAwADAAMwA=",
    "name": "(私立)新北市私立愛唯兒幼兒園",
    "type": "spub1"
  },
  {
    "newsch": 1,
    "lat": 25.02293,
    "lng": 121.456224,
    "sid": "MAAzADIAMgAwADAAMAAwADAANgA=",
    "name": "(私立)新北市私立幼祥幼兒園",
    "type": "spub1"
  },
  {
    "newsch": 1,
    "lat": 24.995522,
    "lng": 121.454659,
    "sid": "MAAzADIAMgAwADAAMAAwADAANwA=",
    "name": "(準公共)新北市私立小奈米幼兒園",
    "type": "spub3"
  },
  {
    "newsch": 1,
    "lat": 25.028466,
    "lng": 121.478335,
    "sid": "MAAzADIAMgAwADAAMAAwADAAOQA=",
    "name": "(私立)新北市私立凱思莉幼兒園",
    "type": "spub1"
  },
  {
    "newsch": 1,
    "lat": 24.985127,
    "lng": 121.427843,
    "sid": "MAAzADIAMgAwADAAMAAwADEAMAA=",
    "name": "(私立)新北市私立省思幼兒園",
    "type": "spub1"
  },
  {
    "newsch": 1,
    "lat": 25.019304,
    "lng": 121.466289,
    "sid": "MAAzADIAMgAwADAAMAAwADEAMQA=",
    "name": "(私立)新北市私立光星幼兒園",
    "type": "spub1"
  },
  {
    "newsch": 1,
    "lat": 25.015574,
    "lng": 121.458361,
    "sid": "MAAzADIAMgAwADAAMAAwADEAMgA=",
    "name": "(私立)新北市私立育樂幼兒園",
    "type": "spub1"
  },
  {
    "newsch": 1,
    "lat": 25.020964,
    "lng": 121.468034,
    "sid": "MAAzADIAMgAwADAAMAAwADEAMwA=",
    "name": "(私立)新北市私立晨暘幼兒園",
    "type": "spub1"
  },
  {
    "newsch": 1,
    "lat": 25.01287,
    "lng": 121.479127,
    "sid": "MAAzADIAMgAwADAAMAAwADEANAA=",
    "name": "(私立)陽光森林文教股份有限公司臺北縣分公司附設新北市私立陽光小子幼兒園",
    "type": "spub1"
  },
  {
    "newsch": 1,
    "lat": 25.002008,
    "lng": 121.458309,
    "sid": "MAAzADIAMgAwADAAMAAwADEANQA=",
    "name": "(準公共)新北市私立道安幼兒園",
    "type": "spub3"
  },
  {
    "newsch": 1,
    "lat": 25.028065,
    "lng": 121.474679,
    "sid": "MAAzADIAMgAwADAAMAAwADEANgA=",
    "name": "(私立)新北市私立悅嘉幼兒園",
    "type": "spub1"
  },
  {
    "newsch": 1,
    "lat": 25.005079,
    "lng": 121.468649,
    "sid": "MAAzADIAMgAwADAAMAAwADEANwA=",
    "name": "(準公共)新北市私立立信幼兒園",
    "type": "spub3"
  },
  {
    "newsch": 1,
    "lat": 25.023783,
    "lng": 121.477564,
    "sid": "MAAzADIAMgAwADAAMAAwADEAOAA=",
    "name": "(準公共)新北市私立雙成幼兒園",
    "type": "spub3"
  },
  {
    "newsch": 1,
    "lat": 25.018358,
    "lng": 121.453071,
    "sid": "MAAzADIAMgAwADAAMAAwADIAMQA=",
    "name": "(準公共)新北市私立忠山幼兒園",
    "type": "spub3"
  },
  {
    "newsch": 1,
    "lat": 25.007,
    "lng": 121.471734,
    "sid": "MAAzADIAMgAwADAAMAAwADIAMgA=",
    "name": "(私立)新北市私立幼暉幼兒園",
    "type": "spub1"
  },
  {
    "newsch": 1,
    "lat": 25.017502,
    "lng": 121.475104,
    "sid": "MAAzADIAMgAwADAAMAAwADIAMwA=",
    "name": "(準公共)新北市私立遠東幼兒園",
    "type": "spub3"
  },
  {
    "newsch": 1,
    "lat": 25.028597,
    "lng": 121.480258,
    "sid": "MAAzADIAMgAwADAAMAAwADIANAA=",
    "name": "(私立)新北市私立愛唯揚幼兒園",
    "type": "spub1"
  },
  {
    "newsch": 1,
    "lat": 25.012899,
    "lng": 121.474716,
    "sid": "MAAzADIAMgAwADAAMAAwADIANQA=",
    "name": "(私立)財團法人台北市中華基督教青年會附設新北市私立板新幼兒園",
    "type": "spub1"
  },
  {
    "newsch": 1,
    "lat": 25.023061,
    "lng": 121.474216,
    "sid": "MAAzADIAMgAwADAAMAAwADIANgA=",
    "name": "(私立)新北市私立蘇格拉底幼兒園",
    "type": "spub1"
  },
  {
    "newsch": 1,
    "lat": 24.99934,
    "lng": 121.461707,
    "sid": "MAAzADIAMgAwADAAMAAwADIAOQA=",
    "name": "(準公共)新北市私立大業幼兒園",
    "type": "spub3"
  },
  {
    "newsch": 1,
    "lat": 25.012888,
    "lng": 121.472602,
    "sid": "MAAzADIAMgAwADAAMAAwADMAMQA=",
    "name": "(準公共)新北市私立鴻園幼兒園",
    "type": "spub3"
  },
  {
    "newsch": 1,
    "lat": 25.003047,
    "lng": 121.456664,
    "sid": "MAAzADIAMgAwADAAMAAwADMAMgA=",
    "name": "(準公共)新北市私立培揚幼兒園",
    "type": "spub3"
  },
  {
    "newsch": 1,
    "lat": 25.009651,
    "lng": 121.461658,
    "sid": "MAAzADIAMgAwADAAMAAwADMAMwA=",
    "name": "(私立)新北市私立福音幼兒園",
    "type": "spub1"
  },
  {
    "newsch": 1,
    "lat": 25.028026,
    "lng": 121.463409,
    "sid": "MAAzADIAMgAwADAAMAAwADMANAA=",
    "name": "(準公共)新北市私立艾維恩四維幼兒園",
    "type": "spub3"
  },
  {
    "newsch": 1,
    "lat": 25.027247,
    "lng": 121.458453,
    "sid": "MAAzADIAMgAwADAAMAAwADMANQA=",
    "name": "(準公共)新北市私立緹家寶幼兒園",
    "type": "spub3"
  },
  {
    "newsch": 1,
    "lat": 25.008949,
    "lng": 121.473863,
    "sid": "MAAzADIAMgAwADAAMAAwADMANgA=",
    "name": "(準公共)新北市私立小康幼兒園",
    "type": "spub3"
  },
  {
    "newsch": 1,
    "lat": 25.016741,
    "lng": 121.458122,
    "sid": "MAAzADIAMgAwADAAMAAwADMANwA=",
    "name": "(私立)新北市私立和平幼兒園",
    "type": "spub1"
  },
  {
    "newsch": 1,
    "lat": 25.01874,
    "lng": 121.46974,
    "sid": "MAAzADIAMgAwADAAMAAwADMAOAA=",
    "name": "(準公共)新北市私立致理幼兒園",
    "type": "spub3"
  },
  {
    "newsch": 1,
    "lat": 25.010991,
    "lng": 121.455907,
    "sid": "MAAzADIAMgAwADAAMAAwADMAOQA=",
    "name": "(私立)財團法人新北市大觀書社附設新北市私立大觀幼兒園",
    "type": "spub1"
  },
  {
    "newsch": 1,
    "lat": 25.024103,
    "lng": 121.461208,
    "sid": "MAAzADIAMgAwADAAMAAwADQAMAA=",
    "name": "(私立)新北市私立雨農幼兒園",
    "type": "spub1"
  },
  {
    "newsch": 1,
    "lat": 25.01917,
    "lng": 121.466399,
    "sid": "MAAzADIAMgAwADAAMAAwADQAMQA=",
    "name": "(私立)新北市私立童心幼兒園",
    "type": "spub1"
  },
  {
    "newsch": 1,
    "lat": 25.017156,
    "lng": 121.463054,
    "sid": "MAAzADIAMgAwADAAMAAwADQAMgA=",
    "name": "(準公共)新北市私立漢林堡幼兒園",
    "type": "spub3"
  },
  {
    "newsch": 1,
    "lat": 24.995037,
    "lng": 121.450217,
    "sid": "MAAzADIAMgAwADAAMAAwADQAMwA=",
    "name": "(準公共)新北市私立童苑幼兒園",
    "type": "spub3"
  },
  {
    "newsch": 1,
    "lat": 25.025872,
    "lng": 121.469903,
    "sid": "MAAzADIAMgAwADAAMAAwADQANAA=",
    "name": "(私立)新北市私立嘉穎幼兒園",
    "type": "spub1"
  },
  {
    "newsch": 1,
    "lat": 25.027301,
    "lng": 121.475721,
    "sid": "MAAzADIAMgAwADAAMAAwADQANQA=",
    "name": "(私立)新北市私立艾法薇爾幼兒園",
    "type": "spub1"
  },
  {
    "newsch": 1,
    "lat": 25.005503,
    "lng": 121.463851,
    "sid": "MAAzADIAMgAwADAAMAAwADQANgA=",
    "name": "(私立)新北市私立嘉盛幼兒園",
    "type": "spub1"
  },
  {
    "newsch": 1,
    "lat": 24.989733,
    "lng": 121.464353,
    "sid": "MAAzADIAMgAwADAAMAAwADQANwA=",
    "name": "(私立)新北市私立田園幼兒園",
    "type": "spub1"
  },
  {
    "newsch": 1,
    "lat": 25.002694,
    "lng": 121.461472,
    "sid": "MAAzADIAMgAwADAAMAAwADQAOAA=",
    "name": "(私立)新北市私立喬幼光明幼兒園",
    "type": "spub1"
  },
  {
    "newsch": 1,
    "lat": 25.002711,
    "lng": 121.461553,
    "sid": "MAAzADIAMgAwADAAMAAwADQAOQA=",
    "name": "(私立)新北市私立喬幼幼兒園",
    "type": "spub1"
  },
  {
    "newsch": 1,
    "lat": 25.027393,
    "lng": 121.472736,
    "sid": "MAAzADIAMgAwADAAMAAwADUAMAA=",
    "name": "(私立)新北市私立寶貝媽咪資優幼兒園",
    "type": "spub1"
  },
  {
    "newsch": 1,
    "lat": 25.03037,
    "lng": 121.478124,
    "sid": "MAAzADIAMgAwADAAMAAwADUAMQA=",
    "name": "(私立)新北市私立康園幼兒園",
    "type": "spub1"
  },
  {
    "newsch": 1,
    "lat": 25.020683,
    "lng": 121.461711,
    "sid": "MAAzADIAMgAwADAAMAAwADUAMgA=",
    "name": "(準公共)新北市私立幸福幼兒園",
    "type": "spub3"
  },
  {
    "newsch": 1,
    "lat": 24.99211,
    "lng": 121.432135,
    "sid": "MAAzADIAMgAwADAAMAAwADUAMwA=",
    "name": "(私立)新北市私立恬馨幼兒園",
    "type": "spub1"
  },
  {
    "newsch": 1,
    "lat": 25.008369,
    "lng": 121.45798,
    "sid": "MAAzADIAMgAwADAAMAAwADUANAA=",
    "name": "(準公共)新北市私立悅淨幼兒園",
    "type": "spub3"
  },
  {
    "newsch": 1,
    "lat": 25.023882,
    "lng": 121.463703,
    "sid": "MAAzADIAMgAwADAAMAAwADUANQA=",
    "name": "(準公共)新北市私立智翔幼兒園",
    "type": "spub3"
  },
  {
    "newsch": 1,
    "lat": 25.020095,
    "lng": 121.468139,
    "sid": "MAAzADIAMgAwADAAMAAwADUANgA=",
    "name": "(準公共)新北市私立大恩幼兒園",
    "type": "spub3"
  },
  {
    "newsch": 1,
    "lat": 25.022389,
    "lng": 121.466557,
    "sid": "MAAzADIAMgAwADAAMAAwADUANwA=",
    "name": "(準公共)新北市私立大同幼兒園",
    "type": "spub3"
  },
  {
    "newsch": 1,
    "lat": 24.991843,
    "lng": 121.429782,
    "sid": "MAAzADIAMgAwADAAMAAwADUAOQA=",
    "name": "(私立)新北市私立吉智幼兒園",
    "type": "spub1"
  },
  {
    "newsch": 1,
    "lat": 25.005412,
    "lng": 121.463479,
    "sid": "MAAzADIAMgAwADAAMAAwADYAMAA=",
    "name": "(準公共)新北市私立優兒幼兒園",
    "type": "spub3"
  },
  {
    "newsch": 1,
    "lat": 25.020752,
    "lng": 121.478928,
    "sid": "MAAzADIAMgAwADAAMAAwADYAMQA=",
    "name": "(私立)新北市私立喬一幼兒園",
    "type": "spub1"
  },
  {
    "newsch": 1,
    "lat": 25.009839,
    "lng": 121.461255,
    "sid": "MAAzADIAMgAwADAAMAAwADYAMgA=",
    "name": "(私立)新北市私立科見板橋幼兒園",
    "type": "spub1"
  },
  {
    "newsch": 1,
    "lat": 25.027591,
    "lng": 121.472887,
    "sid": "MAAzADIAMgAwADAAMAAwADYAMwA=",
    "name": "(私立)新北市私立卡爾斯登幼兒園",
    "type": "spub1"
  },
  {
    "newsch": 1,
    "lat": 24.984784,
    "lng": 121.427412,
    "sid": "MAAzADIAMgAwADAAMAAwADYANAA=",
    "name": "(私立)新北市私立永錡板橋幼兒園",
    "type": "spub1"
  },
  {
    "newsch": 1,
    "lat": 25.020868,
    "lng": 121.476471,
    "sid": "MAAzADIAMgAwADAAMAAwADYANQA=",
    "name": "(私立)新北市私立文堡幼兒園",
    "type": "spub1"
  },
  {
    "newsch": 1,
    "lat": 25.013215,
    "lng": 121.476593,
    "sid": "MAAzADIAMgAwADAAMAAwADYANgA=",
    "name": "(準公共)新北市私立優貝兒幼兒園",
    "type": "spub3"
  },
  {
    "newsch": 1,
    "lat": 25.020451,
    "lng": 121.458772,
    "sid": "MAAzADIAMgAwADAAMAAwADYANwA=",
    "name": "(準公共)新北市私立育群幼兒園",
    "type": "spub3"
  },
  {
    "newsch": 1,
    "lat": 25.028966,
    "lng": 121.473233,
    "sid": "MAAzADIAMgAwADAAMAAwADYAOQA=",
    "name": "(私立)新北市私立心世紀幼兒園",
    "type": "spub1"
  },
  {
    "newsch": 1,
    "lat": 25.019789,
    "lng": 121.474519,
    "sid": "MAAzADIAMgAwADAAMAAwADcAMQA=",
    "name": "(準公共)新北市私立慧晟幼兒園",
    "type": "spub3"
  },
  {
    "newsch": 1,
    "lat": 24.995831,
    "lng": 121.451392,
    "sid": "MAAzADIAMgAwADAAMAAwADcAMwA=",
    "name": "(準公共)新北市私立聖路易幼兒園",
    "type": "spub3"
  },
  {
    "newsch": 1,
    "lat": 25.018318,
    "lng": 121.473829,
    "sid": "MAAzADIAMgAwADAAMAAwADcANAA=",
    "name": "(準公共)新北市私立愛森堡幼兒園",
    "type": "spub3"
  },
  {
    "newsch": 1,
    "lat": 25.024097,
    "lng": 121.473122,
    "sid": "MAAzADIAMgAwADAAMAAwADcANQA=",
    "name": "(私立)新北市私立喬治亞幼兒園",
    "type": "spub1"
  },
  {
    "newsch": 1,
    "lat": 24.995732,
    "lng": 121.460819,
    "sid": "MAAzADIAMgAwADAAMAAwADcANgA=",
    "name": "(私立)新北市私立菲蒙思幼兒園",
    "type": "spub1"
  },
  {
    "newsch": 1,
    "lat": 25.000835,
    "lng": 121.463938,
    "sid": "MAAzADIAMgAwADAAMAAwADcANwA=",
    "name": "(準公共)新北市私立班尼迪克幼兒園",
    "type": "spub3"
  },
  {
    "newsch": 1,
    "lat": 25.017305,
    "lng": 121.474334,
    "sid": "MAAzADIAMgAwADAAMAAwADcAOAA=",
    "name": "(準公共)新北市私立全能愛彌兒板橋幼兒園",
    "type": "spub3"
  },
  {
    "newsch": 1,
    "lat": 25.017432,
    "lng": 121.474203,
    "sid": "MAAzADIAMgAwADAAMAAwADcAOAAtADAAMQA=",
    "name": "(準公共)新北市私立全能愛彌兒板橋幼兒園永豐分班",
    "type": "spub3"
  },
  {
    "newsch": 1,
    "lat": 25.033045,
    "lng": 121.472435,
    "sid": "MAAzADIAMgAwADAAMAAwADcAOQA=",
    "name": "(準公共)新北市私立偉仁幼兒園",
    "type": "spub3"
  },
  {
    "newsch": 1,
    "lat": 25.001604,
    "lng": 121.462973,
    "sid": "MAAzADIAMgAwADAAMAAwADgAMAA=",
    "name": "(私立)新北市私立愷僑幼兒園",
    "type": "spub1"
  },
  {
    "newsch": 1,
    "lat": 25.024719,
    "lng": 121.457684,
    "sid": "MAAzADIAMgAwADAAMAAwADgAMgA=",
    "name": "(私立)新北市私立喬心幼兒園",
    "type": "spub1"
  },
  {
    "newsch": 1,
    "lat": 25.008425,
    "lng": 121.444511,
    "sid": "MAAzADIAMgAwADAAMAAwADgANAA=",
    "name": "(準公共)新北市私立興名陽幼兒園",
    "type": "spub3"
  },
  {
    "newsch": 1,
    "lat": 25.02759,
    "lng": 121.46934,
    "sid": "MAAzADIAMgAwADAAMAAwADgANQA=",
    "name": "(私立)新北市私立莒光幼兒園",
    "type": "spub1"
  },
  {
    "newsch": 1,
    "lat": 24.984097,
    "lng": 121.429804,
    "sid": "MAAzADIAMgAwADAAMAAwADgANgA=",
    "name": "(私立)新北市私立藍天幼兒園",
    "type": "spub1"
  },
  {
    "newsch": 1,
    "lat": 25.024924,
    "lng": 121.461599,
    "sid": "MAAzADIAMgAwADAAMAAwADgANwA=",
    "name": "(私立)新北市私立雅森幼兒園",
    "type": "spub1"
  },
  {
    "newsch": 1,
    "lat": 24.987399,
    "lng": 121.429936,
    "sid": "MAAzADIAMgAwADAAMAAwADgAOAA=",
    "name": "(準公共)新北市私立欣勵德幼兒園",
    "type": "spub3"
  },
  {
    "newsch": 1,
    "lat": 25.008462,
    "lng": 121.457959,
    "sid": "MAAzADIAMgAwADAAMAAwADgAOQA=",
    "name": "(準公共)新北市私立悅欣幼兒園",
    "type": "spub3"
  },
  {
    "newsch": 1,
    "lat": 25.02364,
    "lng": 121.472499,
    "sid": "MAAzADIAMgAwADAAMAAwADkAMAA=",
    "name": "(私立)新北市私立育人幼兒園",
    "type": "spub1"
  },
  {
    "newsch": 1,
    "lat": 25.012092,
    "lng": 121.469602,
    "sid": "MAAzADIAMgAwADAAMAAwADkAMQA=",
    "name": "(私立)新北市私立漢東幼兒園",
    "type": "spub1"
  },
  {
    "newsch": 1,
    "lat": 25.030516,
    "lng": 121.473106,
    "sid": "MAAzADIAMgAwADAAMAAwADkAMgA=",
    "name": "(私立)新北市私立山姆叔叔板橋幼兒園",
    "type": "spub1"
  },
  {
    "newsch": 1,
    "lat": 25.001376,
    "lng": 121.46328,
    "sid": "MAAzADIAMgAwADAAMAAwADkAMwA=",
    "name": "(私立)新北市私立育太幼兒園",
    "type": "spub1"
  },
  {
    "newsch": 1,
    "lat": 25.008841,
    "lng": 121.452862,
    "sid": "MAAzADIAMgAwADAAMAAwADkANAA=",
    "name": "(準公共)新北市私立彬彬幼兒園",
    "type": "spub3"
  },
  {
    "newsch": 1,
    "lat": 25.014695,
    "lng": 121.451623,
    "sid": "MAAzADIAMgAwADAAMAAwADkANQA=",
    "name": "(準公共)新北市私立板橋天翔幼兒園",
    "type": "spub3"
  },
  {
    "newsch": 1,
    "lat": 25.030496,
    "lng": 121.471735,
    "sid": "MAAzADIAMgAwADAAMAAwADkANgA=",
    "name": "(準公共)新北市私立古典幼兒園",
    "type": "spub3"
  },
  {
    "newsch": 1,
    "lat": 25.031873,
    "lng": 121.469521,
    "sid": "MAAzADIAMgAwADAAMAAwADkANwA=",
    "name": "(準公共)新北市私立江翠幼兒園",
    "type": "spub3"
  },
  {
    "newsch": 1,
    "lat": 25.027832,
    "lng": 121.478945,
    "sid": "MAAzADIAMgAwADAAMAAwADkAOAA=",
    "name": "(私立)新北市私立圓心坊幼兒園",
    "type": "spub1"
  },
  {
    "newsch": 1,
    "lat": 25.027458,
    "lng": 121.472627,
    "sid": "MAAzADIAMgAwADAAMAAwADkAOQA=",
    "name": "(私立)新北市私立若仁幼兒園",
    "type": "spub1"
  },
  {
    "newsch": 1,
    "lat": 25.012078,
    "lng": 121.478085,
    "sid": "MAAzADIAMgAwADAAMAAxADAAMAA=",
    "name": "(私立)新北市私立正隆幼兒園",
    "type": "spub1"
  },
  {
    "newsch": 1,
    "lat": 25.00287,
    "lng": 121.463399,
    "sid": "MAAzADIAMgAwADAAMAAxADAAMwA=",
    "name": "(準公共)新北市私立天愛幼兒園",
    "type": "spub3"
  },
  {
    "newsch": 1,
    "lat": 25.018818,
    "lng": 121.455985,
    "sid": "MAAzADIAMgAwADAAMAAxADAANAA=",
    "name": "(準公共)新北市私立立聖幼兒園",
    "type": "spub3"
  },
  {
    "newsch": 1,
    "lat": 25.012377,
    "lng": 121.46479,
    "sid": "MAAzADIAMgAwADAAMAAxADAANQA=",
    "name": "(非營利)新北市政府板橋員工子女非營利幼兒園（委託財團法人台北基督教女青年會辦理）",
    "type": "spub2"
  },
  {
    "newsch": 1,
    "lat": 25.001077,
    "lng": 121.46037,
    "sid": "MAAzADIAMgAwADAAMAAxADAANgA=",
    "name": "(私立)新北市私立大自然幼兒園",
    "type": "spub1"
  },
  {
    "newsch": 1,
    "lat": 25.024338,
    "lng": 121.479863,
    "sid": "MAAzADIAMgAwADAAMAAxADAANwA=",
    "name": "(私立)新北市私立板橋大華幼兒園",
    "type": "spub1"
  },
  {
    "newsch": 1,
    "lat": 25.012212,
    "lng": 121.482077,
    "sid": "MAAzADIAMgAwADAAMAAxADAAOAA=",
    "name": "(私立)新北市私立國儷幼兒園",
    "type": "spub1"
  },
  {
    "newsch": 1,
    "lat": 25.028205,
    "lng": 121.46123,
    "sid": "MAAzADIAMgAwADAAMAAxADAAOQA=",
    "name": "(準公共)新北市私立靜立幼兒園",
    "type": "spub3"
  },
  {
    "newsch": 1,
    "lat": 25.01259,
    "lng": 121.445164,
    "sid": "MAAzADIAMgAwADAAMAAxADEAMQA=",
    "name": "(準公共)新北市私立天藍幼兒園",
    "type": "spub3"
  },
  {
    "newsch": 1,
    "lat": 25.002451,
    "lng": 121.447538,
    "sid": "MAAzADIAMgAwADAAMAAxADEAMwA=",
    "name": "(私立)新北市私立大安幼兒園",
    "type": "spub1"
  },
  {
    "newsch": 1,
    "lat": 25.016887,
    "lng": 121.456646,
    "sid": "MAAzADIAMgAwADAAMAAxADEANQA=",
    "name": "(私立)新北市私立諾亞幼兒園",
    "type": "spub1"
  },
  {
    "newsch": 1,
    "lat": 25.025344,
    "lng": 121.474294,
    "sid": "MAAzADIAMgAwADAAMAAxADEANwA=",
    "name": "(公立)新北市板橋區莒光國民小學附設幼兒園",
    "type": "spub0"
  },
  {
    "newsch": 1,
    "lat": 25.003168,
    "lng": 121.462948,
    "sid": "MAAzADIAMgAwADAAMAAxADEAOAA=",
    "name": "(公立)新北市板橋區後埔國民小學附設幼兒園",
    "type": "spub0"
  },
  {
    "newsch": 1,
    "lat": 25.004718,
    "lng": 121.461905,
    "sid": "MAAzADIAMgAwADAAMAAxADEAOQA=",
    "name": "(公立)新北市立忠孝國民中學附設幼兒園",
    "type": "spub0"
  },
  {
    "newsch": 1,
    "lat": 24.987291,
    "lng": 121.432204,
    "sid": "MAAzADIAMgAwADAAMAAxADIAMAA=",
    "name": "(公立)新北市板橋區溪洲國民小學附設幼兒園",
    "type": "spub0"
  },
  {
    "newsch": 1,
    "lat": 25.029795,
    "lng": 121.468438,
    "sid": "MAAzADIAMgAwADAAMAAxADIAMQA=",
    "name": "(公立)新北市立江翠國民中學附設幼兒園",
    "type": "spub0"
  },
  {
    "newsch": 1,
    "lat": 25.011008,
    "lng": 121.457978,
    "sid": "MAAzADIAMgAwADAAMAAxADIAMwA=",
    "name": "(公立)新北市板橋區板橋國民小學附設幼兒園",
    "type": "spub0"
  },
  {
    "newsch": 1,
    "lat": 25.031908,
    "lng": 121.473499,
    "sid": "MAAzADIAMgAwADAAMAAxADIANAA=",
    "name": "(公立)新北市板橋區江翠國民小學附設幼兒園",
    "type": "spub0"
  },
  {
    "newsch": 1,
    "lat": 25.008699,
    "lng": 121.448691,
    "sid": "MAAzADIAMgAwADAAMAAxADIANQA=",
    "name": "(公立)新北市板橋區大觀國民小學附設幼兒園",
    "type": "spub0"
  },
  {
    "newsch": 1,
    "lat": 25.002125,
    "lng": 121.447773,
    "sid": "MAAzADIAMgAwADAAMAAxADIANgA=",
    "name": "(公立)新北市板橋區中山國民小學附設幼兒園",
    "type": "spub0"
  },
  {
    "newsch": 1,
    "lat": 24.994231,
    "lng": 121.462721,
    "sid": "MAAzADIAMgAwADAAMAAxADIANwA=",
    "name": "(公立)新北市板橋區重慶國民小學附設幼兒園",
    "type": "spub0"
  },
  {
    "newsch": 1,
    "lat": 25.022247,
    "lng": 121.458664,
    "sid": "MAAzADIAMgAwADAAMAAxADIAOAA=",
    "name": "(公立)新北市板橋區文德國民小學附設幼兒園",
    "type": "spub0"
  },
  {
    "newsch": 1,
    "lat": 25.009389,
    "lng": 121.470736,
    "sid": "MAAzADIAMgAwADAAMAAxADIAOQA=",
    "name": "(公立)新北市板橋區海山國民小學附設幼兒園",
    "type": "spub0"
  },
  {
    "newsch": 1,
    "lat": 24.991318,
    "lng": 121.452956,
    "sid": "MAAzADIAMgAwADAAMAAxADMAMAA=",
    "name": "(公立)新北市板橋區信義國民小學附設幼兒園",
    "type": "spub0"
  },
  {
    "newsch": 1,
    "lat": 25.006123,
    "lng": 121.462491,
    "sid": "MAAzADIAMgAwADAAMAAxADMAMQA=",
    "name": "(準公共)新北市私立精緻之家幼兒園",
    "type": "spub3"
  },
  {
    "newsch": 1,
    "lat": 25.017966,
    "lng": 121.458252,
    "sid": "MAAzADIAMgAwADAAMAAxADMAMgA=",
    "name": "(準公共)新北市私立亞特幼兒園",
    "type": "spub3"
  },
  {
    "newsch": 1,
    "lat": 24.998128,
    "lng": 121.462816,
    "sid": "MAAzADIAMgAwADAAMAAxADMANAA=",
    "name": "(公立)新北市立重慶國民中學附設幼兒園",
    "type": "spub0"
  },
  {
    "newsch": 1,
    "lat": 25.020198,
    "lng": 121.453527,
    "sid": "MAAzADIAMgAwADAAMAAxADMANQA=",
    "name": "(公立)新北市立板橋幼兒園",
    "type": "spub0"
  },
  {
    "newsch": 1,
    "lat": 25.02836,
    "lng": 121.480849,
    "sid": "MAAzADIAMgAwADAAMAAxADMANQAtADAAMQA=",
    "name": "(公立)新北市立板橋幼兒園新民分班",
    "type": "spub0"
  },
  {
    "newsch": 1,
    "lat": 24.997918,
    "lng": 121.464855,
    "sid": "MAAzADIAMgAwADAAMAAxADMANQAtADAAMgA=",
    "name": "(公立)新北市立板橋幼兒園和平分班",
    "type": "spub0"
  },
  {
    "newsch": 1,
    "lat": 25.029704,
    "lng": 121.477322,
    "sid": "MAAzADIAMgAwADAAMAAxADMANgA=",
    "name": "(公立)新北市板橋區文聖國民小學附設幼兒園",
    "type": "spub0"
  },
  {
    "newsch": 1,
    "lat": 24.997155,
    "lng": 121.432178,
    "sid": "MAAzADIAMgAwADAAMAAxADMANwA=",
    "name": "(公立)新北市立溪崑國民中學附設幼兒園",
    "type": "spub0"
  },
  {
    "newsch": 1,
    "lat": 24.990507,
    "lng": 121.430844,
    "sid": "MAAzADIAMgAwADAAMAAxADMAOAA=",
    "name": "(公立)新北市板橋區沙崙國民小學附設幼兒園",
    "type": "spub0"
  },
  {
    "newsch": 1,
    "lat": 25.025967,
    "lng": 121.462778,
    "sid": "MAAzADIAMgAwADAAMAAxADMAOQA=",
    "name": "(公立)新北市板橋區新埔國民小學附設幼兒園",
    "type": "spub0"
  },
  {
    "newsch": 1,
    "lat": 25.018415,
    "lng": 121.452548,
    "sid": "MAAzADIAMgAwADAAMAAxADQAMAA=",
    "name": "(公立)新北市板橋區國光國民小學附設幼兒園",
    "type": "spub0"
  },
  {
    "newsch": 1,
    "lat": 25.023714,
    "lng": 121.458713,
    "sid": "MAAzADIAMgAwADAAMAAxADQAMQA=",
    "name": "(公立)新北市立新埔國民中學附設幼兒園",
    "type": "spub0"
  },
  {
    "newsch": 1,
    "lat": 25.005371,
    "lng": 121.466427,
    "sid": "MAAzADIAMgAwADAAMAAxADQAMgA=",
    "name": "(公立)新北市板橋區實踐國民小學附設幼兒園",
    "type": "spub0"
  },
  {
    "newsch": 1,
    "lat": 25.018101,
    "lng": 121.474739,
    "sid": "MAAzADIAMgAwADAAMAAxADQAMwA=",
    "name": "(公立)新北市板橋區埔墘國民小學附設幼兒園",
    "type": "spub0"
  },
  {
    "newsch": 1,
    "lat": 25.014115,
    "lng": 121.472744,
    "sid": "MAAzADIAMgAwADAAMAAxADQANAA=",
    "name": "(私立)新北市私立卡爾威特幼兒園",
    "type": "spub1"
  },
  {
    "newsch": 1,
    "lat": 25.028069,
    "lng": 121.478872,
    "sid": "MAAzADIAMgAwADAAMAAxADQANQA=",
    "name": "(準公共)新北市私立心耶魯幼兒園",
    "type": "spub3"
  },
  {
    "newsch": 1,
    "lat": 25.017579,
    "lng": 121.456031,
    "sid": "MAAzADIAMgAwADAAMAAxADQANgA=",
    "name": "(準公共)新北市私立葳肯幼兒園",
    "type": "spub3"
  },
  {
    "newsch": 1,
    "lat": 25.027747,
    "lng": 121.4587,
    "sid": "MAAzADIAMgAwADAAMAAxADQANwA=",
    "name": "(準公共)新北市私立溫馨幼兒園",
    "type": "spub3"
  },
  {
    "newsch": 1,
    "lat": 25.033829,
    "lng": 121.476983,
    "sid": "MAAzADIAMgAwADAAMAAxADQAOAA=",
    "name": "(私立)新北市私立板橋育安幼兒園",
    "type": "spub1"
  },
  {
    "newsch": 1,
    "lat": 25.030533,
    "lng": 121.477307,
    "sid": "MAAzADIAMgAwADAAMAAxADQAOQA=",
    "name": "(私立)新北市私立巧可麗巧宇幼兒園",
    "type": "spub1"
  },
  {
    "newsch": 1,
    "lat": 25.023927,
    "lng": 121.476452,
    "sid": "MAAzADIAMgAwADAAMAAxADUAMAA=",
    "name": "(準公共)新北市私立新雙成幼兒園",
    "type": "spub3"
  },
  {
    "newsch": 1,
    "lat": 24.99896,
    "lng": 121.46449,
    "sid": "MAAzADIAMgAwADAAMAAxADUAMQA=",
    "name": "(準公共)新北市私立鹿兒堡幼兒園",
    "type": "spub3"
  },
  {
    "newsch": 1,
    "lat": 24.988932,
    "lng": 121.432005,
    "sid": "MAAzADIAMgAwADAAMAAxADUAMgA=",
    "name": "(準公共)新北市私立菩提幼兒園",
    "type": "spub3"
  },
  {
    "newsch": 1,
    "lat": 25.02783,
    "lng": 121.471561,
    "sid": "MAAzADIAMgAwADAAMAAxADUAMwA=",
    "name": "(私立)新北市私立發現小熊森林幼兒園",
    "type": "spub1"
  },
  {
    "newsch": 1,
    "lat": 25.008531,
    "lng": 121.466149,
    "sid": "MAAzADIAMgAwADAAMAAxADUANAA=",
    "name": "(私立)新北市私立茁壯園板橋幼兒園",
    "type": "spub1"
  },
  {
    "newsch": 1,
    "lat": 24.989537,
    "lng": 121.43295,
    "sid": "MAAzADIAMgAwADAAMAAxADUANQA=",
    "name": "(私立)新北市私立皇家貴族幼兒園",
    "type": "spub1"
  },
  {
    "newsch": 1,
    "lat": 24.989882,
    "lng": 121.432967,
    "sid": "MAAzADIAMgAwADAAMAAxADUANwA=",
    "name": "(私立)新北市私立漂亮寶貝幼兒園",
    "type": "spub1"
  },
  {
    "newsch": 1,
    "lat": 25.022582,
    "lng": 121.472927,
    "sid": "MAAzADIAMgAwADAAMAAxADUAOAA=",
    "name": "(私立)新北市私立幼菁幼兒園",
    "type": "spub1"
  },
  {
    "newsch": 1,
    "lat": 25.012734,
    "lng": 121.447727,
    "sid": "MAAzADIAMgAwADAAMAAxADUAOQA=",
    "name": "(準公共)新北市私立台大幼兒園",
    "type": "spub3"
  },
  {
    "newsch": 1,
    "lat": 25.01649,
    "lng": 121.45438,
    "sid": "MAAzADIAMgAwADAAMAAxADYAMAA=",
    "name": "(私立)新北市私立幼華幼兒園",
    "type": "spub1"
  },
  {
    "newsch": 1,
    "lat": 25.024428,
    "lng": 121.467899,
    "sid": "MAAzADIAMgAwADAAMAAxADYAMgA=",
    "name": "(準公共)新北市私立三元幼兒園",
    "type": "spub3"
  },
  {
    "newsch": 1,
    "lat": 25.006149,
    "lng": 121.455791,
    "sid": "MAAzADIAMgAwADAAMAAxADYAMwA=",
    "name": "(私立)新北市私立吉的堡南雅幼兒園",
    "type": "spub1"
  },
  {
    "newsch": 1,
    "lat": 25.007252,
    "lng": 121.472017,
    "sid": "MAAzADIAMgAwADAAMAAxADYANAA=",
    "name": "(私立)新北市私立生活村幼兒園",
    "type": "spub1"
  },
  {
    "newsch": 1,
    "lat": 25.016702,
    "lng": 121.460936,
    "sid": "MAAzADIAMgAwADAAMAAxADYANQA=",
    "name": "(準公共)新北市私立慈惠幼兒園",
    "type": "spub3"
  },
  {
    "newsch": 1,
    "lat": 25.031336,
    "lng": 121.471985,
    "sid": "MAAzADIAMgAwADAAMAAxADYANgA=",
    "name": "(準公共)新北市私立文聖幼兒園",
    "type": "spub3"
  },
  {
    "newsch": 1,
    "lat": 24.993767,
    "lng": 121.458673,
    "sid": "MAAzADIAMgAwADAAMAAxADYANwA=",
    "name": "(準公共)新北市私立薇吉妮亞幼兒園",
    "type": "spub3"
  },
  {
    "newsch": 1,
    "lat": 25.01047,
    "lng": 121.466423,
    "sid": "MAAzADIAMgAwADAAMAAxADYAOAA=",
    "name": "(私立)新北市私立艾法貝爾幼兒園",
    "type": "spub1"
  },
  {
    "newsch": 1,
    "lat": 25.010745,
    "lng": 121.447222,
    "sid": "MAAzADIAMgAwADAAMAAxADYAOQA=",
    "name": "(非營利)新北市大觀非營利幼兒園(委託社團法人新北市中華國際嬰幼兒發展學會辦理)",
    "type": "spub2"
  },
  {
    "newsch": 1,
    "lat": 25.023675,
    "lng": 121.453625,
    "sid": "MAAzADIAMgAwADAAMAAxADcAMAA=",
    "name": "(非營利)新北市新月非營利幼兒園(委託財團法人彭婉如文教基金會辦理)",
    "type": "spub2"
  },
  {
    "newsch": 1,
    "lat": 25.035447,
    "lng": 121.474205,
    "sid": "MAAzADIAMgAwADAAMAAxADcAMQA=",
    "name": "(非營利)新北市柏翠非營利幼兒園(委託財團法人心路社會福利基金會辦理)",
    "type": "spub2"
  },
  {
    "newsch": 1,
    "lat": 24.997668,
    "lng": 121.443993,
    "sid": "MAAzADIAMgAwADAAMAAxADcAMgA=",
    "name": "(私立)新北市私立布查花園幼兒園",
    "type": "spub1"
  },
  {
    "newsch": 1,
    "lat": 25.029669,
    "lng": 121.468514,
    "sid": "MAAzADIAMgAwADAAMAAxADcAMwA=",
    "name": "(非營利)新北市翠中非營利幼兒園(委託財團法人三之三生命教育基金會辦理)",
    "type": "spub2"
  },
  {
    "newsch": 1,
    "lat": 25.028043,
    "lng": 121.475508,
    "sid": "MAAzADIAMgAwADAAMAAxADcANAA=",
    "name": "(私立)新北市中華電信江翠職場互助教保服務中心（委託社團法人台灣幼兒早期教育協會辦理）",
    "type": "spub1"
  }
]