[
  {
    "newsch": 1,
    "lat": 24.960016,
    "lng": 121.332601,
    "sid": "MAAzADIAMwA5ADAAMAAwADAAMQA=",
    "name": "(準公共)新北市私立學詮幼兒園",
    "type": "spub3"
  },
  {
    "newsch": 1,
    "lat": 24.950775,
    "lng": 121.338101,
    "sid": "MAAzADIAMwA5ADAAMAAwADAAMgA=",
    "name": "(準公共)新北市私立愛迪生幼兒園",
    "type": "spub3"
  },
  {
    "newsch": 1,
    "lat": 24.958713,
    "lng": 121.337772,
    "sid": "MAAzADIAMwA5ADAAMAAwADAAMwA=",
    "name": "(準公共)新北市私立長青幼兒園",
    "type": "spub3"
  },
  {
    "newsch": 1,
    "lat": 24.975727,
    "lng": 121.328373,
    "sid": "MAAzADIAMwA5ADAAMAAwADAANAA=",
    "name": "(私立)新北市私立及仁幼兒園",
    "type": "spub1"
  },
  {
    "newsch": 1,
    "lat": 24.960844,
    "lng": 121.333703,
    "sid": "MAAzADIAMwA5ADAAMAAwADAANgA=",
    "name": "(私立)新北市私立朱徠德幼兒園",
    "type": "spub1"
  },
  {
    "newsch": 1,
    "lat": 24.950827,
    "lng": 121.343757,
    "sid": "MAAzADIAMwA5ADAAMAAwADAANwA=",
    "name": "(公立)新北市立鶯歌國民中學附設幼兒園",
    "type": "spub0"
  },
  {
    "newsch": 1,
    "lat": 24.967558,
    "lng": 121.331997,
    "sid": "MAAzADIAMwA5ADAAMAAwADAAOAA=",
    "name": "(公立)新北市立鳳鳴國民中學附設幼兒園",
    "type": "spub0"
  },
  {
    "newsch": 1,
    "lat": 24.943568,
    "lng": 121.342669,
    "sid": "MAAzADIAMwA5ADAAMAAwADAAOQA=",
    "name": "(公立)新北市立尖山國民中學附設幼兒園",
    "type": "spub0"
  },
  {
    "newsch": 1,
    "lat": 24.940887,
    "lng": 121.33761199999999,
    "sid": "MAAzADIAMwA5ADAAMAAwADEAMAA=",
    "name": "(公立)新北市鶯歌區二橋國民小學附設幼兒園",
    "type": "spub0"
  },
  {
    "newsch": 1,
    "lat": 24.969152,
    "lng": 121.335245,
    "sid": "MAAzADIAMwA5ADAAMAAwADEAMQA=",
    "name": "(公立)新北市鶯歌區鳳鳴國民小學附設幼兒園",
    "type": "spub0"
  },
  {
    "newsch": 1,
    "lat": 24.973019,
    "lng": 121.348222,
    "sid": "MAAzADIAMwA5ADAAMAAwADEAMgA=",
    "name": "(公立)新北市鶯歌區中湖國民小學附設幼兒園",
    "type": "spub0"
  },
  {
    "newsch": 1,
    "lat": 24.951603,
    "lng": 121.346895,
    "sid": "MAAzADIAMwA5ADAAMAAwADEAMwA=",
    "name": "(公立)新北市鶯歌區鶯歌國民小學附設幼兒園",
    "type": "spub0"
  },
  {
    "newsch": 1,
    "lat": 24.958615,
    "lng": 121.332663,
    "sid": "MAAzADIAMwA5ADAAMAAwADEANAA=",
    "name": "(公立)新北市鶯歌區永吉國民小學附設幼兒園",
    "type": "spub0"
  },
  {
    "newsch": 1,
    "lat": 24.954468,
    "lng": 121.346251,
    "sid": "MAAzADIAMwA5ADAAMAAwADEANQA=",
    "name": "(公立)新北市鶯歌區建國國民小學附設幼兒園",
    "type": "spub0"
  },
  {
    "newsch": 1,
    "lat": 24.970926,
    "lng": 121.345919,
    "sid": "MAAzADIAMwA5ADAAMAAwADEANgA=",
    "name": "(公立)新北市立鶯歌幼兒園",
    "type": "spub0"
  },
  {
    "newsch": 1,
    "lat": 24.954727,
    "lng": 121.353983,
    "sid": "MAAzADIAMwA5ADAAMAAwADEANwA=",
    "name": "(私立)新北市私立山姆幼兒園",
    "type": "spub1"
  },
  {
    "newsch": 1,
    "lat": 24.953733,
    "lng": 121.344605,
    "sid": "MAAzADIAMwA5ADAAMAAwADEAOAA=",
    "name": "(私立)新北市私立康乃爾幼兒園",
    "type": "spub1"
  },
  {
    "newsch": 1,
    "lat": 24.953743,
    "lng": 121.356757,
    "sid": "MAAzADIAMwA5ADAAMAAwADEAOQA=",
    "name": "(準公共)新北市私立宏修幼兒園",
    "type": "spub3"
  },
  {
    "newsch": 1,
    "lat": 24.94031,
    "lng": 121.338753,
    "sid": "MAAzADIAMwA5ADAAMAAwADIAMAA=",
    "name": "(私立)新北市私立育全鶯歌幼兒園",
    "type": "spub1"
  },
  {
    "newsch": 1,
    "lat": 24.953309,
    "lng": 121.343828,
    "sid": "MAAzADIAMwA5ADAAMAAwADIAMgA=",
    "name": "(私立)新北市私立鶯歌芝麻村幼兒園",
    "type": "spub1"
  },
  {
    "newsch": 1,
    "lat": 24.953643,
    "lng": 121.338577,
    "sid": "MAAzADIAMwA5ADAAMAAwADIANAA=",
    "name": "(準公共)新北市私立宏鶯幼兒園",
    "type": "spub3"
  },
  {
    "newsch": 1,
    "lat": 24.955338,
    "lng": 121.339495,
    "sid": "MAAzADIAMwA5ADAAMAAwADIANgA=",
    "name": "(非營利)新北市昌福非營利幼兒園(委託中華民國文教產業發展暨補習服務品保協會辦理)",
    "type": "spub2"
  },
  {
    "newsch": 1,
    "lat": 24.956496,
    "lng": 121.347678,
    "sid": "MAAzADIAMwA5ADAAMAAwADIANwA=",
    "name": "(準公共)新北市私立精英國際幼兒園",
    "type": "spub3"
  }
]