[
  {
    "newsch": 1,
    "lat": 24.9601626,
    "lng": 121.3325298,
    "sid": "MAAzADIAMwA5ADAAMAAwADAAMQA=",
    "name": "(準公共)新北市私立學詮幼兒園",
    "type": "spub3"
  },
  {
    "newsch": 1,
    "lat": 24.950721,
    "lng": 121.338039,
    "sid": "MAAzADIAMwA5ADAAMAAwADAAMgA=",
    "name": "(準公共)新北市私立愛迪生幼兒園",
    "type": "spub3"
  },
  {
    "newsch": 1,
    "lat": 24.9579499,
    "lng": 121.338305,
    "sid": "MAAzADIAMwA5ADAAMAAwADAAMwA=",
    "name": "(準公共)新北市私立長青幼兒園",
    "type": "spub3"
  },
  {
    "newsch": 1,
    "lat": 24.9752011,
    "lng": 121.328487,
    "sid": "MAAzADIAMwA5ADAAMAAwADAANAA=",
    "name": "(私立)新北市私立及仁幼兒園",
    "type": "spub1"
  },
  {
    "newsch": 1,
    "lat": 24.9611664,
    "lng": 121.3341213,
    "sid": "MAAzADIAMwA5ADAAMAAwADAANgA=",
    "name": "(私立)新北市私立朱徠德幼兒園",
    "type": "spub1"
  },
  {
    "newsch": 1,
    "lat": 24.950827,
    "lng": 121.344712,
    "sid": "MAAzADIAMwA5ADAAMAAwADAANwA=",
    "name": "(公立)新北市立鶯歌國民中學附設幼兒園",
    "type": "spub0"
  },
  {
    "newsch": 1,
    "lat": 24.967661,
    "lng": 121.332102,
    "sid": "MAAzADIAMwA5ADAAMAAwADAAOAA=",
    "name": "(公立)新北市立鳳鳴國民中學附設幼兒園",
    "type": "spub0"
  },
  {
    "newsch": 1,
    "lat": 24.9441519,
    "lng": 121.342102,
    "sid": "MAAzADIAMwA5ADAAMAAwADAAOQA=",
    "name": "(公立)新北市立尖山國民中學附設幼兒園",
    "type": "spub0"
  },
  {
    "newsch": 1,
    "lat": 24.940845,
    "lng": 121.337613,
    "sid": "MAAzADIAMwA5ADAAMAAwADEAMAA=",
    "name": "(公立)新北市鶯歌區二橋國民小學附設幼兒園",
    "type": "spub0"
  },
  {
    "newsch": 1,
    "lat": 24.969172,
    "lng": 121.334826,
    "sid": "MAAzADIAMwA5ADAAMAAwADEAMQA=",
    "name": "(公立)新北市鶯歌區鳳鳴國民小學附設幼兒園",
    "type": "spub0"
  },
  {
    "newsch": 1,
    "lat": 24.972962,
    "lng": 121.348355,
    "sid": "MAAzADIAMwA5ADAAMAAwADEAMgA=",
    "name": "(公立)新北市鶯歌區中湖國民小學附設幼兒園",
    "type": "spub0"
  },
  {
    "newsch": 1,
    "lat": 24.951208,
    "lng": 121.346619,
    "sid": "MAAzADIAMwA5ADAAMAAwADEAMwA=",
    "name": "(公立)新北市鶯歌區鶯歌國民小學附設幼兒園",
    "type": "spub0"
  },
  {
    "newsch": 1,
    "lat": 24.9586639,
    "lng": 121.333115,
    "sid": "MAAzADIAMwA5ADAAMAAwADEANAA=",
    "name": "(公立)新北市鶯歌區永吉國民小學附設幼兒園",
    "type": "spub0"
  },
  {
    "newsch": 1,
    "lat": 24.9549299,
    "lng": 121.346675,
    "sid": "MAAzADIAMwA5ADAAMAAwADEANQA=",
    "name": "(公立)新北市鶯歌區建國國民小學附設幼兒園",
    "type": "spub0"
  },
  {
    "newsch": 1,
    "lat": 24.971195,
    "lng": 121.346021,
    "sid": "MAAzADIAMwA5ADAAMAAwADEANgA=",
    "name": "(公立)新北市立鶯歌幼兒園",
    "type": "spub0"
  },
  {
    "newsch": 1,
    "lat": 24.994282,
    "lng": 121.293057,
    "sid": "MAAzADIAMwA5ADAAMAAwADEANwA=",
    "name": "(私立)新北市私立山姆幼兒園",
    "type": "spub1"
  },
  {
    "newsch": 1,
    "lat": 24.951247,
    "lng": 121.347461,
    "sid": "MAAzADIAMwA5ADAAMAAwADEAOAA=",
    "name": "(私立)新北市私立康乃爾幼兒園",
    "type": "spub1"
  },
  {
    "newsch": 1,
    "lat": 24.95548,
    "lng": 121.356949,
    "sid": "MAAzADIAMwA5ADAAMAAwADEAOQA=",
    "name": "(私立)新北市私立宏修幼兒園",
    "type": "spub1"
  },
  {
    "newsch": 1,
    "lat": 24.9372659,
    "lng": 121.340193,
    "sid": "MAAzADIAMwA5ADAAMAAwADIAMAA=",
    "name": "(私立)新北市私立育全鶯歌幼兒園",
    "type": "spub1"
  },
  {
    "newsch": 1,
    "lat": 24.9532346,
    "lng": 121.343751,
    "sid": "MAAzADIAMwA5ADAAMAAwADIAMgA=",
    "name": "(私立)新北市私立鶯歌芝麻村幼兒園",
    "type": "spub1"
  },
  {
    "newsch": 1,
    "lat": 24.954077,
    "lng": 121.337899,
    "sid": "MAAzADIAMwA5ADAAMAAwADIANAA=",
    "name": "(準公共)新北市私立宏鶯幼兒園",
    "type": "spub3"
  },
  {
    "newsch": 1,
    "lat": 24.955871,
    "lng": 121.339386,
    "sid": "MAAzADIAMwA5ADAAMAAwADIANgA=",
    "name": "(非營利)新北市昌福非營利幼兒園(委託中華民國文教產業發展暨補習服務品保協會辦理)",
    "type": "spub2"
  },
  {
    "newsch": 1,
    "lat": 24.956435,
    "lng": 121.3474551,
    "sid": "MAAzADIAMwA5ADAAMAAwADIANwA=",
    "name": "(私立)新北市私立精英國際幼兒園",
    "type": "spub1"
  }
]