[
  {
    "newsch": 1,
    "lat": 25.184105,
    "lng": 121.423488,
    "sid": "MAAzADIANQAxADAAMAAwADAAMgA=",
    "name": "(私立)新北市私立博士兒幼兒園",
    "type": "spub1"
  },
  {
    "newsch": 1,
    "lat": 25.176381,
    "lng": 121.440819,
    "sid": "MAAzADIANQAxADAAMAAwADAAMwA=",
    "name": "(私立)新北市私立國花幼兒園",
    "type": "spub1"
  },
  {
    "newsch": 1,
    "lat": 25.183197,
    "lng": 121.422269,
    "sid": "MAAzADIANQAxADAAMAAwADAANAA=",
    "name": "(私立)新北市私立唯寶幼兒園",
    "type": "spub1"
  },
  {
    "newsch": 1,
    "lat": 25.179922,
    "lng": 121.442072,
    "sid": "MAAzADIANQAxADAAMAAwADAANgA=",
    "name": "(私立)新北市私立淡水新興幼兒園",
    "type": "spub1"
  },
  {
    "newsch": 1,
    "lat": 25.178984,
    "lng": 121.449932,
    "sid": "MAAzADIANQAxADAAMAAwADAANwA=",
    "name": "(私立)新北市私立淡水啟文幼兒園",
    "type": "spub1"
  },
  {
    "newsch": 1,
    "lat": 25.178285,
    "lng": 121.447033,
    "sid": "MAAzADIANQAxADAAMAAwADAAOAA=",
    "name": "(私立)新北市私立吉的堡北馨園幼兒園",
    "type": "spub1"
  },
  {
    "newsch": 1,
    "lat": 25.13801,
    "lng": 121.464275,
    "sid": "MAAzADIANQAxADAAMAAwADAAOQA=",
    "name": "(準公共)新北市私立小親親幼兒園",
    "type": "spub3"
  },
  {
    "newsch": 1,
    "lat": 25.155178,
    "lng": 121.461508,
    "sid": "MAAzADIANQAxADAAMAAwADEAMAA=",
    "name": "(準公共)新北市私立快樂家族幼兒園",
    "type": "spub3"
  },
  {
    "newsch": 1,
    "lat": 25.181219,
    "lng": 121.440476,
    "sid": "MAAzADIANQAxADAAMAAwADEAMgA=",
    "name": "(私立)新北市私立蘋果苑幼兒園",
    "type": "spub1"
  },
  {
    "newsch": 1,
    "lat": 25.178029,
    "lng": 121.442522,
    "sid": "MAAzADIANQAxADAAMAAwADEAMwA=",
    "name": "(準公共)新北市私立臻寶園幼兒園",
    "type": "spub3"
  },
  {
    "newsch": 1,
    "lat": 25.174572,
    "lng": 121.439622,
    "sid": "MAAzADIANQAxADAAMAAwADEANAA=",
    "name": "(私立)新北市私立啟蒙幼兒園",
    "type": "spub1"
  },
  {
    "newsch": 1,
    "lat": 25.158789,
    "lng": 121.458319,
    "sid": "MAAzADIANQAxADAAMAAwADEANQA=",
    "name": "(私立)新北市私立紅樹林幼兒園",
    "type": "spub1"
  },
  {
    "newsch": 1,
    "lat": 25.177371,
    "lng": 121.445574,
    "sid": "MAAzADIANQAxADAAMAAwADEANgA=",
    "name": "(私立)新北市私立菁英幼兒園",
    "type": "spub1"
  },
  {
    "newsch": 1,
    "lat": 25.180395,
    "lng": 121.44356,
    "sid": "MAAzADIANQAxADAAMAAwADEAOAA=",
    "name": "(私立)新北市私立愛家幼兒園",
    "type": "spub1"
  },
  {
    "newsch": 1,
    "lat": 25.175107,
    "lng": 121.435852,
    "sid": "MAAzADIANQAxADAAMAAwADEAOQA=",
    "name": "(私立)台灣基督長老教會淡江學校財團法人新北市私立淡江高級中學附設新北市私立純德幼兒園",
    "type": "spub1"
  },
  {
    "newsch": 1,
    "lat": 25.132019,
    "lng": 121.462556,
    "sid": "MAAzADIANQAxADAAMAAwADIAMAA=",
    "name": "(準公共)新北市私立育碩幼兒園",
    "type": "spub3"
  },
  {
    "newsch": 1,
    "lat": 25.134513,
    "lng": 121.460521,
    "sid": "MAAzADIANQAxADAAMAAwADIAMQA=",
    "name": "(準公共)新北市私立萊恩得幼兒園",
    "type": "spub3"
  },
  {
    "newsch": 1,
    "lat": 25.171738,
    "lng": 121.447898,
    "sid": "MAAzADIANQAxADAAMAAwADIAMgA=",
    "name": "(準公共)新北市私立卓越幼兒園",
    "type": "spub3"
  },
  {
    "newsch": 1,
    "lat": 25.180981,
    "lng": 121.443152,
    "sid": "MAAzADIANQAxADAAMAAwADIAMwA=",
    "name": "(準公共)新北市私立淡水松柏幼兒園",
    "type": "spub3"
  },
  {
    "newsch": 1,
    "lat": 25.200471,
    "lng": 121.480252,
    "sid": "MAAzADIANQAxADAAMAAwADIANAA=",
    "name": "(公立)新北市立忠山實驗小學附設幼兒園",
    "type": "spub0"
  },
  {
    "newsch": 1,
    "lat": 25.217433,
    "lng": 121.451077,
    "sid": "MAAzADIANQAxADAAMAAwADIANQA=",
    "name": "(公立)新北市淡水區興仁國民小學附設幼兒園",
    "type": "spub0"
  },
  {
    "newsch": 1,
    "lat": 25.180643,
    "lng": 121.439586,
    "sid": "MAAzADIANQAxADAAMAAwADIANgA=",
    "name": "(公立)新北市淡水區新興國民小學附設幼兒園",
    "type": "spub0"
  },
  {
    "newsch": 1,
    "lat": 25.171407,
    "lng": 121.448898,
    "sid": "MAAzADIANQAxADAAMAAwADIANwA=",
    "name": "(公立)新北市淡水區鄧公國民小學附設幼兒園",
    "type": "spub0"
  },
  {
    "newsch": 1,
    "lat": 25.147274,
    "lng": 121.460441,
    "sid": "MAAzADIANQAxADAAMAAwADIAOAA=",
    "name": "(公立)新北市淡水區竹圍國民小學附設幼兒園",
    "type": "spub0"
  },
  {
    "newsch": 1,
    "lat": 25.158354,
    "lng": 121.483847,
    "sid": "MAAzADIANQAxADAAMAAwADIAOQA=",
    "name": "(公立)新北市淡水區坪頂國民小學附設幼兒園",
    "type": "spub0"
  },
  {
    "newsch": 1,
    "lat": 25.174577,
    "lng": 121.437022,
    "sid": "MAAzADIANQAxADAAMAAwADMAMAA=",
    "name": "(公立)新北市淡水區文化國民小學附設幼兒園",
    "type": "spub0"
  },
  {
    "newsch": 1,
    "lat": 25.173376,
    "lng": 121.441363,
    "sid": "MAAzADIANQAxADAAMAAwADMAMQA=",
    "name": "(公立)新北市淡水區淡水國民小學附設幼兒園",
    "type": "spub0"
  },
  {
    "newsch": 1,
    "lat": 25.237166,
    "lng": 121.456297,
    "sid": "MAAzADIANQAxADAAMAAwADMAMgA=",
    "name": "(公立)新北市淡水區屯山國民小學附設幼兒園",
    "type": "spub0"
  },
  {
    "newsch": 1,
    "lat": 25.181141,
    "lng": 121.424923,
    "sid": "MAAzADIANQAxADAAMAAwADMAMwA=",
    "name": "(公立)新北市淡水區天生國民小學附設幼兒園",
    "type": "spub0"
  },
  {
    "newsch": 1,
    "lat": 25.224578,
    "lng": 121.48464,
    "sid": "MAAzADIANQAxADAAMAAwADMANAA=",
    "name": "(公立)新北市淡水區中泰國民小學附設幼兒園",
    "type": "spub0"
  },
  {
    "newsch": 1,
    "lat": 25.175676,
    "lng": 121.437207,
    "sid": "MAAzADIANQAxADAAMAAwADMANQA=",
    "name": "(公立)新北市立淡水國民中學附設幼兒園",
    "type": "spub0"
  },
  {
    "newsch": 1,
    "lat": 25.178033,
    "lng": 121.444153,
    "sid": "MAAzADIANQAxADAAMAAwADMANgA=",
    "name": "(公立)新北市立淡水幼兒園",
    "type": "spub0"
  },
  {
    "newsch": 1,
    "lat": 25.138048,
    "lng": 121.461279,
    "sid": "MAAzADIANQAxADAAMAAwADMANgAtADAAMQA=",
    "name": "(公立)新北市立淡水幼兒園竹圍分班",
    "type": "spub0"
  },
  {
    "newsch": 1,
    "lat": 25.179711,
    "lng": 121.443193,
    "sid": "MAAzADIANQAxADAAMAAwADMANwA=",
    "name": "(私立)新北市私立快樂小熊幼兒園",
    "type": "spub1"
  },
  {
    "newsch": 1,
    "lat": 25.183837,
    "lng": 121.446291,
    "sid": "MAAzADIANQAxADAAMAAwADMAOAA=",
    "name": "(私立)新北市私立萬甲田幼兒園",
    "type": "spub1"
  },
  {
    "newsch": 1,
    "lat": 25.172503,
    "lng": 121.450169,
    "sid": "MAAzADIANQAxADAAMAAwADMAOQA=",
    "name": "(準公共)新北市私立智晶幼兒園",
    "type": "spub3"
  },
  {
    "newsch": 1,
    "lat": 25.181169,
    "lng": 121.437203,
    "sid": "MAAzADIANQAxADAAMAAwADQAMQA=",
    "name": "(準公共)新北市私立悅慧幼兒園",
    "type": "spub3"
  },
  {
    "newsch": 1,
    "lat": 25.133468,
    "lng": 121.460965,
    "sid": "MAAzADIANQAxADAAMAAwADQAMgA=",
    "name": "(私立)新北市私立溫斯頓幼兒園",
    "type": "spub1"
  },
  {
    "newsch": 1,
    "lat": 25.177477,
    "lng": 121.443117,
    "sid": "MAAzADIANQAxADAAMAAwADQAMwA=",
    "name": "(準公共)新北市私立普登幼兒園",
    "type": "spub3"
  },
  {
    "newsch": 1,
    "lat": 25.197179,
    "lng": 121.444571,
    "sid": "MAAzADIANQAxADAAMAAwADQANAA=",
    "name": "(公立)新北市淡水區育英國民小學附設幼兒園",
    "type": "spub0"
  },
  {
    "newsch": 1,
    "lat": 25.186203,
    "lng": 121.47665,
    "sid": "MAAzADIANQAxADAAMAAwADQANQA=",
    "name": "(公立)新北市淡水區水源國民小學附設幼兒園",
    "type": "spub0"
  },
  {
    "newsch": 1,
    "lat": 25.187422,
    "lng": 121.450558,
    "sid": "MAAzADIANQAxADAAMAAwADQANwA=",
    "name": "(私立)新北市私立漢斯堡國際幼兒園",
    "type": "spub1"
  },
  {
    "newsch": 1,
    "lat": 25.131364,
    "lng": 121.461756,
    "sid": "MAAzADIANQAxADAAMAAwADQAOQA=",
    "name": "(準公共)新北市私立英格麗幼兒園",
    "type": "spub3"
  },
  {
    "newsch": 1,
    "lat": 25.171713,
    "lng": 121.447365,
    "sid": "MAAzADIANQAxADAAMAAwADUAMAA=",
    "name": "(私立)新北市私立雨果幼兒園",
    "type": "spub1"
  },
  {
    "newsch": 1,
    "lat": 25.168796,
    "lng": 121.446461,
    "sid": "MAAzADIANQAxADAAMAAwADUAMQA=",
    "name": "(私立)新北市私立可爾威德幼兒園",
    "type": "spub1"
  },
  {
    "newsch": 1,
    "lat": 25.177147,
    "lng": 121.422856,
    "sid": "MAAzADIANQAxADAAMAAwADUAMgA=",
    "name": "(私立)財團法人新北市私立一信幼兒園",
    "type": "spub1"
  },
  {
    "newsch": 1,
    "lat": 25.138581,
    "lng": 121.459997,
    "sid": "MAAzADIANQAxADAAMAAwADUAMwA=",
    "name": "(準公共)新北市私立歡樂寶貝熊幼兒園",
    "type": "spub3"
  },
  {
    "newsch": 1,
    "lat": 25.185562,
    "lng": 121.442592,
    "sid": "MAAzADIANQAxADAAMAAwADUANAA=",
    "name": "(私立)新北市私立松林幼兒園",
    "type": "spub1"
  },
  {
    "newsch": 1,
    "lat": 25.186354,
    "lng": 121.445123,
    "sid": "MAAzADIANQAxADAAMAAwADUANQA=",
    "name": "(公立)新北市淡水區新市國民小學附設幼兒園",
    "type": "spub0"
  },
  {
    "newsch": 1,
    "lat": 25.183317,
    "lng": 121.446051,
    "sid": "MAAzADIANQAxADAAMAAwADUANgA=",
    "name": "(私立)新北市私立樂樂童年幼兒園",
    "type": "spub1"
  },
  {
    "newsch": 1,
    "lat": 25.178339,
    "lng": 121.454233,
    "sid": "MAAzADIANQAxADAAMAAwADUANwA=",
    "name": "(私立)經濟部台灣自來水公司第一區管理處職場互助教保服務中心(委託財團法人三之三生命教育基金會辦理)",
    "type": "spub1"
  },
  {
    "newsch": 1,
    "lat": 25.19609017,
    "lng": 121.430081,
    "sid": "MAAzADIANQAxADAAMAAwADUAOAA=",
    "name": "(非營利)新北市淡海非營利幼兒園(委託財團法人三之三生命教育基金會辦理)",
    "type": "spub2"
  },
  {
    "newsch": 1,
    "lat": 25.19776336,
    "lng": 121.42685934,
    "sid": "MAAzADIANQAxADAAMAAwADUAOQA=",
    "name": "(私立)新北市私立吾米幼兒園",
    "type": "spub1"
  },
  {
    "newsch": 1,
    "lat": 25.197771,
    "lng": 121.429691,
    "sid": "MAAzADIANQAxADAAMAAwADYAMAA=",
    "name": "(非營利)新北市崁頂非營利幼兒園(委託財團法人三之三生命教育基金會辦理)",
    "type": "spub2"
  },
  {
    "newsch": 1,
    "lat": 25.185487,
    "lng": 121.440245,
    "sid": "MAAzADIANQAxADAAMAAwADYAMQA=",
    "name": "(私立)新北市私立愛丁堡探索幼兒園",
    "type": "spub1"
  }
]