[
  {
    "newsch": 1,
    "lat": 25.1844017,
    "lng": 121.4238757,
    "sid": "MAAzADIANQAxADAAMAAwADAAMgA=",
    "name": "(私立)新北市私立博士兒幼兒園",
    "type": "spub1"
  },
  {
    "newsch": 1,
    "lat": 25.176229,
    "lng": 121.440767,
    "sid": "MAAzADIANQAxADAAMAAwADAAMwA=",
    "name": "(私立)新北市私立國花幼兒園",
    "type": "spub1"
  },
  {
    "newsch": 1,
    "lat": 25.1836836,
    "lng": 121.4231672,
    "sid": "MAAzADIANQAxADAAMAAwADAANAA=",
    "name": "(私立)新北市私立唯寶幼兒園",
    "type": "spub1"
  },
  {
    "newsch": 1,
    "lat": 25.179724,
    "lng": 121.440556,
    "sid": "MAAzADIANQAxADAAMAAwADAANgA=",
    "name": "(私立)新北市私立淡水新興幼兒園",
    "type": "spub1"
  },
  {
    "newsch": 1,
    "lat": 25.178988,
    "lng": 121.449917,
    "sid": "MAAzADIANQAxADAAMAAwADAANwA=",
    "name": "(私立)新北市私立淡水啟文幼兒園",
    "type": "spub1"
  },
  {
    "newsch": 1,
    "lat": 25.178401,
    "lng": 121.447004,
    "sid": "MAAzADIANQAxADAAMAAwADAAOAA=",
    "name": "(私立)新北市私立吉的堡北馨園幼兒園",
    "type": "spub1"
  },
  {
    "newsch": 1,
    "lat": 25.138031,
    "lng": 121.4643394,
    "sid": "MAAzADIANQAxADAAMAAwADAAOQA=",
    "name": "(私立)新北市私立小親親幼兒園",
    "type": "spub1"
  },
  {
    "newsch": 1,
    "lat": 25.1548826,
    "lng": 121.4613146,
    "sid": "MAAzADIANQAxADAAMAAwADEAMAA=",
    "name": "(私立)新北市私立快樂家族幼兒園",
    "type": "spub1"
  },
  {
    "newsch": 1,
    "lat": 25.1818423,
    "lng": 121.4407986,
    "sid": "MAAzADIANQAxADAAMAAwADEAMgA=",
    "name": "(私立)新北市私立蘋果苑幼兒園",
    "type": "spub1"
  },
  {
    "newsch": 1,
    "lat": 25.178058,
    "lng": 121.442589,
    "sid": "MAAzADIANQAxADAAMAAwADEAMwA=",
    "name": "(私立)新北市私立臻寶園幼兒園",
    "type": "spub1"
  },
  {
    "newsch": 1,
    "lat": 25.174445,
    "lng": 121.439659,
    "sid": "MAAzADIANQAxADAAMAAwADEANAA=",
    "name": "(私立)新北市私立啟蒙幼兒園",
    "type": "spub1"
  },
  {
    "newsch": 1,
    "lat": 25.154656,
    "lng": 121.459766,
    "sid": "MAAzADIANQAxADAAMAAwADEANQA=",
    "name": "(私立)新北市私立紅樹林幼兒園",
    "type": "spub1"
  },
  {
    "newsch": 1,
    "lat": 25.1774309,
    "lng": 121.4456214,
    "sid": "MAAzADIANQAxADAAMAAwADEANgA=",
    "name": "(私立)新北市私立菁英幼兒園",
    "type": "spub1"
  },
  {
    "newsch": 1,
    "lat": 25.180386,
    "lng": 121.443615,
    "sid": "MAAzADIANQAxADAAMAAwADEAOAA=",
    "name": "(私立)新北市私立愛家幼兒園",
    "type": "spub1"
  },
  {
    "newsch": 1,
    "lat": 25.175384,
    "lng": 121.435265,
    "sid": "MAAzADIANQAxADAAMAAwADEAOQA=",
    "name": "(私立)台灣基督長老教會淡江學校財團法人新北市私立淡江高級中學附設新北市私立純德幼兒園",
    "type": "spub1"
  },
  {
    "newsch": 1,
    "lat": 25.132038,
    "lng": 121.462597,
    "sid": "MAAzADIANQAxADAAMAAwADIAMAA=",
    "name": "(私立)新北市私立育碩幼兒園",
    "type": "spub1"
  },
  {
    "newsch": 1,
    "lat": 25.1345423,
    "lng": 121.4600093,
    "sid": "MAAzADIANQAxADAAMAAwADIAMQA=",
    "name": "(準公共)新北市私立萊恩得幼兒園",
    "type": "spub3"
  },
  {
    "newsch": 1,
    "lat": 25.1722302,
    "lng": 121.4458564,
    "sid": "MAAzADIANQAxADAAMAAwADIAMgA=",
    "name": "(私立)新北市私立卓越幼兒園",
    "type": "spub1"
  },
  {
    "newsch": 1,
    "lat": 25.1818414,
    "lng": 121.4407988,
    "sid": "MAAzADIANQAxADAAMAAwADIAMwA=",
    "name": "(私立)新北市私立淡水松柏幼兒園",
    "type": "spub1"
  },
  {
    "newsch": 1,
    "lat": 25.200348,
    "lng": 121.47995,
    "sid": "MAAzADIANQAxADAAMAAwADIANAA=",
    "name": "(公立)新北市立忠山實驗小學附設幼兒園",
    "type": "spub0"
  },
  {
    "newsch": 1,
    "lat": 25.216894,
    "lng": 121.45106,
    "sid": "MAAzADIANQAxADAAMAAwADIANQA=",
    "name": "(公立)新北市淡水區興仁國民小學附設幼兒園",
    "type": "spub0"
  },
  {
    "newsch": 1,
    "lat": 25.179769,
    "lng": 121.440548,
    "sid": "MAAzADIANQAxADAAMAAwADIANgA=",
    "name": "(公立)新北市淡水區新興國民小學附設幼兒園",
    "type": "spub0"
  },
  {
    "newsch": 1,
    "lat": 25.1713899,
    "lng": 121.449296,
    "sid": "MAAzADIANQAxADAAMAAwADIANwA=",
    "name": "(公立)新北市淡水區鄧公國民小學附設幼兒園",
    "type": "spub0"
  },
  {
    "newsch": 1,
    "lat": 25.14735,
    "lng": 121.459855,
    "sid": "MAAzADIANQAxADAAMAAwADIAOAA=",
    "name": "(公立)新北市淡水區竹圍國民小學附設幼兒園",
    "type": "spub0"
  },
  {
    "newsch": 1,
    "lat": 25.2176864,
    "lng": 121.4643285,
    "sid": "MAAzADIANQAxADAAMAAwADIAOQA=",
    "name": "(公立)新北市淡水區坪頂國民小學附設幼兒園",
    "type": "spub0"
  },
  {
    "newsch": 1,
    "lat": 25.1740069,
    "lng": 121.437371,
    "sid": "MAAzADIANQAxADAAMAAwADMAMAA=",
    "name": "(公立)新北市淡水區文化國民小學附設幼兒園",
    "type": "spub0"
  },
  {
    "newsch": 1,
    "lat": 25.173484,
    "lng": 121.441183,
    "sid": "MAAzADIANQAxADAAMAAwADMAMQA=",
    "name": "(公立)新北市淡水區淡水國民小學附設幼兒園",
    "type": "spub0"
  },
  {
    "newsch": 1,
    "lat": 25.237168,
    "lng": 121.456292,
    "sid": "MAAzADIANQAxADAAMAAwADMAMgA=",
    "name": "(公立)新北市淡水區屯山國民小學附設幼兒園",
    "type": "spub0"
  },
  {
    "newsch": 1,
    "lat": 25.181506,
    "lng": 121.424601,
    "sid": "MAAzADIANQAxADAAMAAwADMAMwA=",
    "name": "(公立)新北市淡水區天生國民小學附設幼兒園",
    "type": "spub0"
  },
  {
    "newsch": 1,
    "lat": 25.22416,
    "lng": 121.484577,
    "sid": "MAAzADIANQAxADAAMAAwADMANAA=",
    "name": "(公立)新北市淡水區中泰國民小學附設幼兒園",
    "type": "spub0"
  },
  {
    "newsch": 1,
    "lat": 25.174698,
    "lng": 121.436534,
    "sid": "MAAzADIANQAxADAAMAAwADMANQA=",
    "name": "(公立)新北市立淡水國民中學附設幼兒園",
    "type": "spub0"
  },
  {
    "newsch": 1,
    "lat": 25.178124,
    "lng": 121.444081,
    "sid": "MAAzADIANQAxADAAMAAwADMANgA=",
    "name": "(公立)新北市立淡水幼兒園",
    "type": "spub0"
  },
  {
    "newsch": 1,
    "lat": 25.1379429,
    "lng": 121.461458,
    "sid": "MAAzADIANQAxADAAMAAwADMANgAtADAAMQA=",
    "name": "(公立)新北市立淡水幼兒園竹圍分班",
    "type": "spub0"
  },
  {
    "newsch": 1,
    "lat": 25.12718,
    "lng": 121.462743,
    "sid": "MAAzADIANQAxADAAMAAwADMANgAtADAAMgA=",
    "name": "(公立)新北市立淡水幼兒園福德分班",
    "type": "spub0"
  },
  {
    "newsch": 1,
    "lat": 25.17976,
    "lng": 121.443246,
    "sid": "MAAzADIANQAxADAAMAAwADMANwA=",
    "name": "(準公共)新北市私立快樂小熊幼兒園",
    "type": "spub3"
  },
  {
    "newsch": 1,
    "lat": 25.1833,
    "lng": 121.44638,
    "sid": "MAAzADIANQAxADAAMAAwADMAOAA=",
    "name": "(私立)新北市私立萬甲田幼兒園",
    "type": "spub1"
  },
  {
    "newsch": 1,
    "lat": 25.172582,
    "lng": 121.450375,
    "sid": "MAAzADIANQAxADAAMAAwADMAOQA=",
    "name": "(私立)新北市私立智晶幼兒園",
    "type": "spub1"
  },
  {
    "newsch": 1,
    "lat": 25.1344956,
    "lng": 121.4613992,
    "sid": "MAAzADIANQAxADAAMAAwADQAMAA=",
    "name": "(私立)新北市私立凱樂蒂幼兒園",
    "type": "spub1"
  },
  {
    "newsch": 1,
    "lat": 25.181115,
    "lng": 121.436589,
    "sid": "MAAzADIANQAxADAAMAAwADQAMQA=",
    "name": "(私立)新北市私立悅慧幼兒園",
    "type": "spub1"
  },
  {
    "newsch": 1,
    "lat": 25.1334341,
    "lng": 121.4603339,
    "sid": "MAAzADIANQAxADAAMAAwADQAMgA=",
    "name": "(私立)新北市私立溫斯頓幼兒園",
    "type": "spub1"
  },
  {
    "newsch": 1,
    "lat": 25.17743,
    "lng": 121.443148,
    "sid": "MAAzADIANQAxADAAMAAwADQAMwA=",
    "name": "(私立)新北市私立普登幼兒園",
    "type": "spub1"
  },
  {
    "newsch": 1,
    "lat": 25.197313,
    "lng": 121.444741,
    "sid": "MAAzADIANQAxADAAMAAwADQANAA=",
    "name": "(公立)新北市淡水區育英國民小學附設幼兒園",
    "type": "spub0"
  },
  {
    "newsch": 1,
    "lat": 25.185873,
    "lng": 121.47708,
    "sid": "MAAzADIANQAxADAAMAAwADQANQA=",
    "name": "(公立)新北市淡水區水源國民小學附設幼兒園",
    "type": "spub0"
  },
  {
    "newsch": 1,
    "lat": 25.187303,
    "lng": 121.450608,
    "sid": "MAAzADIANQAxADAAMAAwADQANwA=",
    "name": "(私立)新北市私立漢斯堡國際幼兒園",
    "type": "spub1"
  },
  {
    "newsch": 1,
    "lat": 25.131469,
    "lng": 121.461731,
    "sid": "MAAzADIANQAxADAAMAAwADQAOQA=",
    "name": "(準公共)新北市私立英格麗幼兒園",
    "type": "spub3"
  },
  {
    "newsch": 1,
    "lat": 25.171771,
    "lng": 121.447368,
    "sid": "MAAzADIANQAxADAAMAAwADUAMAA=",
    "name": "(私立)新北市私立雨果幼兒園",
    "type": "spub1"
  },
  {
    "newsch": 1,
    "lat": 25.1686731,
    "lng": 121.4463989,
    "sid": "MAAzADIANQAxADAAMAAwADUAMQA=",
    "name": "(私立)新北市私立可爾威德幼兒園",
    "type": "spub1"
  },
  {
    "newsch": 1,
    "lat": 25.177063,
    "lng": 121.42366,
    "sid": "MAAzADIANQAxADAAMAAwADUAMgA=",
    "name": "(私立)財團法人新北市私立一信幼兒園",
    "type": "spub1"
  },
  {
    "newsch": 1,
    "lat": 25.13884,
    "lng": 121.459865,
    "sid": "MAAzADIANQAxADAAMAAwADUAMwA=",
    "name": "(準公共)新北市私立歡樂寶貝熊幼兒園",
    "type": "spub3"
  },
  {
    "newsch": 1,
    "lat": 25.1852612,
    "lng": 121.44337,
    "sid": "MAAzADIANQAxADAAMAAwADUANAA=",
    "name": "(私立)新北市私立松林幼兒園",
    "type": "spub1"
  },
  {
    "newsch": 1,
    "lat": 25.1848919,
    "lng": 121.444357,
    "sid": "MAAzADIANQAxADAAMAAwADUANQA=",
    "name": "(公立)新北市淡水區新市國民小學附設幼兒園",
    "type": "spub0"
  },
  {
    "newsch": 1,
    "lat": 25.184325,
    "lng": 121.4460016,
    "sid": "MAAzADIANQAxADAAMAAwADUANgA=",
    "name": "(私立)新北市私立樂樂童年幼兒園",
    "type": "spub1"
  }
]