[
  {
    "newsch": 1,
    "lat": 24.759419,
    "lng": 121.793296,
    "sid": "MAA0ADIANgAzADAAMAAwADAANAA=",
    "name": "(私立)中道學校財團法人宜蘭縣中道高級中學附設宜蘭縣私立中道幼兒園",
    "type": "spub1"
  },
  {
    "newsch": 1,
    "lat": 24.771256,
    "lng": 121.798146,
    "sid": "MAA0ADIANgAzADAAMAAwADAANgA=",
    "name": "(公立)宜蘭縣壯圍鄉古亭國民小學附設幼兒園",
    "type": "spub0"
  },
  {
    "newsch": 1,
    "lat": 24.770489,
    "lng": 121.800176,
    "sid": "MAA0ADIANgAzADAAMAAwADAANwA=",
    "name": "(公立)宜蘭縣壯圍鄉立幼兒園",
    "type": "spub0"
  },
  {
    "newsch": 1,
    "lat": 24.722483,
    "lng": 121.800261,
    "sid": "MAA0ADIANgAzADAAMAAwADAAOAA=",
    "name": "(公立)宜蘭縣壯圍鄉新南國民小學附設幼兒園",
    "type": "spub0"
  },
  {
    "newsch": 1,
    "lat": 24.7443612,
    "lng": 121.7900382,
    "sid": "MAA0ADIANgAzADAAMAAwADAAOQA=",
    "name": "(非營利)宜蘭縣壯圍非營利幼兒園(委託社團法人宜蘭縣蘭陽幼兒教保事業發展協會辦理)",
    "type": "spub2"
  }
]