[
  {
    "newsch": 1,
    "lat": 24.669012,
    "lng": 121.647292,
    "sid": "MAA0ADIANgA2ADAAMAAwADAAMQA=",
    "name": "(公立)宜蘭縣三星鄉立幼兒園",
    "type": "spub0"
  },
  {
    "newsch": 1,
    "lat": 24.666655,
    "lng": 121.674747,
    "sid": "MAA0ADIANgA2ADAAMAAwADAAMQAtADAAMQA=",
    "name": "(公立)宜蘭縣三星鄉立幼兒園拱照分班",
    "type": "spub0"
  },
  {
    "newsch": 1,
    "lat": 24.692126,
    "lng": 121.727221,
    "sid": "MAA0ADIANgA2ADAAMAAwADAAMgA=",
    "name": "(公立)宜蘭縣三星鄉大洲國民小學附設幼兒園",
    "type": "spub0"
  },
  {
    "newsch": 1,
    "lat": 24.666427,
    "lng": 121.649748,
    "sid": "MAA0ADIANgA2ADAAMAAwADAANAA=",
    "name": "(公立)宜蘭縣三星鄉三星國民小學附設幼兒園",
    "type": "spub0"
  },
  {
    "newsch": 1,
    "lat": 24.666578,
    "lng": 121.713045,
    "sid": "MAA0ADIANgA2ADAAMAAwADAANQA=",
    "name": "(非營利)宜蘭縣大隱非營利幼兒園(委託財團法人聖母醫護管理專科學校設立之聖母醫護管理專科學校辦理)",
    "type": "spub2"
  },
  {
    "newsch": 1,
    "lat": 24.67973477,
    "lng": 121.68878642,
    "sid": "MAA0ADIANgA2ADAAMAAwADAANgA=",
    "name": "(公立)宜蘭縣三星鄉萬富國民小學附設幼兒園",
    "type": "spub0"
  }
]