[
  {
    "newsch": 1,
    "lat": 24.6649185,
    "lng": 121.7674086,
    "sid": "MAA0ADIANgA5ADAAMAAwADAAMgA=",
    "name": "(準公共)財團法人天主教靈醫修女會附設宜蘭縣私立瑪利亞幼兒園",
    "type": "spub3"
  },
  {
    "newsch": 1,
    "lat": 24.6355441,
    "lng": 121.790327,
    "sid": "MAA0ADIANgA5ADAAMAAwADAAMwA=",
    "name": "(準公共)宜蘭縣私立大象幼兒園",
    "type": "spub3"
  },
  {
    "newsch": 1,
    "lat": 24.633354,
    "lng": 121.79057,
    "sid": "MAA0ADIANgA5ADAAMAAwADAANAA=",
    "name": "(公立)宜蘭縣冬山鄉冬山國民小學附設幼兒園",
    "type": "spub0"
  },
  {
    "newsch": 1,
    "lat": 24.62918,
    "lng": 121.79784,
    "sid": "MAA0ADIANgA5ADAAMAAwADAANQA=",
    "name": "(準公共)宜蘭縣私立康軒幼兒園",
    "type": "spub3"
  },
  {
    "newsch": 1,
    "lat": 24.667981,
    "lng": 121.740789,
    "sid": "MAA0ADIANgA5ADAAMAAwADAANgA=",
    "name": "(準公共)宜蘭縣私立慈怡幼兒園",
    "type": "spub3"
  },
  {
    "newsch": 1,
    "lat": 24.658111,
    "lng": 121.756451,
    "sid": "MAA0ADIANgA5ADAAMAAwADAANwA=",
    "name": "(私立)宜蘭縣私立慈心華德福幼兒園",
    "type": "spub1"
  },
  {
    "newsch": 1,
    "lat": 24.654996,
    "lng": 121.763485,
    "sid": "MAA0ADIANgA5ADAAMAAwADAAOAA=",
    "name": "(公立)宜蘭縣冬山鄉順安國民小學附設幼兒園",
    "type": "spub0"
  },
  {
    "newsch": 1,
    "lat": 24.631542,
    "lng": 121.789433,
    "sid": "MAA0ADIANgA5ADAAMAAwADAAOQA=",
    "name": "(公立)宜蘭縣冬山鄉立幼兒園",
    "type": "spub0"
  },
  {
    "newsch": 1,
    "lat": 24.624299,
    "lng": 121.75264,
    "sid": "MAA0ADIANgA5ADAAMAAwADAAOQAtADAAMQA=",
    "name": "(公立)宜蘭縣冬山鄉立幼兒園中山分班",
    "type": "spub0"
  },
  {
    "newsch": 1,
    "lat": 24.6601391,
    "lng": 121.778787,
    "sid": "MAA0ADIANgA5ADAAMAAwADAAOQAtADAAMgA=",
    "name": "(公立)宜蘭縣冬山鄉立幼兒園群英分班",
    "type": "spub0"
  },
  {
    "newsch": 1,
    "lat": 24.6293423,
    "lng": 121.8069459,
    "sid": "MAA0ADIANgA5ADAAMAAwADEAMAA=",
    "name": "(公立)宜蘭縣冬山鄉東興國民小學附設幼兒園",
    "type": "spub0"
  },
  {
    "newsch": 1,
    "lat": 24.6614735,
    "lng": 121.797942,
    "sid": "MAA0ADIANgA5ADAAMAAwADEAMQA=",
    "name": "(公立)宜蘭縣冬山鄉武淵國民小學附設幼兒園",
    "type": "spub0"
  },
  {
    "newsch": 1,
    "lat": 24.6644194,
    "lng": 121.7640437,
    "sid": "MAA0ADIANgA5ADAAMAAwADEAMgA=",
    "name": "(非營利)宜蘭縣清溝非營利幼兒園(委託社團法人宜蘭縣小太陽幼兒教育發展協會辦理)",
    "type": "spub2"
  },
  {
    "newsch": 1,
    "lat": 24.665572,
    "lng": 121.7425689,
    "sid": "MAA0ADIANgA5ADAAMAAwADEAMwA=",
    "name": "(公立)宜蘭縣冬山鄉廣興國民小學附設幼兒園",
    "type": "spub0"
  }
]