[
  {
    "newsch": 1,
    "lat": 24.665043,
    "lng": 121.767739,
    "sid": "MAA0ADIANgA5ADAAMAAwADAAMgA=",
    "name": "(準公共)財團法人天主教靈醫修女會附設宜蘭縣私立瑪利亞幼兒園",
    "type": "spub3"
  },
  {
    "newsch": 1,
    "lat": 24.635523,
    "lng": 121.790363,
    "sid": "MAA0ADIANgA5ADAAMAAwADAAMwA=",
    "name": "(準公共)宜蘭縣私立大象幼兒園",
    "type": "spub3"
  },
  {
    "newsch": 1,
    "lat": 24.630884,
    "lng": 121.790906,
    "sid": "MAA0ADIANgA5ADAAMAAwADAANAA=",
    "name": "(公立)宜蘭縣冬山鄉冬山國民小學附設幼兒園",
    "type": "spub0"
  },
  {
    "newsch": 1,
    "lat": 24.629178,
    "lng": 121.797845,
    "sid": "MAA0ADIANgA5ADAAMAAwADAANQA=",
    "name": "(準公共)宜蘭縣私立康軒幼兒園",
    "type": "spub3"
  },
  {
    "newsch": 1,
    "lat": 24.668218,
    "lng": 121.740442,
    "sid": "MAA0ADIANgA5ADAAMAAwADAANgA=",
    "name": "(準公共)宜蘭縣私立慈怡幼兒園",
    "type": "spub3"
  },
  {
    "newsch": 1,
    "lat": 24.65811,
    "lng": 121.756456,
    "sid": "MAA0ADIANgA5ADAAMAAwADAANwA=",
    "name": "(私立)宜蘭縣私立慈心華德福幼兒園",
    "type": "spub1"
  },
  {
    "newsch": 1,
    "lat": 24.654314,
    "lng": 121.76287,
    "sid": "MAA0ADIANgA5ADAAMAAwADAAOAA=",
    "name": "(公立)宜蘭縣冬山鄉順安國民小學附設幼兒園",
    "type": "spub0"
  },
  {
    "newsch": 1,
    "lat": 24.633106,
    "lng": 121.794567,
    "sid": "MAA0ADIANgA5ADAAMAAwADAAOQA=",
    "name": "(公立)宜蘭縣冬山鄉立幼兒園",
    "type": "spub0"
  },
  {
    "newsch": 1,
    "lat": 24.624298,
    "lng": 121.752645,
    "sid": "MAA0ADIANgA5ADAAMAAwADAAOQAtADAAMQA=",
    "name": "(公立)宜蘭縣冬山鄉立幼兒園中山分班",
    "type": "spub0"
  },
  {
    "newsch": 1,
    "lat": 24.629288,
    "lng": 121.806137,
    "sid": "MAA0ADIANgA5ADAAMAAwADEAMAA=",
    "name": "(公立)宜蘭縣冬山鄉東興國民小學附設幼兒園",
    "type": "spub0"
  },
  {
    "newsch": 1,
    "lat": 24.661747,
    "lng": 121.798059,
    "sid": "MAA0ADIANgA5ADAAMAAwADEAMQA=",
    "name": "(公立)宜蘭縣冬山鄉武淵國民小學附設幼兒園",
    "type": "spub0"
  },
  {
    "newsch": 1,
    "lat": 24.663284,
    "lng": 121.763449,
    "sid": "MAA0ADIANgA5ADAAMAAwADEAMgA=",
    "name": "(非營利)宜蘭縣清溝非營利幼兒園(委託社團法人宜蘭縣小太陽幼兒教育發展協會辦理)",
    "type": "spub2"
  },
  {
    "newsch": 1,
    "lat": 24.664605,
    "lng": 121.743265,
    "sid": "MAA0ADIANgA5ADAAMAAwADEAMwA=",
    "name": "(公立)宜蘭縣冬山鄉廣興國民小學附設幼兒園",
    "type": "spub0"
  }
]