[
  {
    "newsch": 1,
    "lat": 24.902486,
    "lng": 121.052996,
    "sid": "MAA3ADMAMAAzADAAMAAwADAAMQA=",
    "name": "(準公共)新竹縣私立盧森堡幼兒園",
    "type": "spub3"
  },
  {
    "newsch": 1,
    "lat": 24.871317,
    "lng": 121.033599,
    "sid": "MAA3ADMAMAAzADAAMAAwADAAMgA=",
    "name": "(準公共)新竹縣私立威佑幼兒園",
    "type": "spub3"
  },
  {
    "newsch": 1,
    "lat": 24.907215,
    "lng": 121.052182,
    "sid": "MAA3ADMAMAAzADAAMAAwADAAMwA=",
    "name": "(準公共)新竹縣私立民生幼兒園",
    "type": "spub3"
  },
  {
    "newsch": 1,
    "lat": 24.902028,
    "lng": 121.038564,
    "sid": "MAA3ADMAMAAzADAAMAAwADAANAA=",
    "name": "(準公共)新竹縣私立明明幼兒園",
    "type": "spub3"
  },
  {
    "newsch": 1,
    "lat": 24.867873,
    "lng": 121.024431,
    "sid": "MAA3ADMAMAAzADAAMAAwADAANQA=",
    "name": "(私立)新竹縣私立張逸幼兒園",
    "type": "spub1"
  },
  {
    "newsch": 1,
    "lat": 24.904777,
    "lng": 121.050794,
    "sid": "MAA3ADMAMAAzADAAMAAwADEAMAA=",
    "name": "(準公共)新竹縣私立小瓢蟲幼兒園",
    "type": "spub3"
  },
  {
    "newsch": 1,
    "lat": 24.895725,
    "lng": 121.067739,
    "sid": "MAA3ADMAMAAzADAAMAAwADEAMQA=",
    "name": "(準公共)新竹縣私立佳佳幼兒園",
    "type": "spub3"
  },
  {
    "newsch": 1,
    "lat": 24.897512,
    "lng": 121.035483,
    "sid": "MAA3ADMAMAAzADAAMAAwADEAMgA=",
    "name": "(私立)新竹縣私立英格蘭幼兒園",
    "type": "spub1"
  },
  {
    "newsch": 1,
    "lat": 24.868357,
    "lng": 121.027442,
    "sid": "MAA3ADMAMAAzADAAMAAwADEAMwA=",
    "name": "(私立)新竹縣私立古佳幼幼兒園",
    "type": "spub1"
  },
  {
    "newsch": 1,
    "lat": 24.899534,
    "lng": 121.038948,
    "sid": "MAA3ADMAMAAzADAAMAAwADEANQA=",
    "name": "(公立)新竹縣湖口鄉信勢國民小學附設幼兒園",
    "type": "spub0"
  },
  {
    "newsch": 1,
    "lat": 24.886995,
    "lng": 121.095156,
    "sid": "MAA3ADMAMAAzADAAMAAwADEANgA=",
    "name": "(公立)新竹縣湖口鄉長安國民小學附設幼兒園",
    "type": "spub0"
  },
  {
    "newsch": 1,
    "lat": 24.90612,
    "lng": 121.0476,
    "sid": "MAA3ADMAMAAzADAAMAAwADEANwA=",
    "name": "(公立)新竹縣湖口鄉新湖國民小學附設幼兒園",
    "type": "spub0"
  },
  {
    "newsch": 1,
    "lat": 24.862379,
    "lng": 121.024163,
    "sid": "MAA3ADMAMAAzADAAMAAwADEAOAA=",
    "name": "(準公共)新竹縣私立大同幼兒園",
    "type": "spub3"
  },
  {
    "newsch": 1,
    "lat": 24.891426,
    "lng": 121.052127,
    "sid": "MAA3ADMAMAAzADAAMAAwADEAOQA=",
    "name": "(準公共)新竹縣私立小太陽幼兒園",
    "type": "spub3"
  },
  {
    "newsch": 1,
    "lat": 24.915498,
    "lng": 121.049364,
    "sid": "MAA3ADMAMAAzADAAMAAwADIAMAA=",
    "name": "(準公共)新竹縣私立精英幼兒園",
    "type": "spub3"
  },
  {
    "newsch": 1,
    "lat": 24.868122,
    "lng": 121.027656,
    "sid": "MAA3ADMAMAAzADAAMAAwADIAMwA=",
    "name": "(準公共)新竹縣私立湖口鄉示範幼兒園（新竹縣湖口鄉公所委託新竹縣私立威佑幼兒園辦理）",
    "type": "spub3"
  },
  {
    "newsch": 1,
    "lat": 24.906191,
    "lng": 121.048929,
    "sid": "MAA3ADMAMAAzADAAMAAwADIANQA=",
    "name": "(公立)新竹縣湖口鄉立幼兒園",
    "type": "spub0"
  },
  {
    "newsch": 1,
    "lat": 24.877495,
    "lng": 121.055661,
    "sid": "MAA3ADMAMAAzADAAMAAwADIANQAtADAAMQA=",
    "name": "(公立)新竹縣湖口鄉立幼兒園湖口分班",
    "type": "spub0"
  },
  {
    "newsch": 1,
    "lat": 24.899894,
    "lng": 121.046977,
    "sid": "MAA3ADMAMAAzADAAMAAwADIANgA=",
    "name": "(私立)新竹縣私立士林幼兒園",
    "type": "spub1"
  },
  {
    "newsch": 1,
    "lat": 24.906344,
    "lng": 121.047279,
    "sid": "MAA3ADMAMAAzADAAMAAwADIANwA=",
    "name": "(私立)新竹縣私立古佳正幼兒園",
    "type": "spub1"
  },
  {
    "newsch": 1,
    "lat": 24.897788,
    "lng": 121.049419,
    "sid": "MAA3ADMAMAAzADAAMAAwADIAOAA=",
    "name": "(準公共)新竹縣私立故事島幼兒園",
    "type": "spub3"
  },
  {
    "newsch": 1,
    "lat": 24.905114,
    "lng": 121.049721,
    "sid": "MAA3ADMAMAAzADAAMAAwADIAOQA=",
    "name": "(準公共)新竹縣私立宏儒幼兒園",
    "type": "spub3"
  },
  {
    "newsch": 1,
    "lat": 24.896684,
    "lng": 121.044271,
    "sid": "MAA3ADMAMAAzADAAMAAwADMAMAA=",
    "name": "(私立)新竹縣私立偉大人物幼兒園",
    "type": "spub1"
  },
  {
    "newsch": 1,
    "lat": 24.927381,
    "lng": 121.038891,
    "sid": "MAA3ADMAMAAzADAAMAAwADMAMQA=",
    "name": "(公立)新竹縣湖口鄉和興國民小學附設幼兒園",
    "type": "spub0"
  },
  {
    "newsch": 1,
    "lat": 24.874043,
    "lng": 121.019712,
    "sid": "MAA3ADMAMAAzADAAMAAwADMAMgA=",
    "name": "(公立)新竹縣湖口鄉華興國民小學附設幼兒園",
    "type": "spub0"
  },
  {
    "newsch": 1,
    "lat": 24.90369,
    "lng": 121.046172,
    "sid": "MAA3ADMAMAAzADAAMAAwADMANAA=",
    "name": "(準公共)財團法人新竹縣天主教耶穌聖心烏蘇拉傳教修女會附設新竹縣私立聖心幼兒園",
    "type": "spub3"
  },
  {
    "newsch": 1,
    "lat": 24.860524,
    "lng": 121.021227,
    "sid": "MAA3ADMAMAAzADAAMAAwADMANQA=",
    "name": "(準公共)財團法人新竹縣天主教耶穌聖心烏蘇拉傳教修女會附設新竹縣私立博愛幼兒園",
    "type": "spub3"
  },
  {
    "newsch": 1,
    "lat": 24.878698,
    "lng": 121.060798,
    "sid": "MAA3ADMAMAAzADAAMAAwADMANgA=",
    "name": "(公立)新竹縣湖口鄉湖口國民小學附設幼兒園",
    "type": "spub0"
  },
  {
    "newsch": 1,
    "lat": 24.896127,
    "lng": 121.044584,
    "sid": "MAA3ADMAMAAzADAAMAAwADMANwA=",
    "name": "(私立)新竹縣私立張遇文幼兒園",
    "type": "spub1"
  },
  {
    "newsch": 1,
    "lat": 24.896282,
    "lng": 121.044146,
    "sid": "MAA3ADMAMAAzADAAMAAwADMAOAA=",
    "name": "(私立)新竹縣私立張遇幼兒園",
    "type": "spub1"
  },
  {
    "newsch": 1,
    "lat": 24.871851,
    "lng": 121.010335,
    "sid": "MAA3ADMAMAAzADAAMAAwADMAOQA=",
    "name": "(私立)經濟部新竹產業園區服務中心職場互助教保服務中心(委託明新學校財團法人明新科技大學辦理)",
    "type": "spub1"
  },
  {
    "newsch": 1,
    "lat": 24.896047,
    "lng": 121.046167,
    "sid": "MAA3ADMAMAAzADAAMAAwADQAMAA=",
    "name": "(準公共)新竹縣私立喬大幼兒園",
    "type": "spub3"
  },
  {
    "newsch": 1,
    "lat": 24.896732,
    "lng": 121.043819,
    "sid": "MAA3ADMAMAAzADAAMAAwADQAMQA=",
    "name": "(私立)新竹縣私立張遇心幼兒園",
    "type": "spub1"
  },
  {
    "newsch": 1,
    "lat": 24.891516,
    "lng": 121.047322,
    "sid": "MAA3ADMAMAAzADAAMAAwADQAMgA=",
    "name": "(非營利)新竹縣王爺壟非營利幼兒園(委託社團法人臺灣亞洲學前教育培訓協會辦理)",
    "type": "spub2"
  },
  {
    "newsch": 1,
    "lat": 24.888311,
    "lng": 121.064191,
    "sid": "MAA3ADMAMAAzADAAMAAwADQAMwA=",
    "name": "(私立)新竹縣私立莎士比亞藝術幼兒園",
    "type": "spub1"
  }
]