[
  {
    "newsch": 1,
    "lat": 24.619032,
    "lng": 121.285988,
    "sid": "MAA3ADMAMQAzADAAMAAwADAAMQA=",
    "name": "(公立)新竹縣尖石鄉秀巒國民小學附設幼兒園",
    "type": "spub0"
  },
  {
    "newsch": 1,
    "lat": 24.5760667,
    "lng": 121.3084088,
    "sid": "MAA3ADMAMQAzADAAMAAwADAAMQAtADAAMQA=",
    "name": "(公立)新竹縣尖石鄉秀巒國民小學附設幼兒園田埔分班",
    "type": "spub0"
  },
  {
    "newsch": 1,
    "lat": 24.731428,
    "lng": 121.251785,
    "sid": "MAA3ADMAMQAzADAAMAAwADAAMgA=",
    "name": "(公立)新竹縣尖石鄉新樂國民小學附設幼兒園",
    "type": "spub0"
  },
  {
    "newsch": 1,
    "lat": 24.677401,
    "lng": 121.208794,
    "sid": "MAA3ADMAMQAzADAAMAAwADAAMwA=",
    "name": "(公立)新竹縣尖石鄉梅花國民小學附設幼兒園",
    "type": "spub0"
  },
  {
    "newsch": 1,
    "lat": 24.678759,
    "lng": 121.208167,
    "sid": "MAA3ADMAMQAzADAAMAAwADAANAA=",
    "name": "(私立)財團法人台灣省天主教會新竹教區附設新竹縣私立方濟幼兒園",
    "type": "spub1"
  },
  {
    "newsch": 1,
    "lat": 24.655659,
    "lng": 121.326431,
    "sid": "MAA3ADMAMQAzADAAMAAwADAANQA=",
    "name": "(公立)新竹縣尖石鄉石磊國民小學附設幼兒園",
    "type": "spub0"
  },
  {
    "newsch": 1,
    "lat": 24.680321,
    "lng": 121.247228,
    "sid": "MAA3ADMAMQAzADAAMAAwADAANgA=",
    "name": "(公立)新竹縣尖石鄉錦屏國民小學附設幼兒園",
    "type": "spub0"
  },
  {
    "newsch": 1,
    "lat": 24.660015,
    "lng": 121.301293,
    "sid": "MAA3ADMAMQAzADAAMAAwADAANwA=",
    "name": "(公立)新竹縣尖石鄉玉峰國民小學附設幼兒園",
    "type": "spub0"
  },
  {
    "newsch": 1,
    "lat": 24.57947,
    "lng": 121.302527,
    "sid": "MAA3ADMAMQAzADAAMAAwADAAOAA=",
    "name": "(公立)新竹縣尖石鄉新光國民小學附設幼兒園",
    "type": "spub0"
  },
  {
    "newsch": 1,
    "lat": 24.678747,
    "lng": 121.208159,
    "sid": "MAA3ADMAMQAzADAAMAAwADAAOQA=",
    "name": "(公立)新竹縣尖石鄉立幼兒園",
    "type": "spub0"
  },
  {
    "newsch": 1,
    "lat": 24.653624,
    "lng": 121.316413,
    "sid": "MAA3ADMAMQAzADAAMAAwADEAMAA=",
    "name": "(私立)新竹縣馬里光部落互助教保服務中心（財團法人至善社會福利基金會辦理）",
    "type": "spub1"
  },
  {
    "newsch": 1,
    "lat": 24.578913,
    "lng": 121.333694,
    "sid": "MAA3ADMAMQAzADAAMAAwADEAMQA=",
    "name": "(私立)新竹縣司馬庫斯部落互助教保服務中心（新竹縣尖石鄉泰雅爾司馬庫斯部落發展協會辦理）",
    "type": "spub1"
  }
]