[
  {
    "newsch": 1,
    "lat": 24.957133,
    "lng": 121.204154,
    "sid": "MAA1ADMAMgA0ADAAMAAwADAAMQA=",
    "name": "(私立)桃園市私立明原蒙特梭利幼兒園",
    "type": "spub1"
  },
  {
    "newsch": 1,
    "lat": 24.9510595,
    "lng": 121.1780552,
    "sid": "MAA1ADMAMgA0ADAAMAAwADAAMgA=",
    "name": "(準公共)桃園市私立海頓幼兒園",
    "type": "spub3"
  },
  {
    "newsch": 1,
    "lat": 24.945329,
    "lng": 121.207389,
    "sid": "MAA1ADMAMgA0ADAAMAAwADAAMwA=",
    "name": "(私立)桃園市私立普利斯堡幼兒園",
    "type": "spub1"
  },
  {
    "newsch": 1,
    "lat": 24.949715,
    "lng": 121.209849,
    "sid": "MAA1ADMAMgA0ADAAMAAwADAANAA=",
    "name": "(公立)桃園市平鎮區義興國民小學附設幼兒園",
    "type": "spub0"
  },
  {
    "newsch": 1,
    "lat": 24.9420989,
    "lng": 121.206377,
    "sid": "MAA1ADMAMgA0ADAAMAAwADAANQA=",
    "name": "(公立)桃園市平鎮區宋屋國民小學附設幼兒園",
    "type": "spub0"
  },
  {
    "newsch": 1,
    "lat": 24.8987466,
    "lng": 121.2100368,
    "sid": "MAA1ADMAMgA0ADAAMAAwADAANgA=",
    "name": "(準公共)桃園市私立長青幼兒園",
    "type": "spub3"
  },
  {
    "newsch": 1,
    "lat": 24.9296089,
    "lng": 121.222617,
    "sid": "MAA1ADMAMgA0ADAAMAAwADAANwA=",
    "name": "(準公共)桃園市私立新光幼兒園",
    "type": "spub3"
  },
  {
    "newsch": 1,
    "lat": 24.9164409,
    "lng": 121.202573,
    "sid": "MAA1ADMAMgA0ADAAMAAwADAAOAA=",
    "name": "(私立)桃園市私立美爾頓幼兒園",
    "type": "spub1"
  },
  {
    "newsch": 1,
    "lat": 24.908871,
    "lng": 121.208175,
    "sid": "MAA1ADMAMgA0ADAAMAAwADEAMAA=",
    "name": "(準公共)桃園市私立南勢快樂斑比蒙氏幼兒園",
    "type": "spub3"
  },
  {
    "newsch": 1,
    "lat": 24.9065909,
    "lng": 121.212139,
    "sid": "MAA1ADMAMgA0ADAAMAAwADEAMQA=",
    "name": "(準公共)桃園市私立模範生幼兒園",
    "type": "spub3"
  },
  {
    "newsch": 1,
    "lat": 24.925999,
    "lng": 121.190165,
    "sid": "MAA1ADMAMgA0ADAAMAAwADEAMgA=",
    "name": "(準公共)桃園市私立聖揚幼兒園",
    "type": "spub3"
  },
  {
    "newsch": 1,
    "lat": 24.896282,
    "lng": 121.212125,
    "sid": "MAA1ADMAMgA0ADAAMAAwADEANAA=",
    "name": "(準公共)桃園市私立樂學幼兒園",
    "type": "spub3"
  },
  {
    "newsch": 1,
    "lat": 24.9355386,
    "lng": 121.2250031,
    "sid": "MAA1ADMAMgA0ADAAMAAwADEANgA=",
    "name": "(私立)桃園市私立史丹佛幼兒園",
    "type": "spub1"
  },
  {
    "newsch": 1,
    "lat": 24.954499,
    "lng": 121.207367,
    "sid": "MAA1ADMAMgA0ADAAMAAwADEANwA=",
    "name": "(準公共)桃園市私立快樂斑比幼兒園",
    "type": "spub3"
  },
  {
    "newsch": 1,
    "lat": 24.9308339,
    "lng": 121.218525,
    "sid": "MAA1ADMAMgA0ADAAMAAwADEAOAA=",
    "name": "(準公共)桃園市私立休仕頓幼兒園",
    "type": "spub3"
  },
  {
    "newsch": 1,
    "lat": 24.94127,
    "lng": 121.217131,
    "sid": "MAA1ADMAMgA0ADAAMAAwADEAOQA=",
    "name": "(準公共)桃園市私立天韻幼兒園",
    "type": "spub3"
  },
  {
    "newsch": 1,
    "lat": 24.913656,
    "lng": 121.210581,
    "sid": "MAA1ADMAMgA0ADAAMAAwADIAMAA=",
    "name": "(公立)桃園市平鎮區南勢國民小學附設幼兒園",
    "type": "spub0"
  },
  {
    "newsch": 1,
    "lat": 24.91506,
    "lng": 121.247953,
    "sid": "MAA1ADMAMgA0ADAAMAAwADIAMQA=",
    "name": "(準公共)桃園市私立忠政幼兒園",
    "type": "spub3"
  },
  {
    "newsch": 1,
    "lat": 24.955494,
    "lng": 121.205474,
    "sid": "MAA1ADMAMgA0ADAAMAAwADIAMgA=",
    "name": "(私立)桃園市私立亞碩幼兒園",
    "type": "spub1"
  },
  {
    "newsch": 1,
    "lat": 24.8917709,
    "lng": 121.20416,
    "sid": "MAA1ADMAMgA0ADAAMAAwADIAMwA=",
    "name": "(準公共)桃園市私立家安幼兒園",
    "type": "spub3"
  },
  {
    "newsch": 1,
    "lat": 24.9229059,
    "lng": 121.249754,
    "sid": "MAA1ADMAMgA0ADAAMAAwADIANAA=",
    "name": "(公立)桃園市平鎮區忠貞國民小學附設幼兒園",
    "type": "spub0"
  },
  {
    "newsch": 1,
    "lat": 24.918629,
    "lng": 121.253935,
    "sid": "MAA1ADMAMgA0ADAAMAAwADIANQA=",
    "name": "(準公共)桃園市私立日揚幼兒園",
    "type": "spub3"
  },
  {
    "newsch": 1,
    "lat": 24.940224,
    "lng": 121.218405,
    "sid": "MAA1ADMAMgA0ADAAMAAwADIANgA=",
    "name": "(私立)桃園市私立何嘉仁平鎮幼兒園",
    "type": "spub1"
  },
  {
    "newsch": 1,
    "lat": 24.9212849,
    "lng": 121.25081,
    "sid": "MAA1ADMAMgA0ADAAMAAwADIANwA=",
    "name": "(私立)桃園市私立大方幼兒園",
    "type": "spub1"
  },
  {
    "newsch": 1,
    "lat": 24.9305269,
    "lng": 121.229643,
    "sid": "MAA1ADMAMgA0ADAAMAAwADIAOAA=",
    "name": "(準公共)桃園市私立諾亞方舟幼兒園",
    "type": "spub3"
  },
  {
    "newsch": 1,
    "lat": 24.9401753,
    "lng": 121.2187342,
    "sid": "MAA1ADMAMgA0ADAAMAAwADIAOQA=",
    "name": "(準公共)桃園市私立幼幼家幼兒園",
    "type": "spub3"
  },
  {
    "newsch": 1,
    "lat": 24.91752,
    "lng": 121.250291,
    "sid": "MAA1ADMAMgA0ADAAMAAwADMAMAA=",
    "name": "(公立)桃園市平鎮區東安國民小學附設幼兒園",
    "type": "spub0"
  },
  {
    "newsch": 1,
    "lat": 24.911284,
    "lng": 121.232114,
    "sid": "MAA1ADMAMgA0ADAAMAAwADMAMQA=",
    "name": "(公立)桃園市平鎮區東勢國民小學附設幼兒園",
    "type": "spub0"
  },
  {
    "newsch": 1,
    "lat": 24.913101,
    "lng": 121.205658,
    "sid": "MAA1ADMAMgA0ADAAMAAwADMAMwA=",
    "name": "(準公共)桃園市私立柏學幼兒園",
    "type": "spub3"
  },
  {
    "newsch": 1,
    "lat": 24.9510766,
    "lng": 121.2032816,
    "sid": "MAA1ADMAMgA0ADAAMAAwADMANQA=",
    "name": "(私立)桃園市私立文化幼兒園",
    "type": "spub1"
  },
  {
    "newsch": 1,
    "lat": 24.9148669,
    "lng": 121.213043,
    "sid": "MAA1ADMAMgA0ADAAMAAwADMANgA=",
    "name": "(準公共)桃園市私立尼爾長頸鹿幼兒園",
    "type": "spub3"
  },
  {
    "newsch": 1,
    "lat": 24.9421004,
    "lng": 121.2210898,
    "sid": "MAA1ADMAMgA0ADAAMAAwADMANwA=",
    "name": "(公立)桃園市立平鎮幼兒園",
    "type": "spub0"
  },
  {
    "newsch": 1,
    "lat": 24.89675,
    "lng": 121.20943,
    "sid": "MAA1ADMAMgA0ADAAMAAwADMANwAtADAAMQA=",
    "name": "(公立)桃園市立平鎮幼兒園紹豐分班",
    "type": "spub0"
  },
  {
    "newsch": 1,
    "lat": 24.9485108,
    "lng": 121.2037003,
    "sid": "MAA1ADMAMgA0ADAAMAAwADMANwAtADAAMgA=",
    "name": "(公立)桃園市立平鎮幼兒園義民分班",
    "type": "spub0"
  },
  {
    "newsch": 1,
    "lat": 24.914811,
    "lng": 121.207413,
    "sid": "MAA1ADMAMgA0ADAAMAAwADMANwAtADAAMwA=",
    "name": "(公立)桃園市立平鎮幼兒園南勢分班",
    "type": "spub0"
  },
  {
    "newsch": 1,
    "lat": 24.91005,
    "lng": 121.231392,
    "sid": "MAA1ADMAMgA0ADAAMAAwADMANwAtADAANAA=",
    "name": "(公立)桃園市立平鎮幼兒園東勢分班",
    "type": "spub0"
  },
  {
    "newsch": 1,
    "lat": 24.9243973,
    "lng": 121.2061456,
    "sid": "MAA1ADMAMgA0ADAAMAAwADMANwAtADAANQA=",
    "name": "(公立)桃園市立平鎮幼兒園平鎮分班",
    "type": "spub0"
  },
  {
    "newsch": 1,
    "lat": 24.9359339,
    "lng": 121.223621,
    "sid": "MAA1ADMAMgA0ADAAMAAwADMAOAA=",
    "name": "(公立)桃園市平鎮區北勢國民小學附設幼兒園",
    "type": "spub0"
  },
  {
    "newsch": 1,
    "lat": 24.9537769,
    "lng": 121.208376,
    "sid": "MAA1ADMAMgA0ADAAMAAwADMAOQA=",
    "name": "(私立)桃園市私立華岡幼兒園",
    "type": "spub1"
  },
  {
    "newsch": 1,
    "lat": 24.895311,
    "lng": 121.2020056,
    "sid": "MAA1ADMAMgA0ADAAMAAwADQAMwA=",
    "name": "(準公共)桃園市私立小奶爸幼兒園",
    "type": "spub3"
  },
  {
    "newsch": 1,
    "lat": 24.918377,
    "lng": 121.252933,
    "sid": "MAA1ADMAMgA0ADAAMAAwADQANAA=",
    "name": "(準公共)桃園市私立愛心幼兒園",
    "type": "spub3"
  },
  {
    "newsch": 1,
    "lat": 24.894689,
    "lng": 121.202433,
    "sid": "MAA1ADMAMgA0ADAAMAAwADQANQA=",
    "name": "(私立)桃園市私立威士登國際幼兒園",
    "type": "spub1"
  },
  {
    "newsch": 1,
    "lat": 24.9565392,
    "lng": 121.2029747,
    "sid": "MAA1ADMAMgA0ADAAMAAwADQANwA=",
    "name": "(私立)桃園市私立明子園幼兒園",
    "type": "spub1"
  },
  {
    "newsch": 1,
    "lat": 24.915546,
    "lng": 121.209449,
    "sid": "MAA1ADMAMgA0ADAAMAAwADUAMQA=",
    "name": "(準公共)桃園市私立富棋幼兒園",
    "type": "spub3"
  },
  {
    "newsch": 1,
    "lat": 24.895704,
    "lng": 121.204188,
    "sid": "MAA1ADMAMgA0ADAAMAAwADUAMgA=",
    "name": "(準公共)桃園市私立大全幼兒園",
    "type": "spub3"
  },
  {
    "newsch": 1,
    "lat": 24.8939919,
    "lng": 121.2032001,
    "sid": "MAA1ADMAMgA0ADAAMAAwADUAMwA=",
    "name": "(公立)桃園市平鎮區祥安國民小學附設幼兒園",
    "type": "spub0"
  },
  {
    "newsch": 1,
    "lat": 24.9504743,
    "lng": 121.2167543,
    "sid": "MAA1ADMAMgA0ADAAMAAwADUANAA=",
    "name": "(公立)桃園市平鎮區新勢國民小學附設幼兒園",
    "type": "spub0"
  },
  {
    "newsch": 1,
    "lat": 24.9385043,
    "lng": 121.2145981,
    "sid": "MAA1ADMAMgA0ADAAMAAwADUANQA=",
    "name": "(準公共)桃園市私立大群幼兒園",
    "type": "spub3"
  },
  {
    "newsch": 1,
    "lat": 24.947551,
    "lng": 121.199731,
    "sid": "MAA1ADMAMgA0ADAAMAAwADUANwA=",
    "name": "(私立)桃園市私立明子幼兒園",
    "type": "spub1"
  },
  {
    "newsch": 1,
    "lat": 24.9547012,
    "lng": 121.2077783,
    "sid": "MAA1ADMAMgA0ADAAMAAwADUAOAA=",
    "name": "(公立)桃園市平鎮區復旦國民小學附設幼兒園",
    "type": "spub0"
  },
  {
    "newsch": 1,
    "lat": 24.939856,
    "lng": 121.220124,
    "sid": "MAA1ADMAMgA0ADAAMAAwADUAOQA=",
    "name": "(準公共)桃園市私立唯崧幼兒園",
    "type": "spub3"
  },
  {
    "newsch": 1,
    "lat": 24.9453907,
    "lng": 121.2041228,
    "sid": "MAA1ADMAMgA0ADAAMAAwADYAMAA=",
    "name": "(公立)桃園市平鎮區平興國民小學附設幼兒園",
    "type": "spub0"
  },
  {
    "newsch": 1,
    "lat": 24.8964401,
    "lng": 121.2130612,
    "sid": "MAA1ADMAMgA0ADAAMAAwADYAMQA=",
    "name": "(公立)桃園市平鎮區山豐國民小學附設幼兒園",
    "type": "spub0"
  },
  {
    "newsch": 1,
    "lat": 24.916564,
    "lng": 121.24951,
    "sid": "MAA1ADMAMgA0ADAAMAAwADYAMgA=",
    "name": "(非營利)桃園市新華非營利幼兒園（委託財團法人三之三生命教育基金會辦理）",
    "type": "spub2"
  },
  {
    "newsch": 1,
    "lat": 24.9450306,
    "lng": 121.2182645,
    "sid": "MAA1ADMAMgA0ADAAMAAwADYAMwA=",
    "name": "(公立)桃園市立平鎮國民中學附設幼兒園",
    "type": "spub0"
  },
  {
    "newsch": 1,
    "lat": 24.9497007,
    "lng": 121.2062877,
    "sid": "MAA1ADMAMgA0ADAAMAAwADYANAA=",
    "name": "(非營利)桃園市平興非營利幼兒園（委託社團法人中華啟幼思學會辦理）",
    "type": "spub2"
  },
  {
    "newsch": 1,
    "lat": 24.9528962,
    "lng": 121.2183337,
    "sid": "MAA1ADMAMgA0ADAAMAAwADYANQA=",
    "name": "(公立)桃園市平鎮區新榮國民小學附設幼兒園",
    "type": "spub0"
  },
  {
    "newsch": 1,
    "lat": 24.9531576,
    "lng": 121.2033332,
    "sid": "MAA1ADMAMgA0ADAAMAAwADYANgA=",
    "name": "(公立)桃園市平鎮區文化國民小學附設幼兒園",
    "type": "spub0"
  },
  {
    "newsch": 1,
    "lat": 24.9419971,
    "lng": 121.1826324,
    "sid": "MAA1ADMAMgA0ADAAMAAwADYANwA=",
    "name": "(私立)國防部陸軍司令部第六軍團指揮部金鷹職場互助教保服務中心(委託社團法人桃園市領航國際嬰幼兒文化教育協會辦理)",
    "type": "spub1"
  },
  {
    "newsch": 1,
    "lat": 24.947711,
    "lng": 121.220128,
    "sid": "MAA1ADMAMgA0ADAAMAAwADYAOAA=",
    "name": "(私立)桃園市私立妍榛幼兒園",
    "type": "spub1"
  }
]