[
  {
    "newsch": 1,
    "lat": 24.956376,
    "lng": 121.204597,
    "sid": "MAA1ADMAMgA0ADAAMAAwADAAMQA=",
    "name": "(私立)桃園市私立明原蒙特梭利幼兒園",
    "type": "spub1"
  },
  {
    "newsch": 1,
    "lat": 24.958112,
    "lng": 121.177458,
    "sid": "MAA1ADMAMgA0ADAAMAAwADAAMgA=",
    "name": "(準公共)桃園市私立海頓幼兒園",
    "type": "spub3"
  },
  {
    "newsch": 1,
    "lat": 24.945129,
    "lng": 121.206834,
    "sid": "MAA1ADMAMgA0ADAAMAAwADAAMwA=",
    "name": "(私立)桃園市私立普利斯堡幼兒園",
    "type": "spub1"
  },
  {
    "newsch": 1,
    "lat": 24.949897,
    "lng": 121.210324,
    "sid": "MAA1ADMAMgA0ADAAMAAwADAANAA=",
    "name": "(公立)桃園市平鎮區義興國民小學附設幼兒園",
    "type": "spub0"
  },
  {
    "newsch": 1,
    "lat": 24.942360999999998,
    "lng": 121.206738,
    "sid": "MAA1ADMAMgA0ADAAMAAwADAANQA=",
    "name": "(公立)桃園市平鎮區宋屋國民小學附設幼兒園",
    "type": "spub0"
  },
  {
    "newsch": 1,
    "lat": 24.898506,
    "lng": 121.210029,
    "sid": "MAA1ADMAMgA0ADAAMAAwADAANgA=",
    "name": "(準公共)桃園市私立長青幼兒園",
    "type": "spub3"
  },
  {
    "newsch": 1,
    "lat": 24.929807,
    "lng": 121.222614,
    "sid": "MAA1ADMAMgA0ADAAMAAwADAANwA=",
    "name": "(準公共)桃園市私立新光幼兒園",
    "type": "spub3"
  },
  {
    "newsch": 1,
    "lat": 24.916631,
    "lng": 121.203122,
    "sid": "MAA1ADMAMgA0ADAAMAAwADAAOAA=",
    "name": "(私立)桃園市私立美爾頓幼兒園",
    "type": "spub1"
  },
  {
    "newsch": 1,
    "lat": 24.909038,
    "lng": 121.208179,
    "sid": "MAA1ADMAMgA0ADAAMAAwADEAMAA=",
    "name": "(準公共)桃園市私立南勢快樂斑比蒙氏幼兒園",
    "type": "spub3"
  },
  {
    "newsch": 1,
    "lat": 24.89902,
    "lng": 121.211698,
    "sid": "MAA1ADMAMgA0ADAAMAAwADEAMQA=",
    "name": "(準公共)桃園市私立模範生幼兒園",
    "type": "spub3"
  },
  {
    "newsch": 1,
    "lat": 24.921279,
    "lng": 121.188029,
    "sid": "MAA1ADMAMgA0ADAAMAAwADEAMgA=",
    "name": "(準公共)桃園市私立聖揚幼兒園",
    "type": "spub3"
  },
  {
    "newsch": 1,
    "lat": 24.896346,
    "lng": 121.212055,
    "sid": "MAA1ADMAMgA0ADAAMAAwADEANAA=",
    "name": "(準公共)桃園市私立樂學幼兒園",
    "type": "spub3"
  },
  {
    "newsch": 1,
    "lat": 24.93553,
    "lng": 121.224193,
    "sid": "MAA1ADMAMgA0ADAAMAAwADEANgA=",
    "name": "(私立)桃園市私立史丹佛幼兒園",
    "type": "spub1"
  },
  {
    "newsch": 1,
    "lat": 24.953768,
    "lng": 121.207619,
    "sid": "MAA1ADMAMgA0ADAAMAAwADEANwA=",
    "name": "(準公共)桃園市私立快樂斑比幼兒園",
    "type": "spub3"
  },
  {
    "newsch": 1,
    "lat": 24.933055,
    "lng": 121.216833,
    "sid": "MAA1ADMAMgA0ADAAMAAwADEAOAA=",
    "name": "(準公共)桃園市私立休仕頓幼兒園",
    "type": "spub3"
  },
  {
    "newsch": 1,
    "lat": 24.941416,
    "lng": 121.216998,
    "sid": "MAA1ADMAMgA0ADAAMAAwADEAOQA=",
    "name": "(準公共)桃園市私立天韻幼兒園",
    "type": "spub3"
  },
  {
    "newsch": 1,
    "lat": 24.913215,
    "lng": 121.211323,
    "sid": "MAA1ADMAMgA0ADAAMAAwADIAMAA=",
    "name": "(公立)桃園市平鎮區南勢國民小學附設幼兒園",
    "type": "spub0"
  },
  {
    "newsch": 1,
    "lat": 24.914815,
    "lng": 121.247546,
    "sid": "MAA1ADMAMgA0ADAAMAAwADIAMQA=",
    "name": "(準公共)桃園市私立忠政幼兒園",
    "type": "spub3"
  },
  {
    "newsch": 1,
    "lat": 24.955674,
    "lng": 121.205451,
    "sid": "MAA1ADMAMgA0ADAAMAAwADIAMgA=",
    "name": "(私立)桃園市私立亞碩幼兒園",
    "type": "spub1"
  },
  {
    "newsch": 1,
    "lat": 24.891753,
    "lng": 121.204551,
    "sid": "MAA1ADMAMgA0ADAAMAAwADIAMwA=",
    "name": "(準公共)桃園市私立家安幼兒園",
    "type": "spub3"
  },
  {
    "newsch": 1,
    "lat": 24.922804,
    "lng": 121.250683,
    "sid": "MAA1ADMAMgA0ADAAMAAwADIANAA=",
    "name": "(公立)桃園市平鎮區忠貞國民小學附設幼兒園",
    "type": "spub0"
  },
  {
    "newsch": 1,
    "lat": 24.918549,
    "lng": 121.252413,
    "sid": "MAA1ADMAMgA0ADAAMAAwADIANQA=",
    "name": "(準公共)桃園市私立日揚幼兒園",
    "type": "spub3"
  },
  {
    "newsch": 1,
    "lat": 24.940349,
    "lng": 121.217809,
    "sid": "MAA1ADMAMgA0ADAAMAAwADIANgA=",
    "name": "(私立)桃園市私立何嘉仁平鎮幼兒園",
    "type": "spub1"
  },
  {
    "newsch": 1,
    "lat": 24.919729,
    "lng": 121.250933,
    "sid": "MAA1ADMAMgA0ADAAMAAwADIANwA=",
    "name": "(私立)桃園市私立大方幼兒園",
    "type": "spub1"
  },
  {
    "newsch": 1,
    "lat": 24.929981,
    "lng": 121.230182,
    "sid": "MAA1ADMAMgA0ADAAMAAwADIAOAA=",
    "name": "(準公共)桃園市私立快樂童年幼兒園",
    "type": "spub3"
  },
  {
    "newsch": 1,
    "lat": 24.937404,
    "lng": 121.217547,
    "sid": "MAA1ADMAMgA0ADAAMAAwADIAOQA=",
    "name": "(準公共)桃園市私立幼幼家幼兒園",
    "type": "spub3"
  },
  {
    "newsch": 1,
    "lat": 24.917568,
    "lng": 121.249955,
    "sid": "MAA1ADMAMgA0ADAAMAAwADMAMAA=",
    "name": "(公立)桃園市平鎮區東安國民小學附設幼兒園",
    "type": "spub0"
  },
  {
    "newsch": 1,
    "lat": 24.910858,
    "lng": 121.231993,
    "sid": "MAA1ADMAMgA0ADAAMAAwADMAMQA=",
    "name": "(公立)桃園市平鎮區東勢國民小學附設幼兒園",
    "type": "spub0"
  },
  {
    "newsch": 1,
    "lat": 24.912941,
    "lng": 121.205616,
    "sid": "MAA1ADMAMgA0ADAAMAAwADMAMwA=",
    "name": "(準公共)桃園市私立柏學幼兒園",
    "type": "spub3"
  },
  {
    "newsch": 1,
    "lat": 24.951138,
    "lng": 121.203502,
    "sid": "MAA1ADMAMgA0ADAAMAAwADMANQA=",
    "name": "(私立)桃園市私立文化幼兒園",
    "type": "spub1"
  },
  {
    "newsch": 1,
    "lat": 24.915401,
    "lng": 121.213228,
    "sid": "MAA1ADMAMgA0ADAAMAAwADMANgA=",
    "name": "(準公共)桃園市私立尼爾長頸鹿幼兒園",
    "type": "spub3"
  },
  {
    "newsch": 1,
    "lat": 24.942236,
    "lng": 121.220819,
    "sid": "MAA1ADMAMgA0ADAAMAAwADMANwA=",
    "name": "(公立)桃園市立平鎮幼兒園",
    "type": "spub0"
  },
  {
    "newsch": 1,
    "lat": 24.896597,
    "lng": 121.209543,
    "sid": "MAA1ADMAMgA0ADAAMAAwADMANwAtADAAMQA=",
    "name": "(公立)桃園市立平鎮幼兒園紹豐分班",
    "type": "spub0"
  },
  {
    "newsch": 1,
    "lat": 24.948489,
    "lng": 121.204081,
    "sid": "MAA1ADMAMgA0ADAAMAAwADMANwAtADAAMgA=",
    "name": "(公立)桃園市立平鎮幼兒園義民分班",
    "type": "spub0"
  },
  {
    "newsch": 1,
    "lat": 24.914737,
    "lng": 121.207493,
    "sid": "MAA1ADMAMgA0ADAAMAAwADMANwAtADAAMwA=",
    "name": "(公立)桃園市立平鎮幼兒園南勢分班",
    "type": "spub0"
  },
  {
    "newsch": 1,
    "lat": 24.910068,
    "lng": 121.23137,
    "sid": "MAA1ADMAMgA0ADAAMAAwADMANwAtADAANAA=",
    "name": "(公立)桃園市立平鎮幼兒園東勢分班",
    "type": "spub0"
  },
  {
    "newsch": 1,
    "lat": 24.924108,
    "lng": 121.206008,
    "sid": "MAA1ADMAMgA0ADAAMAAwADMANwAtADAANQA=",
    "name": "(公立)桃園市立平鎮幼兒園平鎮分班",
    "type": "spub0"
  },
  {
    "newsch": 1,
    "lat": 24.934998,
    "lng": 121.223292,
    "sid": "MAA1ADMAMgA0ADAAMAAwADMAOAA=",
    "name": "(公立)桃園市平鎮區北勢國民小學附設幼兒園",
    "type": "spub0"
  },
  {
    "newsch": 1,
    "lat": 24.953824,
    "lng": 121.208398,
    "sid": "MAA1ADMAMgA0ADAAMAAwADMAOQA=",
    "name": "(私立)桃園市私立華岡幼兒園",
    "type": "spub1"
  },
  {
    "newsch": 1,
    "lat": 24.895353,
    "lng": 121.20302,
    "sid": "MAA1ADMAMgA0ADAAMAAwADQAMwA=",
    "name": "(準公共)桃園市私立小奶爸幼兒園",
    "type": "spub3"
  },
  {
    "newsch": 1,
    "lat": 24.918295,
    "lng": 121.25294,
    "sid": "MAA1ADMAMgA0ADAAMAAwADQANAA=",
    "name": "(準公共)桃園市私立愛心幼兒園",
    "type": "spub3"
  },
  {
    "newsch": 1,
    "lat": 24.894706,
    "lng": 121.202471,
    "sid": "MAA1ADMAMgA0ADAAMAAwADQANQA=",
    "name": "(私立)桃園市私立威士登國際幼兒園",
    "type": "spub1"
  },
  {
    "newsch": 1,
    "lat": 24.954757,
    "lng": 121.202722,
    "sid": "MAA1ADMAMgA0ADAAMAAwADQANwA=",
    "name": "(私立)桃園市私立明子園幼兒園",
    "type": "spub1"
  },
  {
    "newsch": 1,
    "lat": 24.917008,
    "lng": 121.209546,
    "sid": "MAA1ADMAMgA0ADAAMAAwADUAMQA=",
    "name": "(準公共)桃園市私立富棋幼兒園",
    "type": "spub3"
  },
  {
    "newsch": 1,
    "lat": 24.89553,
    "lng": 121.203631,
    "sid": "MAA1ADMAMgA0ADAAMAAwADUAMgA=",
    "name": "(準公共)桃園市私立大全幼兒園",
    "type": "spub3"
  },
  {
    "newsch": 1,
    "lat": 24.894021,
    "lng": 121.202997,
    "sid": "MAA1ADMAMgA0ADAAMAAwADUAMwA=",
    "name": "(公立)桃園市平鎮區祥安國民小學附設幼兒園",
    "type": "spub0"
  },
  {
    "newsch": 1,
    "lat": 24.94998,
    "lng": 121.216499,
    "sid": "MAA1ADMAMgA0ADAAMAAwADUANAA=",
    "name": "(公立)桃園市平鎮區新勢國民小學附設幼兒園",
    "type": "spub0"
  },
  {
    "newsch": 1,
    "lat": 24.938431,
    "lng": 121.213247,
    "sid": "MAA1ADMAMgA0ADAAMAAwADUANQA=",
    "name": "(準公共)桃園市私立大群幼兒園",
    "type": "spub3"
  },
  {
    "newsch": 1,
    "lat": 24.947621,
    "lng": 121.199478,
    "sid": "MAA1ADMAMgA0ADAAMAAwADUANwA=",
    "name": "(私立)桃園市私立明子幼兒園",
    "type": "spub1"
  },
  {
    "newsch": 1,
    "lat": 24.955334,
    "lng": 121.208542,
    "sid": "MAA1ADMAMgA0ADAAMAAwADUAOAA=",
    "name": "(公立)桃園市平鎮區復旦國民小學附設幼兒園",
    "type": "spub0"
  },
  {
    "newsch": 1,
    "lat": 24.939916,
    "lng": 121.220128,
    "sid": "MAA1ADMAMgA0ADAAMAAwADUAOQA=",
    "name": "(準公共)桃園市私立采萌幼兒園",
    "type": "spub3"
  },
  {
    "newsch": 1,
    "lat": 24.944885,
    "lng": 121.203403,
    "sid": "MAA1ADMAMgA0ADAAMAAwADYAMAA=",
    "name": "(公立)桃園市平鎮區平興國民小學附設幼兒園",
    "type": "spub0"
  },
  {
    "newsch": 1,
    "lat": 24.896645,
    "lng": 121.213305,
    "sid": "MAA1ADMAMgA0ADAAMAAwADYAMQA=",
    "name": "(公立)桃園市平鎮區山豐國民小學附設幼兒園",
    "type": "spub0"
  },
  {
    "newsch": 1,
    "lat": 24.917334,
    "lng": 121.248496,
    "sid": "MAA1ADMAMgA0ADAAMAAwADYAMgA=",
    "name": "(非營利)桃園市新華非營利幼兒園（委託財團法人三之三生命教育基金會辦理）",
    "type": "spub2"
  },
  {
    "newsch": 1,
    "lat": 24.944992,
    "lng": 121.218063,
    "sid": "MAA1ADMAMgA0ADAAMAAwADYAMwA=",
    "name": "(公立)桃園市立平鎮國民中學附設幼兒園",
    "type": "spub0"
  },
  {
    "newsch": 1,
    "lat": 24.949577,
    "lng": 121.206051,
    "sid": "MAA1ADMAMgA0ADAAMAAwADYANAA=",
    "name": "(非營利)桃園市平興非營利幼兒園（委託社團法人中華啟幼思學會辦理）",
    "type": "spub2"
  },
  {
    "newsch": 1,
    "lat": 24.952646,
    "lng": 121.218208,
    "sid": "MAA1ADMAMgA0ADAAMAAwADYANQA=",
    "name": "(公立)桃園市平鎮區新榮國民小學附設幼兒園",
    "type": "spub0"
  },
  {
    "newsch": 1,
    "lat": 24.952995,
    "lng": 121.203819,
    "sid": "MAA1ADMAMgA0ADAAMAAwADYANgA=",
    "name": "(公立)桃園市平鎮區文化國民小學附設幼兒園",
    "type": "spub0"
  },
  {
    "newsch": 1,
    "lat": 24.942928,
    "lng": 121.182451,
    "sid": "MAA1ADMAMgA0ADAAMAAwADYANwA=",
    "name": "(私立)國防部陸軍司令部第六軍團指揮部金鷹職場互助教保服務中心(委託社團法人桃園市領航國際嬰幼兒文化教育協會辦理)",
    "type": "spub1"
  },
  {
    "newsch": 1,
    "lat": 24.947711,
    "lng": 121.220128,
    "sid": "MAA1ADMAMgA0ADAAMAAwADYAOAA=",
    "name": "(私立)桃園市私立新驛斑比尼幼兒園",
    "type": "spub1"
  },
  {
    "newsch": 1,
    "lat": 24.892894,
    "lng": 121.202354,
    "sid": "MAA1ADMAMgA0ADAAMAAwADYAOQA=",
    "name": "(非營利)桃園市祥安非營利幼兒園(委託社團法人臺灣三之三生命教育學會辦理)",
    "type": "spub2"
  }
]