[
  {
    "newsch": 1,
    "lat": 24.920915,
    "lng": 121.172419,
    "sid": "MAA1ADMAMgA2ADAAMAAwADAAMQA=",
    "name": "(準公共)桃園市私立及人幼兒園",
    "type": "spub3"
  },
  {
    "newsch": 1,
    "lat": 24.910882,
    "lng": 121.123551,
    "sid": "MAA1ADMAMgA2ADAAMAAwADAAMgA=",
    "name": "(準公共)桃園市私立小荳荳幼兒園",
    "type": "spub3"
  },
  {
    "newsch": 1,
    "lat": 24.95684,
    "lng": 121.168479,
    "sid": "MAA1ADMAMgA2ADAAMAAwADAANAA=",
    "name": "(準公共)桃園市私立楊梅慈恩幼兒園",
    "type": "spub3"
  },
  {
    "newsch": 1,
    "lat": 24.909563,
    "lng": 121.152402,
    "sid": "MAA1ADMAMgA2ADAAMAAwADAANQA=",
    "name": "(準公共)桃園市私立奇德爾幼兒園",
    "type": "spub3"
  },
  {
    "newsch": 1,
    "lat": 24.909551,
    "lng": 121.176725,
    "sid": "MAA1ADMAMgA2ADAAMAAwADAANwA=",
    "name": "(私立)桃園市私立仟樺幼兒園",
    "type": "spub1"
  },
  {
    "newsch": 1,
    "lat": 24.908648,
    "lng": 121.174663,
    "sid": "MAA1ADMAMgA2ADAAMAAwADAAOAA=",
    "name": "(私立)桃園市私立小瓢蟲幼兒園",
    "type": "spub1"
  },
  {
    "newsch": 1,
    "lat": 24.93771,
    "lng": 121.088232,
    "sid": "MAA1ADMAMgA2ADAAMAAwADAAOQA=",
    "name": "(準公共)桃園市私立愛尼歐幼兒園",
    "type": "spub3"
  },
  {
    "newsch": 1,
    "lat": 24.937058,
    "lng": 121.163982,
    "sid": "MAA1ADMAMgA2ADAAMAAwADEAMAA=",
    "name": "(公立)桃園市楊梅區高榮國民小學附設幼兒園",
    "type": "spub0"
  },
  {
    "newsch": 1,
    "lat": 24.911867,
    "lng": 121.17977,
    "sid": "MAA1ADMAMgA2ADAAMAAwADEAMQA=",
    "name": "(準公共)桃園市私立立暘幼兒園",
    "type": "spub3"
  },
  {
    "newsch": 1,
    "lat": 24.93747,
    "lng": 121.080861,
    "sid": "MAA1ADMAMgA2ADAAMAAwADEAMgA=",
    "name": "(公立)桃園市楊梅區富岡國民小學附設幼兒園",
    "type": "spub0"
  },
  {
    "newsch": 1,
    "lat": 24.910145,
    "lng": 121.149065,
    "sid": "MAA1ADMAMgA2ADAAMAAwADEAMwA=",
    "name": "(公立)桃園市楊梅區大同國民小學附設幼兒園",
    "type": "spub0"
  },
  {
    "newsch": 1,
    "lat": 24.917972,
    "lng": 121.13797,
    "sid": "MAA1ADMAMgA2ADAAMAAwADEANAA=",
    "name": "(公立)桃園市立楊梅幼兒園",
    "type": "spub0"
  },
  {
    "newsch": 1,
    "lat": 24.910551,
    "lng": 121.14788,
    "sid": "MAA1ADMAMgA2ADAAMAAwADEANAAtADAAMQA=",
    "name": "(公立)桃園市立楊梅幼兒園楊梅分班",
    "type": "spub0"
  },
  {
    "newsch": 1,
    "lat": 24.913795,
    "lng": 121.17931,
    "sid": "MAA1ADMAMgA2ADAAMAAwADEANAAtADAAMwA=",
    "name": "(公立)桃園市立楊梅幼兒園瑞塘分班",
    "type": "spub0"
  },
  {
    "newsch": 1,
    "lat": 24.926236,
    "lng": 121.14147,
    "sid": "MAA1ADMAMgA2ADAAMAAwADEANAAtADAANgA=",
    "name": "(公立)桃園市立楊梅幼兒園高新分班",
    "type": "spub0"
  },
  {
    "newsch": 1,
    "lat": 24.910233,
    "lng": 121.179463,
    "sid": "MAA1ADMAMgA2ADAAMAAwADEANQA=",
    "name": "(準公共)桃園市私立萊恩幼兒園",
    "type": "spub3"
  },
  {
    "newsch": 1,
    "lat": 24.916839,
    "lng": 121.184246,
    "sid": "MAA1ADMAMgA2ADAAMAAwADEANgA=",
    "name": "(準公共)桃園市私立埔心幼兒園",
    "type": "spub3"
  },
  {
    "newsch": 1,
    "lat": 24.956309,
    "lng": 121.167737,
    "sid": "MAA1ADMAMgA2ADAAMAAwADEANwA=",
    "name": "(準公共)桃園市私立啟幼幼兒園",
    "type": "spub3"
  },
  {
    "newsch": 1,
    "lat": 24.9099,
    "lng": 121.084899,
    "sid": "MAA1ADMAMgA2ADAAMAAwADEAOAA=",
    "name": "(公立)桃園市楊梅區上湖國民小學附設幼兒園",
    "type": "spub0"
  },
  {
    "newsch": 1,
    "lat": 24.911675,
    "lng": 121.158967,
    "sid": "MAA1ADMAMgA2ADAAMAAwADEAOQA=",
    "name": "(公立)桃園市楊梅區楊明國民小學附設幼兒園",
    "type": "spub0"
  },
  {
    "newsch": 1,
    "lat": 24.926046,
    "lng": 121.103727,
    "sid": "MAA1ADMAMgA2ADAAMAAwADIAMAA=",
    "name": "(公立)桃園市楊梅區瑞原國民小學附設幼兒園",
    "type": "spub0"
  },
  {
    "newsch": 1,
    "lat": 24.911053,
    "lng": 121.150074,
    "sid": "MAA1ADMAMgA2ADAAMAAwADIAMQA=",
    "name": "(準公共)桃園市私立狄斯耐幼兒園",
    "type": "spub3"
  },
  {
    "newsch": 1,
    "lat": 24.937132,
    "lng": 121.161667,
    "sid": "MAA1ADMAMgA2ADAAMAAwADIAMgA=",
    "name": "(準公共)桃園市私立大惠幼兒園",
    "type": "spub3"
  },
  {
    "newsch": 1,
    "lat": 24.892121,
    "lng": 121.134726,
    "sid": "MAA1ADMAMgA2ADAAMAAwADIANQA=",
    "name": "(私立)中華汽車工業股份有限公司職工福利委員會附設桃園市私立中華汽車幼兒園",
    "type": "spub1"
  },
  {
    "newsch": 1,
    "lat": 24.903884,
    "lng": 121.144289,
    "sid": "MAA1ADMAMgA2ADAAMAAwADIANgA=",
    "name": "(準公共)桃園市私立吉星幼兒園",
    "type": "spub3"
  },
  {
    "newsch": 1,
    "lat": 24.910336,
    "lng": 121.183647,
    "sid": "MAA1ADMAMgA2ADAAMAAwADIANwA=",
    "name": "(私立)桃園市私立承恩幼兒園",
    "type": "spub1"
  },
  {
    "newsch": 1,
    "lat": 24.907506,
    "lng": 121.177673,
    "sid": "MAA1ADMAMgA2ADAAMAAwADIAOAA=",
    "name": "(準公共)桃園市私立玫瑰幼兒園",
    "type": "spub3"
  },
  {
    "newsch": 1,
    "lat": 24.882197,
    "lng": 121.174784,
    "sid": "MAA1ADMAMgA2ADAAMAAwADIAOQA=",
    "name": "(私立)財團法人桃園市私立大華國民中學附設桃園市私立幼兒園",
    "type": "spub1"
  },
  {
    "newsch": 1,
    "lat": 24.911288,
    "lng": 121.144501,
    "sid": "MAA1ADMAMgA2ADAAMAAwADMAMQA=",
    "name": "(私立)財團法人天主教普慈方濟修女會附設桃園市私立方濟幼兒園",
    "type": "spub1"
  },
  {
    "newsch": 1,
    "lat": 24.904675,
    "lng": 121.17634,
    "sid": "MAA1ADMAMgA2ADAAMAAwADMAMgA=",
    "name": "(準公共)桃園市私立金悅幼兒園",
    "type": "spub3"
  },
  {
    "newsch": 1,
    "lat": 24.935158,
    "lng": 121.079552,
    "sid": "MAA1ADMAMgA2ADAAMAAwADMAMwA=",
    "name": "(私立)財團法人台灣省天主教會新竹教區附設桃園市私立富岡聖心幼兒園",
    "type": "spub1"
  },
  {
    "newsch": 1,
    "lat": 24.900461,
    "lng": 121.140858,
    "sid": "MAA1ADMAMgA2ADAAMAAwADMANAA=",
    "name": "(準公共)桃園市私立育成幼兒園",
    "type": "spub3"
  },
  {
    "newsch": 1,
    "lat": 24.904599,
    "lng": 121.176522,
    "sid": "MAA1ADMAMgA2ADAAMAAwADMANwA=",
    "name": "(私立)桃園市私立金暘幼兒園",
    "type": "spub1"
  },
  {
    "newsch": 1,
    "lat": 24.911648,
    "lng": 121.143241,
    "sid": "MAA1ADMAMgA2ADAAMAAwADMAOAA=",
    "name": "(公立)桃園市楊梅區楊心國民小學附設幼兒園",
    "type": "spub0"
  },
  {
    "newsch": 1,
    "lat": 24.909821,
    "lng": 121.171806,
    "sid": "MAA1ADMAMgA2ADAAMAAwADMAOQA=",
    "name": "(準公共)桃園市私立瑞梅蒙氏幼兒園",
    "type": "spub3"
  },
  {
    "newsch": 1,
    "lat": 24.910734,
    "lng": 121.157298,
    "sid": "MAA1ADMAMgA2ADAAMAAwADQAMQA=",
    "name": "(準公共)桃園市私立美加達幼兒園",
    "type": "spub3"
  },
  {
    "newsch": 1,
    "lat": 24.911842,
    "lng": 121.184691,
    "sid": "MAA1ADMAMgA2ADAAMAAwADQAMgA=",
    "name": "(公立)桃園市楊梅區四維國民小學附設幼兒園",
    "type": "spub0"
  },
  {
    "newsch": 1,
    "lat": 24.905399,
    "lng": 121.147417,
    "sid": "MAA1ADMAMgA2ADAAMAAwADQAMwA=",
    "name": "(準公共)桃園市私立金寶貝幼兒園",
    "type": "spub3"
  },
  {
    "newsch": 1,
    "lat": 24.937805,
    "lng": 121.126326,
    "sid": "MAA1ADMAMgA2ADAAMAAwADQANAA=",
    "name": "(公立)桃園市楊梅區上田國民小學附設幼兒園",
    "type": "spub0"
  },
  {
    "newsch": 1,
    "lat": 24.906212,
    "lng": 121.144398,
    "sid": "MAA1ADMAMgA2ADAAMAAwADQANQA=",
    "name": "(公立)桃園市楊梅區楊梅國民小學附設幼兒園",
    "type": "spub0"
  },
  {
    "newsch": 1,
    "lat": 24.916373,
    "lng": 121.185784,
    "sid": "MAA1ADMAMgA2ADAAMAAwADQANgA=",
    "name": "(公立)桃園市楊梅區瑞埔國民小學附設幼兒園",
    "type": "spub0"
  },
  {
    "newsch": 1,
    "lat": 24.906434,
    "lng": 121.168628,
    "sid": "MAA1ADMAMgA2ADAAMAAwADQANwA=",
    "name": "(非營利)桃園市楊光非營利幼兒園（委託社團法人新竹市教保人員協會辦理）",
    "type": "spub2"
  },
  {
    "newsch": 1,
    "lat": 24.910045,
    "lng": 121.171461,
    "sid": "MAA1ADMAMgA2ADAAMAAwADQAOAA=",
    "name": "(公立)桃園市楊梅區瑞梅國民小學附設幼兒園",
    "type": "spub0"
  },
  {
    "newsch": 1,
    "lat": 24.910794,
    "lng": 121.154911,
    "sid": "MAA1ADMAMgA2ADAAMAAwADQAOQA=",
    "name": "(非營利)桃園市楊明非營利幼兒園（委託社團法人新北市中華國際嬰幼兒發展學會辦理）",
    "type": "spub2"
  },
  {
    "newsch": 1,
    "lat": 24.906757,
    "lng": 121.179511,
    "sid": "MAA1ADMAMgA2ADAAMAAwADUAMAA=",
    "name": "(非營利)桃園市瑞坪非營利幼兒園(委託社團法人臺灣亞洲學前教育培訓協會辦理)",
    "type": "spub2"
  },
  {
    "newsch": 1,
    "lat": 24.898286,
    "lng": 121.148553,
    "sid": "MAA1ADMAMgA2ADAAMAAwADUAMQA=",
    "name": "(非營利)桃園市永福非營利幼兒園(委託社團法人臺灣亞洲學前教育培訓協會辦理)",
    "type": "spub2"
  },
  {
    "newsch": 1,
    "lat": 24.903472,
    "lng": 121.150291,
    "sid": "MAA1ADMAMgA2ADAAMAAwADUAMQAtADAAMQA=",
    "name": "(非營利)桃園市永福非營利幼兒園(委託社團法人臺灣亞洲學前教育培訓協會辦理)校前分班",
    "type": "spub2"
  },
  {
    "newsch": 1,
    "lat": 24.918793,
    "lng": 121.137533,
    "sid": "MAA1ADMAMgA2ADAAMAAwADUAMgA=",
    "name": "(公立)桃園市楊梅區水美國民小學附設幼兒園",
    "type": "spub0"
  },
  {
    "newsch": 1,
    "lat": 24.909093,
    "lng": 121.155226,
    "sid": "MAA1ADMAMgA2ADAAMAAwADUAMwA=",
    "name": "(準公共)桃園市私立明日之星幼兒園",
    "type": "spub3"
  },
  {
    "newsch": 1,
    "lat": 24.923984,
    "lng": 121.183261,
    "sid": "MAA1ADMAMgA2ADAAMAAwADUANAA=",
    "name": "(公立)桃園市立仁美國民中學附設幼兒園",
    "type": "spub0"
  },
  {
    "newsch": 1,
    "lat": 24.941799,
    "lng": 121.074046,
    "sid": "MAA1ADMAMgA2ADAAMAAwADUANQA=",
    "name": "(公立)桃園市立富岡國民中學附設幼兒園",
    "type": "spub0"
  },
  {
    "newsch": 1,
    "lat": 24.95537,
    "lng": 121.167382,
    "sid": "MAA1ADMAMgA2ADAAMAAwADUANgA=",
    "name": "(私立)桃園市中華電信楊梅職場互助教保服務中心(委託社團法人台灣幼兒早期教育協會辦理)",
    "type": "spub1"
  },
  {
    "newsch": 1,
    "lat": 24.931277,
    "lng": 121.171356,
    "sid": "MAA1ADMAMgA2ADAAMAAwADUANwA=",
    "name": "(私立)勞動部勞動力發展署桃竹苗分署職場互助教保服務中心(委託財團法人三之三生命教育基金會辦理)",
    "type": "spub1"
  },
  {
    "newsch": 1,
    "lat": 24.913946,
    "lng": 121.186373,
    "sid": "MAA1ADMAMgA2ADAAMAAwADUAOAA=",
    "name": "(非營利)桃園市金龍非營利幼兒園(委託社團法人臺灣亞洲學前教育培訓協會辦理)",
    "type": "spub2"
  },
  {
    "newsch": 1,
    "lat": 24.907056,
    "lng": 121.115146,
    "sid": "MAA1ADMAMgA2ADAAMAAwADUAOQA=",
    "name": "(私立)桃園市私立芯苑幼兒園",
    "type": "spub1"
  }
]