[
  {
    "newsch": 1,
    "lat": 24.985905,
    "lng": 121.2934052,
    "sid": "MAA1ADMAMwAwADAAMAAwADAAMQA=",
    "name": "(準公共)桃園市私立愛迪生幼兒園",
    "type": "spub3"
  },
  {
    "newsch": 1,
    "lat": 24.9763011,
    "lng": 121.3214294,
    "sid": "MAA1ADMAMwAwADAAMAAwADAAMwA=",
    "name": "(私立)桃園市私立復興岡幼兒園",
    "type": "spub1"
  },
  {
    "newsch": 1,
    "lat": 25.018547,
    "lng": 121.303737,
    "sid": "MAA1ADMAMwAwADAAMAAwADAANAA=",
    "name": "(私立)桃園市私立巴黎幼兒園",
    "type": "spub1"
  },
  {
    "newsch": 1,
    "lat": 25.0030283,
    "lng": 121.3045037,
    "sid": "MAA1ADMAMwAwADAAMAAwADAANQA=",
    "name": "(私立)桃園市私立康萊爾幼兒園",
    "type": "spub1"
  },
  {
    "newsch": 1,
    "lat": 25.0185201,
    "lng": 121.302358,
    "sid": "MAA1ADMAMwAwADAAMAAwADAANgA=",
    "name": "(私立)桃園市私立山雅幼兒園",
    "type": "spub1"
  },
  {
    "newsch": 1,
    "lat": 24.996174,
    "lng": 121.292997,
    "sid": "MAA1ADMAMwAwADAAMAAwADAANwA=",
    "name": "(私立)桃園市私立多元幼兒園",
    "type": "spub1"
  },
  {
    "newsch": 1,
    "lat": 25.0210244,
    "lng": 121.2997944,
    "sid": "MAA1ADMAMwAwADAAMAAwADAAOAA=",
    "name": "(私立)桃園市私立瑞恩帝兒幼兒園",
    "type": "spub1"
  },
  {
    "newsch": 1,
    "lat": 24.9834289,
    "lng": 121.315361,
    "sid": "MAA1ADMAMwAwADAAMAAwADAAOQA=",
    "name": "(公立)桃園市桃園區建國國民小學附設幼兒園",
    "type": "spub0"
  },
  {
    "newsch": 1,
    "lat": 25.0052655,
    "lng": 121.3054352,
    "sid": "MAA1ADMAMwAwADAAMAAwADEAMQA=",
    "name": "(準公共)桃園市私立偉恩幼兒園",
    "type": "spub3"
  },
  {
    "newsch": 1,
    "lat": 24.9798183,
    "lng": 121.3138477,
    "sid": "MAA1ADMAMwAwADAAMAAwADEAMgA=",
    "name": "(準公共)桃園市私立桃人幼兒園",
    "type": "spub3"
  },
  {
    "newsch": 1,
    "lat": 25.0139354,
    "lng": 121.3141802,
    "sid": "MAA1ADMAMwAwADAAMAAwADEAMwA=",
    "name": "(私立)桃園市私立福華幼兒園",
    "type": "spub1"
  },
  {
    "newsch": 1,
    "lat": 25.014117,
    "lng": 121.297458,
    "sid": "MAA1ADMAMwAwADAAMAAwADEANAA=",
    "name": "(私立)桃園市私立福興幼兒園",
    "type": "spub1"
  },
  {
    "newsch": 1,
    "lat": 25.007139,
    "lng": 121.307184,
    "sid": "MAA1ADMAMwAwADAAMAAwADEANQA=",
    "name": "(公立)桃園市桃園區北門國民小學附設幼兒園",
    "type": "spub0"
  },
  {
    "newsch": 1,
    "lat": 25.0150502,
    "lng": 121.3192966,
    "sid": "MAA1ADMAMwAwADAAMAAwADEANgA=",
    "name": "(私立)桃園市私立桃源蒙特梭利幼兒園",
    "type": "spub1"
  },
  {
    "newsch": 1,
    "lat": 24.984163,
    "lng": 121.289798,
    "sid": "MAA1ADMAMwAwADAAMAAwADEANwA=",
    "name": "(準公共)桃園市私立美兒樂幼兒園",
    "type": "spub3"
  },
  {
    "newsch": 1,
    "lat": 24.9940639,
    "lng": 121.302481,
    "sid": "MAA1ADMAMwAwADAAMAAwADEAOQA=",
    "name": "(私立)桃園市私立平安幼兒園",
    "type": "spub1"
  },
  {
    "newsch": 1,
    "lat": 24.999819,
    "lng": 121.302055,
    "sid": "MAA1ADMAMwAwADAAMAAwADIAMAA=",
    "name": "(私立)桃園市私立何嘉仁幼兒園",
    "type": "spub1"
  },
  {
    "newsch": 1,
    "lat": 25.0101503,
    "lng": 121.2991453,
    "sid": "MAA1ADMAMwAwADAAMAAwADIAMQA=",
    "name": "(準公共)桃園市私立童年幼兒園",
    "type": "spub3"
  },
  {
    "newsch": 1,
    "lat": 25.0059809,
    "lng": 121.294704,
    "sid": "MAA1ADMAMwAwADAAMAAwADIAMgA=",
    "name": "(私立)桃園市私立華人幼兒園",
    "type": "spub1"
  },
  {
    "newsch": 1,
    "lat": 24.995004,
    "lng": 121.306752,
    "sid": "MAA1ADMAMwAwADAAMAAwADIAMwA=",
    "name": "(準公共)桃園市私立民族幼兒園",
    "type": "spub3"
  },
  {
    "newsch": 1,
    "lat": 24.994762,
    "lng": 121.297827,
    "sid": "MAA1ADMAMwAwADAAMAAwADIANAA=",
    "name": "(準公共)桃園市私立叡稚幼兒園",
    "type": "spub3"
  },
  {
    "newsch": 1,
    "lat": 24.986784,
    "lng": 121.291693,
    "sid": "MAA1ADMAMwAwADAAMAAwADIANQA=",
    "name": "(準公共)桃園市私立普林斯頓幼兒園",
    "type": "spub3"
  },
  {
    "newsch": 1,
    "lat": 25.016146,
    "lng": 121.2936569,
    "sid": "MAA1ADMAMwAwADAAMAAwADIANgA=",
    "name": "(私立)桃園市私立人文蒙特梭利幼兒園",
    "type": "spub1"
  },
  {
    "newsch": 1,
    "lat": 25.013545,
    "lng": 121.292388,
    "sid": "MAA1ADMAMwAwADAAMAAwADIAOAA=",
    "name": "(私立)桃園市私立喬幼幼兒園",
    "type": "spub1"
  },
  {
    "newsch": 1,
    "lat": 25.019362,
    "lng": 121.286444,
    "sid": "MAA1ADMAMwAwADAAMAAwADIAOQA=",
    "name": "(準公共)桃園市私立柏克來幼兒園",
    "type": "spub3"
  },
  {
    "newsch": 1,
    "lat": 24.9847459,
    "lng": 121.290777,
    "sid": "MAA1ADMAMwAwADAAMAAwADMAMAA=",
    "name": "(準公共)桃園市私立米羅幼兒園",
    "type": "spub3"
  },
  {
    "newsch": 1,
    "lat": 25.0257529,
    "lng": 121.299017,
    "sid": "MAA1ADMAMwAwADAAMAAwADMAMQA=",
    "name": "(私立)桃園市私立豐田大郡幼兒園",
    "type": "spub1"
  },
  {
    "newsch": 1,
    "lat": 24.9823396,
    "lng": 121.3172315,
    "sid": "MAA1ADMAMwAwADAAMAAwADMAMgA=",
    "name": "(準公共)桃園市私立建興幼兒園",
    "type": "spub3"
  },
  {
    "newsch": 1,
    "lat": 25.0034539,
    "lng": 121.301495,
    "sid": "MAA1ADMAMwAwADAAMAAwADMAMwA=",
    "name": "(準公共)桃園市私立凱莉幼兒園",
    "type": "spub3"
  },
  {
    "newsch": 1,
    "lat": 24.988924,
    "lng": 121.30148,
    "sid": "MAA1ADMAMwAwADAAMAAwADMANAA=",
    "name": "(準公共)桃園市私立托福幼兒園",
    "type": "spub3"
  },
  {
    "newsch": 1,
    "lat": 24.9996579,
    "lng": 121.317692,
    "sid": "MAA1ADMAMwAwADAAMAAwADMANQA=",
    "name": "(公立)桃園市桃園區青溪國民小學附設幼兒園",
    "type": "spub0"
  },
  {
    "newsch": 1,
    "lat": 25.0190499,
    "lng": 121.2900837,
    "sid": "MAA1ADMAMwAwADAAMAAwADMANwA=",
    "name": "(私立)桃園市私立育全幼兒園",
    "type": "spub1"
  },
  {
    "newsch": 1,
    "lat": 24.9932682,
    "lng": 121.3140378,
    "sid": "MAA1ADMAMwAwADAAMAAwADMAOAA=",
    "name": "(私立)桃園市私立吾師幼兒園",
    "type": "spub1"
  },
  {
    "newsch": 1,
    "lat": 24.9917349,
    "lng": 121.293583,
    "sid": "MAA1ADMAMwAwADAAMAAwADMAOQA=",
    "name": "(準公共)桃園市私立育銘幼兒園",
    "type": "spub3"
  },
  {
    "newsch": 1,
    "lat": 25.009399,
    "lng": 121.287102,
    "sid": "MAA1ADMAMwAwADAAMAAwADQAMQA=",
    "name": "(公立)桃園市桃園區中埔國民小學附設幼兒園",
    "type": "spub0"
  },
  {
    "newsch": 1,
    "lat": 25.008721,
    "lng": 121.311822,
    "sid": "MAA1ADMAMwAwADAAMAAwADQAMgA=",
    "name": "(公立)桃園市桃園區會稽國民小學附設幼兒園",
    "type": "spub0"
  },
  {
    "newsch": 1,
    "lat": 24.987115,
    "lng": 121.290481,
    "sid": "MAA1ADMAMwAwADAAMAAwADQAMwA=",
    "name": "(私立)桃園市私立勁草幼兒園",
    "type": "spub1"
  },
  {
    "newsch": 1,
    "lat": 24.995798,
    "lng": 121.29553,
    "sid": "MAA1ADMAMwAwADAAMAAwADQANAA=",
    "name": "(準公共)桃園市私立圓圓幼兒園",
    "type": "spub3"
  },
  {
    "newsch": 1,
    "lat": 24.995206,
    "lng": 121.3148931,
    "sid": "MAA1ADMAMwAwADAAMAAwADQANQA=",
    "name": "(準公共)桃園市私立宜欣園幼兒園",
    "type": "spub3"
  },
  {
    "newsch": 1,
    "lat": 24.986462,
    "lng": 121.289753,
    "sid": "MAA1ADMAMwAwADAAMAAwADQAOAA=",
    "name": "(公立)桃園市桃園區中山國民小學附設幼兒園",
    "type": "spub0"
  },
  {
    "newsch": 1,
    "lat": 25.008216,
    "lng": 121.3231059,
    "sid": "MAA1ADMAMwAwADAAMAAwADUAMAA=",
    "name": "(公立)桃園市立桃園幼兒園",
    "type": "spub0"
  },
  {
    "newsch": 1,
    "lat": 24.979329,
    "lng": 121.307329,
    "sid": "MAA1ADMAMwAwADAAMAAwADUAMAAtADAAMQA=",
    "name": "(公立)桃園市立桃園幼兒園陽明分班",
    "type": "spub0"
  },
  {
    "newsch": 1,
    "lat": 24.994404,
    "lng": 121.3014997,
    "sid": "MAA1ADMAMwAwADAAMAAwADUAMAAtADAAMgA=",
    "name": "(公立)桃園市立桃園幼兒園光興分班",
    "type": "spub0"
  },
  {
    "newsch": 1,
    "lat": 25.017784,
    "lng": 121.300688,
    "sid": "MAA1ADMAMwAwADAAMAAwADUAMAAtADAAMwA=",
    "name": "(公立)桃園市立桃園幼兒園同安分班",
    "type": "spub0"
  },
  {
    "newsch": 1,
    "lat": 25.0008193,
    "lng": 121.3162603,
    "sid": "MAA1ADMAMwAwADAAMAAwADUAMAAtADAANAA=",
    "name": "(公立)桃園市立桃園幼兒園青溪分班",
    "type": "spub0"
  },
  {
    "newsch": 1,
    "lat": 24.977755,
    "lng": 121.320365,
    "sid": "MAA1ADMAMwAwADAAMAAwADUAMAAtADAANgA=",
    "name": "(公立)桃園市立桃園幼兒園大林分班",
    "type": "spub0"
  },
  {
    "newsch": 1,
    "lat": 24.989271,
    "lng": 121.280828,
    "sid": "MAA1ADMAMwAwADAAMAAwADUAMAAtADAAOAA=",
    "name": "(公立)桃園市立桃園幼兒園龍岡分班",
    "type": "spub0"
  },
  {
    "newsch": 1,
    "lat": 25.0190438,
    "lng": 121.2922405,
    "sid": "MAA1ADMAMwAwADAAMAAwADUAMAAtADAAOQA=",
    "name": "(公立)桃園市立桃園幼兒園同德分班",
    "type": "spub0"
  },
  {
    "newsch": 1,
    "lat": 24.985213,
    "lng": 121.293018,
    "sid": "MAA1ADMAMwAwADAAMAAwADUAMgA=",
    "name": "(準公共)桃園市私立金向日葵幼兒園",
    "type": "spub3"
  },
  {
    "newsch": 1,
    "lat": 25.0177098,
    "lng": 121.3109552,
    "sid": "MAA1ADMAMwAwADAAMAAwADUAMwA=",
    "name": "(準公共)桃園市私立愛麗絲幼兒園",
    "type": "spub3"
  },
  {
    "newsch": 1,
    "lat": 24.9787438,
    "lng": 121.3049429,
    "sid": "MAA1ADMAMwAwADAAMAAwADUANQA=",
    "name": "(準公共)桃園市私立漢洋幼兒園",
    "type": "spub3"
  },
  {
    "newsch": 1,
    "lat": 24.986274,
    "lng": 121.291705,
    "sid": "MAA1ADMAMwAwADAAMAAwADUANgA=",
    "name": "(私立)桃園市私立新發現幼兒園",
    "type": "spub1"
  },
  {
    "newsch": 1,
    "lat": 24.992174,
    "lng": 121.310761,
    "sid": "MAA1ADMAMwAwADAAMAAwADUANwA=",
    "name": "(公立)桃園市桃園區桃園國民小學附設幼兒園",
    "type": "spub0"
  },
  {
    "newsch": 1,
    "lat": 25.009554,
    "lng": 121.314103,
    "sid": "MAA1ADMAMwAwADAAMAAwADUAOQA=",
    "name": "(私立)桃園市私立小森林幼兒園",
    "type": "spub1"
  },
  {
    "newsch": 1,
    "lat": 24.9902239,
    "lng": 121.289813,
    "sid": "MAA1ADMAMwAwADAAMAAwADYAMAA=",
    "name": "(準公共)桃園市私立大賞蒙特梭利幼兒園",
    "type": "spub3"
  },
  {
    "newsch": 1,
    "lat": 24.9856631,
    "lng": 121.2896034,
    "sid": "MAA1ADMAMwAwADAAMAAwADYAMQA=",
    "name": "(私立)桃園市私立國際長頸鹿幼兒園",
    "type": "spub1"
  },
  {
    "newsch": 1,
    "lat": 25.015886,
    "lng": 121.317704,
    "sid": "MAA1ADMAMwAwADAAMAAwADYAMgA=",
    "name": "(準公共)桃園市私立歸真幼兒園",
    "type": "spub3"
  },
  {
    "newsch": 1,
    "lat": 25.013306,
    "lng": 121.310035,
    "sid": "MAA1ADMAMwAwADAAMAAwADYAMwA=",
    "name": "(準公共)桃園市私立頂好幼兒園",
    "type": "spub3"
  },
  {
    "newsch": 1,
    "lat": 25.0207,
    "lng": 121.303924,
    "sid": "MAA1ADMAMwAwADAAMAAwADYANAA=",
    "name": "(私立)桃園市私立歡樂童年幼兒園",
    "type": "spub1"
  },
  {
    "newsch": 1,
    "lat": 24.99868,
    "lng": 121.303884,
    "sid": "MAA1ADMAMwAwADAAMAAwADYANgA=",
    "name": "(準公共)桃園市私立百銘幼兒園",
    "type": "spub3"
  },
  {
    "newsch": 1,
    "lat": 25.0006869,
    "lng": 121.308936,
    "sid": "MAA1ADMAMwAwADAAMAAwADYANwA=",
    "name": "(準公共)桃園市私立童安園幼兒園",
    "type": "spub3"
  },
  {
    "newsch": 1,
    "lat": 24.993565,
    "lng": 121.315477,
    "sid": "MAA1ADMAMwAwADAAMAAwADYAOAA=",
    "name": "(私立)財團法人台灣省天主教會新竹教區附設桃園市私立瑪利幼兒園",
    "type": "spub1"
  },
  {
    "newsch": 1,
    "lat": 24.988225,
    "lng": 121.29414,
    "sid": "MAA1ADMAMwAwADAAMAAwADcAMAA=",
    "name": "(準公共)桃園市私立幼華幼兒園",
    "type": "spub3"
  },
  {
    "newsch": 1,
    "lat": 25.0217288,
    "lng": 121.30326,
    "sid": "MAA1ADMAMwAwADAAMAAwADcAMQA=",
    "name": "(私立)桃園市私立華葳幼兒園",
    "type": "spub1"
  },
  {
    "newsch": 1,
    "lat": 24.993237,
    "lng": 121.305594,
    "sid": "MAA1ADMAMwAwADAAMAAwADcAMgA=",
    "name": "(準公共)桃園市私立巨茂幼兒園",
    "type": "spub3"
  },
  {
    "newsch": 1,
    "lat": 24.999174,
    "lng": 121.317238,
    "sid": "MAA1ADMAMwAwADAAMAAwADcAMwA=",
    "name": "(準公共)桃園市私立格利佛幼兒園",
    "type": "spub3"
  },
  {
    "newsch": 1,
    "lat": 24.996354,
    "lng": 121.323295,
    "sid": "MAA1ADMAMwAwADAAMAAwADcANwA=",
    "name": "(私立)桃園市私立德來幼兒園",
    "type": "spub1"
  },
  {
    "newsch": 1,
    "lat": 25.013848,
    "lng": 121.31421,
    "sid": "MAA1ADMAMwAwADAAMAAwADcAOAA=",
    "name": "(私立)桃園市私立大業幼兒園",
    "type": "spub1"
  },
  {
    "newsch": 1,
    "lat": 24.994814,
    "lng": 121.314937,
    "sid": "MAA1ADMAMwAwADAAMAAwADcAOQA=",
    "name": "(公立)桃園市桃園區東門國民小學附設幼兒園",
    "type": "spub0"
  },
  {
    "newsch": 1,
    "lat": 25.0178111,
    "lng": 121.3109298,
    "sid": "MAA1ADMAMwAwADAAMAAwADgAMAA=",
    "name": "(準公共)桃園市私立松果幼兒園",
    "type": "spub3"
  },
  {
    "newsch": 1,
    "lat": 24.981893,
    "lng": 121.3191471,
    "sid": "MAA1ADMAMwAwADAAMAAwADgAMQA=",
    "name": "(私立)財團法人桃園市桃企教育事務基金會附設桃園市私立薇爾幼兒園",
    "type": "spub1"
  },
  {
    "newsch": 1,
    "lat": 24.9921106,
    "lng": 121.2782998,
    "sid": "MAA1ADMAMwAwADAAMAAwADgAMgA=",
    "name": "(準公共)桃園市私立樂航幼兒園",
    "type": "spub3"
  },
  {
    "newsch": 1,
    "lat": 25.014817,
    "lng": 121.318118,
    "sid": "MAA1ADMAMwAwADAAMAAwADgAMwA=",
    "name": "(私立)桃園市私立安和幼兒園",
    "type": "spub1"
  },
  {
    "newsch": 1,
    "lat": 24.9898499,
    "lng": 121.302901,
    "sid": "MAA1ADMAMwAwADAAMAAwADgANQA=",
    "name": "(私立)桃園市私立東東幼兒園",
    "type": "spub1"
  },
  {
    "newsch": 1,
    "lat": 24.9834689,
    "lng": 121.309079,
    "sid": "MAA1ADMAMwAwADAAMAAwADgANgA=",
    "name": "(私立)財團法人台灣省天主教會新竹教區附設桃園市私立貞德幼兒園",
    "type": "spub1"
  },
  {
    "newsch": 1,
    "lat": 24.989313,
    "lng": 121.290513,
    "sid": "MAA1ADMAMwAwADAAMAAwADgANwA=",
    "name": "(非營利)桃園市中路非營利幼兒園(委託社團法人臺灣優質兒童教育發展協會辦理)",
    "type": "spub2"
  },
  {
    "newsch": 1,
    "lat": 24.97883,
    "lng": 121.270107,
    "sid": "MAA1ADMAMwAwADAAMAAwADgAOAA=",
    "name": "(非營利)桃園市龍祥非營利幼兒園(委託財團法人三之三生命教育基金會辦理)",
    "type": "spub2"
  },
  {
    "newsch": 1,
    "lat": 25.0214926,
    "lng": 121.2981712,
    "sid": "MAA1ADMAMwAwADAAMAAwADgAOQA=",
    "name": "(公立)桃園市桃園區同安國民小學附設幼兒園",
    "type": "spub0"
  },
  {
    "newsch": 1,
    "lat": 25.0129233,
    "lng": 121.3178471,
    "sid": "MAA1ADMAMwAwADAAMAAwADkAMAA=",
    "name": "(準公共)桃園市私立立人蒙特梭利幼兒園",
    "type": "spub3"
  },
  {
    "newsch": 1,
    "lat": 25.0116939,
    "lng": 121.299322,
    "sid": "MAA1ADMAMwAwADAAMAAwADkAMQA=",
    "name": "(私立)桃園市私立快樂傌麗安幼兒園",
    "type": "spub1"
  },
  {
    "newsch": 1,
    "lat": 25.011323,
    "lng": 121.298899,
    "sid": "MAA1ADMAMwAwADAAMAAwADkAMgA=",
    "name": "(準公共)桃園市私立御寶兒幼兒園",
    "type": "spub3"
  },
  {
    "newsch": 1,
    "lat": 25.0060728,
    "lng": 121.3053088,
    "sid": "MAA1ADMAMwAwADAAMAAwADkAMwA=",
    "name": "(準公共)桃園市私立長迪幼兒園",
    "type": "spub3"
  },
  {
    "newsch": 1,
    "lat": 25.0081279,
    "lng": 121.2963982,
    "sid": "MAA1ADMAMwAwADAAMAAwADkANAA=",
    "name": "(私立)桃園市私立雅比思幼兒園",
    "type": "spub1"
  },
  {
    "newsch": 1,
    "lat": 25.0142741,
    "lng": 121.3174622,
    "sid": "MAA1ADMAMwAwADAAMAAwADkANQA=",
    "name": "(私立)桃園市私立朵朵幼兒園",
    "type": "spub1"
  },
  {
    "newsch": 1,
    "lat": 24.9766327,
    "lng": 121.3147984,
    "sid": "MAA1ADMAMwAwADAAMAAwADkANgA=",
    "name": "(公立)桃園市桃園區建德國民小學附設幼兒園",
    "type": "spub0"
  },
  {
    "newsch": 1,
    "lat": 24.9891301,
    "lng": 121.3055056,
    "sid": "MAA1ADMAMwAwADAAMAAwADkANwA=",
    "name": "(公立)桃園市桃園區南門國民小學附設幼兒園",
    "type": "spub0"
  },
  {
    "newsch": 1,
    "lat": 24.9781845,
    "lng": 121.3185544,
    "sid": "MAA1ADMAMwAwADAAMAAwADkAOAA=",
    "name": "(準公共)桃園市私立希望城堡幼兒園",
    "type": "spub3"
  },
  {
    "newsch": 1,
    "lat": 24.9776398,
    "lng": 121.3156571,
    "sid": "MAA1ADMAMwAwADAAMAAwADkAOQA=",
    "name": "(私立)桃園市私立衛理幼兒園",
    "type": "spub1"
  },
  {
    "newsch": 1,
    "lat": 24.9982761,
    "lng": 121.3070923,
    "sid": "MAA1ADMAMwAwADAAMAAxADAAMAA=",
    "name": "(公立)桃園市桃園區成功國民小學附設幼兒園",
    "type": "spub0"
  },
  {
    "newsch": 1,
    "lat": 25.0123047,
    "lng": 121.3037243,
    "sid": "MAA1ADMAMwAwADAAMAAxADAAMQA=",
    "name": "(公立)桃園市桃園區慈文國民小學附設幼兒園",
    "type": "spub0"
  },
  {
    "newsch": 1,
    "lat": 25.0306298,
    "lng": 121.2839582,
    "sid": "MAA1ADMAMwAwADAAMAAxADAAMgA=",
    "name": "(私立)桃園市私立茶米花田幼兒園",
    "type": "spub1"
  },
  {
    "newsch": 1,
    "lat": 24.9961476,
    "lng": 121.292059,
    "sid": "MAA1ADMAMwAwADAAMAAxADAAMwA=",
    "name": "(公立)桃園市桃園區文山國民小學附設幼兒園",
    "type": "spub0"
  },
  {
    "newsch": 1,
    "lat": 24.9953096,
    "lng": 121.3043617,
    "sid": "MAA1ADMAMwAwADAAMAAxADAANAA=",
    "name": "(公立)桃園市桃園區西門國民小學附設幼兒園",
    "type": "spub0"
  },
  {
    "newsch": 1,
    "lat": 25.0095664,
    "lng": 121.3200763,
    "sid": "MAA1ADMAMwAwADAAMAAxADAANQA=",
    "name": "(非營利)桃園市大有非營利幼兒園(委託財團法人彭婉如文教基金會辦理)",
    "type": "spub2"
  },
  {
    "newsch": 1,
    "lat": 25.02176,
    "lng": 121.303933,
    "sid": "MAA1ADMAMwAwADAAMAAxADAANwA=",
    "name": "(非營利)桃園市經國非營利幼兒園(委託財團法人三之三生命教育基金會辦理)",
    "type": "spub2"
  },
  {
    "newsch": 1,
    "lat": 25.009284,
    "lng": 121.319545,
    "sid": "MAA1ADMAMwAwADAAMAAxADAANwAtADAAMQA=",
    "name": "(非營利)桃園市經國非營利幼兒園(委託財團法人三之三生命教育基金會辦理)大有分班",
    "type": "spub2"
  },
  {
    "newsch": 1,
    "lat": 25.008702,
    "lng": 121.296992,
    "sid": "MAA1ADMAMwAwADAAMAAxADAANwAtADAAMgA=",
    "name": "(非營利)桃園市經國非營利幼兒園(委託財團法人三之三生命教育基金會辦理)永順分班",
    "type": "spub2"
  },
  {
    "newsch": 1,
    "lat": 24.9751128,
    "lng": 121.3110572,
    "sid": "MAA1ADMAMwAwADAAMAAxADAAOAA=",
    "name": "(私立)桃園市私立欣田幼兒園",
    "type": "spub1"
  },
  {
    "newsch": 1,
    "lat": 25.0181939,
    "lng": 121.3063861,
    "sid": "MAA1ADMAMwAwADAAMAAxADAAOQA=",
    "name": "(非營利)桃園市新埔非營利幼兒園(委託社團法人中華民國城鄉形象協會辦理)",
    "type": "spub2"
  },
  {
    "newsch": 1,
    "lat": 25.0187121,
    "lng": 121.3156166,
    "sid": "MAA1ADMAMwAwADAAMAAxADEAMAA=",
    "name": "(非營利)桃園市快樂非營利幼兒園(委託社團法人台灣幼兒早期教育協會辦理)",
    "type": "spub2"
  },
  {
    "newsch": 1,
    "lat": 25.0162038,
    "lng": 121.3138371,
    "sid": "MAA1ADMAMwAwADAAMAAxADEAMAAtADAAMQA=",
    "name": "(非營利)桃園市快樂非營利幼兒園(委託社團法人台灣幼兒早期教育協會辦理)會稽分班",
    "type": "spub2"
  },
  {
    "newsch": 1,
    "lat": 25.0126816,
    "lng": 121.2956041,
    "sid": "MAA1ADMAMwAwADAAMAAxADEAMQA=",
    "name": "(私立)桃園市私立中正藝文幼兒園",
    "type": "spub1"
  },
  {
    "newsch": 1,
    "lat": 25.0148149,
    "lng": 121.295921,
    "sid": "MAA1ADMAMwAwADAAMAAxADEAMgA=",
    "name": "(非營利)桃園市同德非營利幼兒園(委託社團法人桃園市全能多元文教發展協會辦理)",
    "type": "spub2"
  },
  {
    "newsch": 1,
    "lat": 25.0212991,
    "lng": 121.2926002,
    "sid": "MAA1ADMAMwAwADAAMAAxADEAMgAtADAAMQA=",
    "name": "(非營利)桃園市同德非營利幼兒園(委託社團法人桃園市全能多元文教發展協會辦理)莊敬分班",
    "type": "spub2"
  },
  {
    "newsch": 1,
    "lat": 24.9788017,
    "lng": 121.3062703,
    "sid": "MAA1ADMAMwAwADAAMAAxADEAMwA=",
    "name": "(非營利)桃園市建國非營利幼兒園(委託社團法人臺灣亞洲學前教育培訓協會辦理)",
    "type": "spub2"
  },
  {
    "newsch": 1,
    "lat": 25.0090788,
    "lng": 121.3071432,
    "sid": "MAA1ADMAMwAwADAAMAAxADEANAA=",
    "name": "(非營利)桃園市文昌非營利幼兒園(委託財團法人彭婉如文教基金會辦理)",
    "type": "spub2"
  },
  {
    "newsch": 1,
    "lat": 25.0053797,
    "lng": 121.3245468,
    "sid": "MAA1ADMAMwAwADAAMAAxADEANQA=",
    "name": "(準公共)桃園市私立華樂幼兒園",
    "type": "spub3"
  },
  {
    "newsch": 1,
    "lat": 24.9939464,
    "lng": 121.2815997,
    "sid": "MAA1ADMAMwAwADAAMAAxADEANgA=",
    "name": "(非營利)桃園市國強非營利幼兒園(委託財團法人台灣兒童暨家庭扶助基金會辦理)",
    "type": "spub2"
  },
  {
    "newsch": 1,
    "lat": 25.001247,
    "lng": 121.2933225,
    "sid": "MAA1ADMAMwAwADAAMAAxADEANwA=",
    "name": "(私立)桃園市私立風禾日光幼兒園",
    "type": "spub1"
  },
  {
    "newsch": 1,
    "lat": 24.9970176,
    "lng": 121.3187319,
    "sid": "MAA1ADMAMwAwADAAMAAxADEAOAA=",
    "name": "(公立)桃園市立青溪國民中學附設幼兒園",
    "type": "spub0"
  },
  {
    "newsch": 1,
    "lat": 24.9909999,
    "lng": 121.3130067,
    "sid": "MAA1ADMAMwAwADAAMAAxADEAOQA=",
    "name": "(私立)臺灣銀行桃園分行職場互助教保服務中心(委託社團法人桃園市教保服務人員協會辦理)",
    "type": "spub1"
  },
  {
    "newsch": 1,
    "lat": 25.0138111,
    "lng": 121.2865039,
    "sid": "MAA1ADMAMwAwADAAMAAxADIAMAA=",
    "name": "(私立)桃園市中華電信富國職場互助教保服務中心(委託社團法人台灣幼兒早期教育協會辦理)",
    "type": "spub1"
  },
  {
    "newsch": 1,
    "lat": 25.0036078,
    "lng": 121.3217411,
    "sid": "MAA1ADMAMwAwADAAMAAxADIAMQA=",
    "name": "(私立)財政部北區國稅局職場互助教保服務中心(委託社團法人台灣公共托育協會辦理)",
    "type": "spub1"
  },
  {
    "newsch": 1,
    "lat": 25.0059998,
    "lng": 121.3235067,
    "sid": "MAA1ADMAMwAwADAAMAAxADIAMgA=",
    "name": "(私立)憲兵指揮部慈平一村職場互助教保服務中心(委託財團法人彭婉如文教基金會辦理)",
    "type": "spub1"
  },
  {
    "newsch": 1,
    "lat": 24.9933106,
    "lng": 121.2968588,
    "sid": "MAA1ADMAMwAwADAAMAAxADIAMwA=",
    "name": "(私立)行政院農業委員會農田水利署桃園管理處職場互助教保服務中心(委託社團法人桃園市全能多元文教發展協會辦理)",
    "type": "spub1"
  },
  {
    "newsch": 1,
    "lat": 24.9948219,
    "lng": 121.2917492,
    "sid": "MAA1ADMAMwAwADAAMAAxADIANAA=",
    "name": "(私立)臺灣桃園地方檢察署職場互助教保服務中心(委託社團法人中華音樂舞蹈暨表演藝術教育協會辦理)",
    "type": "spub1"
  },
  {
    "newsch": 1,
    "lat": 24.9983963,
    "lng": 121.2887942,
    "sid": "MAA1ADMAMwAwADAAMAAxADIANQA=",
    "name": "(私立)桃園市私立福祿貝爾國際幼兒園",
    "type": "spub1"
  },
  {
    "newsch": 1,
    "lat": 24.989146,
    "lng": 121.305873,
    "sid": "MAA1ADMAMwAwADAAMAAxADIANgA=",
    "name": "(非營利)桃園市復興非營利幼兒園 (委託社團法人桃園市全能多元文教發展協會辦理)",
    "type": "spub2"
  },
  {
    "newsch": 1,
    "lat": 24.9965652,
    "lng": 121.3056913,
    "sid": "MAA1ADMAMwAwADAAMAAxADIANwA=",
    "name": "(非營利)桃園市中福非營利幼兒園 (委託社團法人中華啟幼思學會辦理)",
    "type": "spub2"
  },
  {
    "newsch": 1,
    "lat": 25.0104464,
    "lng": 121.2881268,
    "sid": "MAA1ADMAMwAwADAAMAAxADIAOAA=",
    "name": "(私立)桃園市私立暖暖幼兒園",
    "type": "spub1"
  }
]