[
  {
    "newsch": 1,
    "lat": 24.985752,
    "lng": 121.293768,
    "sid": "MAA1ADMAMwAwADAAMAAwADAAMQA=",
    "name": "(準公共)桃園市私立愛迪生幼兒園",
    "type": "spub3"
  },
  {
    "newsch": 1,
    "lat": 24.977197,
    "lng": 121.320239,
    "sid": "MAA1ADMAMwAwADAAMAAwADAAMwA=",
    "name": "(準公共)桃園市私立慈霖幼兒園",
    "type": "spub3"
  },
  {
    "newsch": 1,
    "lat": 25.018153,
    "lng": 121.30427,
    "sid": "MAA1ADMAMwAwADAAMAAwADAANAA=",
    "name": "(準公共)桃園市私立巴黎幼兒園",
    "type": "spub3"
  },
  {
    "newsch": 1,
    "lat": 25.00058,
    "lng": 121.297269,
    "sid": "MAA1ADMAMwAwADAAMAAwADAANQA=",
    "name": "(私立)桃園市私立康萊爾幼兒園",
    "type": "spub1"
  },
  {
    "newsch": 1,
    "lat": 25.021517,
    "lng": 121.300883,
    "sid": "MAA1ADMAMwAwADAAMAAwADAANgA=",
    "name": "(準公共)桃園市私立山雅幼兒園",
    "type": "spub3"
  },
  {
    "newsch": 1,
    "lat": 24.996236,
    "lng": 121.292829,
    "sid": "MAA1ADMAMwAwADAAMAAwADAANwA=",
    "name": "(私立)桃園市私立多元幼兒園",
    "type": "spub1"
  },
  {
    "newsch": 1,
    "lat": 25.020929,
    "lng": 121.299753,
    "sid": "MAA1ADMAMwAwADAAMAAwADAAOAA=",
    "name": "(私立)桃園市私立瑞恩帝兒幼兒園",
    "type": "spub1"
  },
  {
    "newsch": 1,
    "lat": 24.983497,
    "lng": 121.316401,
    "sid": "MAA1ADMAMwAwADAAMAAwADAAOQA=",
    "name": "(公立)桃園市桃園區建國國民小學附設幼兒園",
    "type": "spub0"
  },
  {
    "newsch": 1,
    "lat": 24.979718,
    "lng": 121.314234,
    "sid": "MAA1ADMAMwAwADAAMAAwADEAMgA=",
    "name": "(準公共)桃園市私立桃人幼兒園",
    "type": "spub3"
  },
  {
    "newsch": 1,
    "lat": 25.013576,
    "lng": 121.314736,
    "sid": "MAA1ADMAMwAwADAAMAAwADEAMwA=",
    "name": "(私立)桃園市私立福華幼兒園",
    "type": "spub1"
  },
  {
    "newsch": 1,
    "lat": 25.007159,
    "lng": 121.30703,
    "sid": "MAA1ADMAMwAwADAAMAAwADEANQA=",
    "name": "(公立)桃園市桃園區北門國民小學附設幼兒園",
    "type": "spub0"
  },
  {
    "newsch": 1,
    "lat": 25.01497,
    "lng": 121.318588,
    "sid": "MAA1ADMAMwAwADAAMAAwADEANgA=",
    "name": "(私立)桃園市私立桃源蒙特梭利幼兒園",
    "type": "spub1"
  },
  {
    "newsch": 1,
    "lat": 24.984229,
    "lng": 121.290127,
    "sid": "MAA1ADMAMwAwADAAMAAwADEANwA=",
    "name": "(準公共)桃園市私立美兒樂幼兒園",
    "type": "spub3"
  },
  {
    "newsch": 1,
    "lat": 24.994015,
    "lng": 121.3026,
    "sid": "MAA1ADMAMwAwADAAMAAwADEAOQA=",
    "name": "(私立)桃園市私立平安幼兒園",
    "type": "spub1"
  },
  {
    "newsch": 1,
    "lat": 24.999812,
    "lng": 121.301979,
    "sid": "MAA1ADMAMwAwADAAMAAwADIAMAA=",
    "name": "(私立)桃園市私立何嘉仁幼兒園",
    "type": "spub1"
  },
  {
    "newsch": 1,
    "lat": 25.010594,
    "lng": 121.299115,
    "sid": "MAA1ADMAMwAwADAAMAAwADIAMQA=",
    "name": "(準公共)桃園市私立童年幼兒園",
    "type": "spub3"
  },
  {
    "newsch": 1,
    "lat": 25.006204,
    "lng": 121.294499,
    "sid": "MAA1ADMAMwAwADAAMAAwADIAMgA=",
    "name": "(私立)桃園市私立華人幼兒園",
    "type": "spub1"
  },
  {
    "newsch": 1,
    "lat": 24.995274,
    "lng": 121.306867,
    "sid": "MAA1ADMAMwAwADAAMAAwADIAMwA=",
    "name": "(準公共)桃園市私立民族幼兒園",
    "type": "spub3"
  },
  {
    "newsch": 1,
    "lat": 24.994731,
    "lng": 121.298062,
    "sid": "MAA1ADMAMwAwADAAMAAwADIANAA=",
    "name": "(準公共)桃園市私立叡稚幼兒園",
    "type": "spub3"
  },
  {
    "newsch": 1,
    "lat": 24.986595,
    "lng": 121.288983,
    "sid": "MAA1ADMAMwAwADAAMAAwADIANQA=",
    "name": "(準公共)桃園市私立普林斯頓幼兒園",
    "type": "spub3"
  },
  {
    "newsch": 1,
    "lat": 25.016276,
    "lng": 121.29353,
    "sid": "MAA1ADMAMwAwADAAMAAwADIANgA=",
    "name": "(私立)桃園市私立人文蒙特梭利幼兒園",
    "type": "spub1"
  },
  {
    "newsch": 1,
    "lat": 25.013309,
    "lng": 121.292301,
    "sid": "MAA1ADMAMwAwADAAMAAwADIAOAA=",
    "name": "(私立)桃園市私立喬幼幼兒園",
    "type": "spub1"
  },
  {
    "newsch": 1,
    "lat": 25.023403,
    "lng": 121.294553,
    "sid": "MAA1ADMAMwAwADAAMAAwADIAOQA=",
    "name": "(準公共)桃園市私立柏克來幼兒園",
    "type": "spub3"
  },
  {
    "newsch": 1,
    "lat": 24.984823,
    "lng": 121.290772,
    "sid": "MAA1ADMAMwAwADAAMAAwADMAMAA=",
    "name": "(準公共)桃園市私立米羅幼兒園",
    "type": "spub3"
  },
  {
    "newsch": 1,
    "lat": 25.025903,
    "lng": 121.297456,
    "sid": "MAA1ADMAMwAwADAAMAAwADMAMQA=",
    "name": "(私立)桃園市私立豐田大郡幼兒園",
    "type": "spub1"
  },
  {
    "newsch": 1,
    "lat": 25.003449,
    "lng": 121.301424,
    "sid": "MAA1ADMAMwAwADAAMAAwADMAMwA=",
    "name": "(準公共)桃園市私立凱莉幼兒園",
    "type": "spub3"
  },
  {
    "newsch": 1,
    "lat": 24.988948,
    "lng": 121.301495,
    "sid": "MAA1ADMAMwAwADAAMAAwADMANAA=",
    "name": "(準公共)桃園市私立托福幼兒園",
    "type": "spub3"
  },
  {
    "newsch": 1,
    "lat": 24.99975,
    "lng": 121.31919,
    "sid": "MAA1ADMAMwAwADAAMAAwADMANQA=",
    "name": "(公立)桃園市桃園區青溪國民小學附設幼兒園",
    "type": "spub0"
  },
  {
    "newsch": 1,
    "lat": 25.019822,
    "lng": 121.289201,
    "sid": "MAA1ADMAMwAwADAAMAAwADMANwA=",
    "name": "(私立)桃園市私立育全幼兒園",
    "type": "spub1"
  },
  {
    "newsch": 1,
    "lat": 24.992774,
    "lng": 121.314032,
    "sid": "MAA1ADMAMwAwADAAMAAwADMAOAA=",
    "name": "(私立)桃園市私立吾師幼兒園",
    "type": "spub1"
  },
  {
    "newsch": 1,
    "lat": 24.99173,
    "lng": 121.293522,
    "sid": "MAA1ADMAMwAwADAAMAAwADMAOQA=",
    "name": "(準公共)桃園市私立育銘幼兒園",
    "type": "spub3"
  },
  {
    "newsch": 1,
    "lat": 25.009647,
    "lng": 121.286374,
    "sid": "MAA1ADMAMwAwADAAMAAwADQAMQA=",
    "name": "(公立)桃園市桃園區中埔國民小學附設幼兒園",
    "type": "spub0"
  },
  {
    "newsch": 1,
    "lat": 25.020284,
    "lng": 121.309059,
    "sid": "MAA1ADMAMwAwADAAMAAwADQAMgA=",
    "name": "(公立)桃園市桃園區會稽國民小學附設幼兒園",
    "type": "spub0"
  },
  {
    "newsch": 1,
    "lat": 24.987291,
    "lng": 121.290299,
    "sid": "MAA1ADMAMwAwADAAMAAwADQAMwA=",
    "name": "(私立)桃園市私立勁草幼兒園",
    "type": "spub1"
  },
  {
    "newsch": 1,
    "lat": 24.995807,
    "lng": 121.295491,
    "sid": "MAA1ADMAMwAwADAAMAAwADQANAA=",
    "name": "(準公共)桃園市私立圓圓幼兒園",
    "type": "spub3"
  },
  {
    "newsch": 1,
    "lat": 24.994395,
    "lng": 121.313524,
    "sid": "MAA1ADMAMwAwADAAMAAwADQANQA=",
    "name": "(準公共)桃園市私立宜欣園幼兒園",
    "type": "spub3"
  },
  {
    "newsch": 1,
    "lat": 24.986549,
    "lng": 121.290179,
    "sid": "MAA1ADMAMwAwADAAMAAwADQAOAA=",
    "name": "(公立)桃園市桃園區中山國民小學附設幼兒園",
    "type": "spub0"
  },
  {
    "newsch": 1,
    "lat": 25.001832,
    "lng": 121.295828,
    "sid": "MAA1ADMAMwAwADAAMAAwADUAMAA=",
    "name": "(公立)桃園市立桃園幼兒園",
    "type": "spub0"
  },
  {
    "newsch": 1,
    "lat": 24.979585,
    "lng": 121.306919,
    "sid": "MAA1ADMAMwAwADAAMAAwADUAMAAtADAAMQA=",
    "name": "(公立)桃園市立桃園幼兒園陽明分班",
    "type": "spub0"
  },
  {
    "newsch": 1,
    "lat": 24.994378,
    "lng": 121.301431,
    "sid": "MAA1ADMAMwAwADAAMAAwADUAMAAtADAAMgA=",
    "name": "(公立)桃園市立桃園幼兒園光興分班",
    "type": "spub0"
  },
  {
    "newsch": 1,
    "lat": 25.017235,
    "lng": 121.301951,
    "sid": "MAA1ADMAMwAwADAAMAAwADUAMAAtADAAMwA=",
    "name": "(公立)桃園市立桃園幼兒園同安分班",
    "type": "spub0"
  },
  {
    "newsch": 1,
    "lat": 25.000622,
    "lng": 121.316133,
    "sid": "MAA1ADMAMwAwADAAMAAwADUAMAAtADAANAA=",
    "name": "(公立)桃園市立桃園幼兒園青溪分班",
    "type": "spub0"
  },
  {
    "newsch": 1,
    "lat": 24.977813,
    "lng": 121.32023,
    "sid": "MAA1ADMAMwAwADAAMAAwADUAMAAtADAANgA=",
    "name": "(公立)桃園市立桃園幼兒園大林分班",
    "type": "spub0"
  },
  {
    "newsch": 1,
    "lat": 24.989688,
    "lng": 121.281036,
    "sid": "MAA1ADMAMwAwADAAMAAwADUAMAAtADAAOAA=",
    "name": "(公立)桃園市立桃園幼兒園龍岡分班",
    "type": "spub0"
  },
  {
    "newsch": 1,
    "lat": 25.019437,
    "lng": 121.29255,
    "sid": "MAA1ADMAMwAwADAAMAAwADUAMAAtADAAOQA=",
    "name": "(公立)桃園市立桃園幼兒園同德分班",
    "type": "spub0"
  },
  {
    "newsch": 1,
    "lat": 24.999538,
    "lng": 121.316839,
    "sid": "MAA1ADMAMwAwADAAMAAwADUAMQA=",
    "name": "(私立)桃園市私立劍橋幼兒園",
    "type": "spub1"
  },
  {
    "newsch": 1,
    "lat": 24.9852,
    "lng": 121.292904,
    "sid": "MAA1ADMAMwAwADAAMAAwADUAMgA=",
    "name": "(準公共)桃園市私立金向日葵幼兒園",
    "type": "spub3"
  },
  {
    "newsch": 1,
    "lat": 25.017696,
    "lng": 121.310836,
    "sid": "MAA1ADMAMwAwADAAMAAwADUAMwA=",
    "name": "(準公共)桃園市私立愛麗絲幼兒園",
    "type": "spub3"
  },
  {
    "newsch": 1,
    "lat": 24.978794,
    "lng": 121.305029,
    "sid": "MAA1ADMAMwAwADAAMAAwADUANQA=",
    "name": "(準公共)桃園市私立漢洋幼兒園",
    "type": "spub3"
  },
  {
    "newsch": 1,
    "lat": 24.986234,
    "lng": 121.291785,
    "sid": "MAA1ADMAMwAwADAAMAAwADUANgA=",
    "name": "(準公共)桃園市私立新發現幼兒園",
    "type": "spub3"
  },
  {
    "newsch": 1,
    "lat": 24.991234,
    "lng": 121.309674,
    "sid": "MAA1ADMAMwAwADAAMAAwADUANwA=",
    "name": "(公立)桃園市桃園區桃園國民小學附設幼兒園",
    "type": "spub0"
  },
  {
    "newsch": 1,
    "lat": 25.009599,
    "lng": 121.314034,
    "sid": "MAA1ADMAMwAwADAAMAAwADUAOQA=",
    "name": "(私立)桃園市私立小森林幼兒園",
    "type": "spub1"
  },
  {
    "newsch": 1,
    "lat": 24.990043,
    "lng": 121.290029,
    "sid": "MAA1ADMAMwAwADAAMAAwADYAMAA=",
    "name": "(準公共)桃園市私立大賞蒙特梭利幼兒園",
    "type": "spub3"
  },
  {
    "newsch": 1,
    "lat": 24.985482,
    "lng": 121.289189,
    "sid": "MAA1ADMAMwAwADAAMAAwADYAMQA=",
    "name": "(準公共)桃園市私立國際長頸鹿幼兒園",
    "type": "spub3"
  },
  {
    "newsch": 1,
    "lat": 25.006367,
    "lng": 121.320597,
    "sid": "MAA1ADMAMwAwADAAMAAwADYAMgA=",
    "name": "(準公共)桃園市私立歸真幼兒園",
    "type": "spub3"
  },
  {
    "newsch": 1,
    "lat": 25.013214,
    "lng": 121.310097,
    "sid": "MAA1ADMAMwAwADAAMAAwADYAMwA=",
    "name": "(準公共)桃園市私立頂好幼兒園",
    "type": "spub3"
  },
  {
    "newsch": 1,
    "lat": 25.020598,
    "lng": 121.304194,
    "sid": "MAA1ADMAMwAwADAAMAAwADYANAA=",
    "name": "(私立)桃園市私立歡樂童年幼兒園",
    "type": "spub1"
  },
  {
    "newsch": 1,
    "lat": 24.998735,
    "lng": 121.303978,
    "sid": "MAA1ADMAMwAwADAAMAAwADYANgA=",
    "name": "(準公共)桃園市私立百銘幼兒園",
    "type": "spub3"
  },
  {
    "newsch": 1,
    "lat": 25.000711,
    "lng": 121.308961,
    "sid": "MAA1ADMAMwAwADAAMAAwADYANwA=",
    "name": "(準公共)桃園市私立童安園幼兒園",
    "type": "spub3"
  },
  {
    "newsch": 1,
    "lat": 24.988214,
    "lng": 121.293846,
    "sid": "MAA1ADMAMwAwADAAMAAwADcAMAA=",
    "name": "(準公共)桃園市私立幼華幼兒園",
    "type": "spub3"
  },
  {
    "newsch": 1,
    "lat": 25.021623,
    "lng": 121.30306,
    "sid": "MAA1ADMAMwAwADAAMAAwADcAMQA=",
    "name": "(私立)桃園市私立華葳幼兒園",
    "type": "spub1"
  },
  {
    "newsch": 1,
    "lat": 24.993247,
    "lng": 121.305789,
    "sid": "MAA1ADMAMwAwADAAMAAwADcAMgA=",
    "name": "(準公共)桃園市私立巨茂幼兒園",
    "type": "spub3"
  },
  {
    "newsch": 1,
    "lat": 24.999011,
    "lng": 121.317222,
    "sid": "MAA1ADMAMwAwADAAMAAwADcAMwA=",
    "name": "(準公共)桃園市私立格利佛幼兒園",
    "type": "spub3"
  },
  {
    "newsch": 1,
    "lat": 24.996734,
    "lng": 121.323405,
    "sid": "MAA1ADMAMwAwADAAMAAwADcANwA=",
    "name": "(私立)財團法人天主教德來會附設桃園市私立德來幼兒園",
    "type": "spub1"
  },
  {
    "newsch": 1,
    "lat": 25.011433,
    "lng": 121.315111,
    "sid": "MAA1ADMAMwAwADAAMAAwADcAOAA=",
    "name": "(私立)桃園市私立大業幼兒園",
    "type": "spub1"
  },
  {
    "newsch": 1,
    "lat": 24.995398,
    "lng": 121.314756,
    "sid": "MAA1ADMAMwAwADAAMAAwADcAOQA=",
    "name": "(公立)桃園市桃園區東門國民小學附設幼兒園",
    "type": "spub0"
  },
  {
    "newsch": 1,
    "lat": 25.017842,
    "lng": 121.310696,
    "sid": "MAA1ADMAMwAwADAAMAAwADgAMAA=",
    "name": "(準公共)桃園市私立松果幼兒園",
    "type": "spub3"
  },
  {
    "newsch": 1,
    "lat": 25.015037,
    "lng": 121.319811,
    "sid": "MAA1ADMAMwAwADAAMAAwADgAMwA=",
    "name": "(私立)桃園市私立安和幼兒園",
    "type": "spub1"
  },
  {
    "newsch": 1,
    "lat": 24.989667,
    "lng": 121.303159,
    "sid": "MAA1ADMAMwAwADAAMAAwADgANQA=",
    "name": "(私立)桃園市私立東東幼兒園",
    "type": "spub1"
  },
  {
    "newsch": 1,
    "lat": 24.982467,
    "lng": 121.309931,
    "sid": "MAA1ADMAMwAwADAAMAAwADgANgA=",
    "name": "(私立)財團法人台灣省天主教會新竹教區附設桃園市私立貞德幼兒園",
    "type": "spub1"
  },
  {
    "newsch": 1,
    "lat": 24.989402,
    "lng": 121.290568,
    "sid": "MAA1ADMAMwAwADAAMAAwADgANwA=",
    "name": "(非營利)桃園市中路非營利幼兒園(委託社團法人臺灣優質兒童教育發展協會辦理)",
    "type": "spub2"
  },
  {
    "newsch": 1,
    "lat": 24.979398,
    "lng": 121.270093,
    "sid": "MAA1ADMAMwAwADAAMAAwADgAOAA=",
    "name": "(非營利)桃園市龍祥非營利幼兒園(委託財團法人三之三生命教育基金會辦理)",
    "type": "spub2"
  },
  {
    "newsch": 1,
    "lat": 25.021952,
    "lng": 121.298404,
    "sid": "MAA1ADMAMwAwADAAMAAwADgAOQA=",
    "name": "(公立)桃園市桃園區同安國民小學附設幼兒園",
    "type": "spub0"
  },
  {
    "newsch": 1,
    "lat": 25.013347,
    "lng": 121.319138,
    "sid": "MAA1ADMAMwAwADAAMAAwADkAMAA=",
    "name": "(準公共)桃園市私立立人蒙特梭利幼兒園",
    "type": "spub3"
  },
  {
    "newsch": 1,
    "lat": 25.011604,
    "lng": 121.299192,
    "sid": "MAA1ADMAMwAwADAAMAAwADkAMQA=",
    "name": "(私立)桃園市私立快樂傌麗安幼兒園",
    "type": "spub1"
  },
  {
    "newsch": 1,
    "lat": 25.011452,
    "lng": 121.298934,
    "sid": "MAA1ADMAMwAwADAAMAAwADkAMgA=",
    "name": "(準公共)桃園市私立宜禾幼兒園",
    "type": "spub3"
  },
  {
    "newsch": 1,
    "lat": 25.006833,
    "lng": 121.304877,
    "sid": "MAA1ADMAMwAwADAAMAAwADkAMwA=",
    "name": "(準公共)桃園市私立長迪幼兒園",
    "type": "spub3"
  },
  {
    "newsch": 1,
    "lat": 25.008257,
    "lng": 121.296352,
    "sid": "MAA1ADMAMwAwADAAMAAwADkANAA=",
    "name": "(私立)桃園市私立雅比思幼兒園",
    "type": "spub1"
  },
  {
    "newsch": 1,
    "lat": 25.014272,
    "lng": 121.317437,
    "sid": "MAA1ADMAMwAwADAAMAAwADkANQA=",
    "name": "(私立)桃園市私立朵朵幼兒園",
    "type": "spub1"
  },
  {
    "newsch": 1,
    "lat": 24.977264,
    "lng": 121.315318,
    "sid": "MAA1ADMAMwAwADAAMAAwADkANgA=",
    "name": "(公立)桃園市桃園區建德國民小學附設幼兒園",
    "type": "spub0"
  },
  {
    "newsch": 1,
    "lat": 24.988902,
    "lng": 121.304211,
    "sid": "MAA1ADMAMwAwADAAMAAwADkANwA=",
    "name": "(公立)桃園市桃園區南門國民小學附設幼兒園",
    "type": "spub0"
  },
  {
    "newsch": 1,
    "lat": 24.977662,
    "lng": 121.318721,
    "sid": "MAA1ADMAMwAwADAAMAAwADkAOAA=",
    "name": "(準公共)桃園市私立希望城堡幼兒園",
    "type": "spub3"
  },
  {
    "newsch": 1,
    "lat": 24.977256,
    "lng": 121.316247,
    "sid": "MAA1ADMAMwAwADAAMAAwADkAOQA=",
    "name": "(私立)桃園市私立衛理幼兒園",
    "type": "spub1"
  },
  {
    "newsch": 1,
    "lat": 24.998473,
    "lng": 121.307279,
    "sid": "MAA1ADMAMwAwADAAMAAxADAAMAA=",
    "name": "(公立)桃園市桃園區成功國民小學附設幼兒園",
    "type": "spub0"
  },
  {
    "newsch": 1,
    "lat": 25.012763,
    "lng": 121.30423,
    "sid": "MAA1ADMAMwAwADAAMAAxADAAMQA=",
    "name": "(公立)桃園市桃園區慈文國民小學附設幼兒園",
    "type": "spub0"
  },
  {
    "newsch": 1,
    "lat": 25.030651,
    "lng": 121.284054,
    "sid": "MAA1ADMAMwAwADAAMAAxADAAMgA=",
    "name": "(私立)桃園市私立茶米花田幼兒園",
    "type": "spub1"
  },
  {
    "newsch": 1,
    "lat": 24.996395,
    "lng": 121.291882,
    "sid": "MAA1ADMAMwAwADAAMAAxADAAMwA=",
    "name": "(公立)桃園市桃園區文山國民小學附設幼兒園",
    "type": "spub0"
  },
  {
    "newsch": 1,
    "lat": 24.994892,
    "lng": 121.304018,
    "sid": "MAA1ADMAMwAwADAAMAAxADAANAA=",
    "name": "(公立)桃園市桃園區西門國民小學附設幼兒園",
    "type": "spub0"
  },
  {
    "newsch": 1,
    "lat": 25.008907,
    "lng": 121.320522,
    "sid": "MAA1ADMAMwAwADAAMAAxADAANQA=",
    "name": "(非營利)桃園市大有非營利幼兒園(委託財團法人彭婉如文教基金會辦理)",
    "type": "spub2"
  },
  {
    "newsch": 1,
    "lat": 25.021813,
    "lng": 121.304074,
    "sid": "MAA1ADMAMwAwADAAMAAxADAANwA=",
    "name": "(非營利)桃園市經國非營利幼兒園(委託財團法人三之三生命教育基金會辦理)",
    "type": "spub2"
  },
  {
    "newsch": 1,
    "lat": 25.009297,
    "lng": 121.319552,
    "sid": "MAA1ADMAMwAwADAAMAAxADAANwAtADAAMQA=",
    "name": "(非營利)桃園市經國非營利幼兒園(委託財團法人三之三生命教育基金會辦理)大有分班",
    "type": "spub2"
  },
  {
    "newsch": 1,
    "lat": 25.008337,
    "lng": 121.296979,
    "sid": "MAA1ADMAMwAwADAAMAAxADAANwAtADAAMgA=",
    "name": "(非營利)桃園市經國非營利幼兒園(委託財團法人三之三生命教育基金會辦理)永順分班",
    "type": "spub2"
  },
  {
    "newsch": 1,
    "lat": 24.975114,
    "lng": 121.310972,
    "sid": "MAA1ADMAMwAwADAAMAAxADAAOAA=",
    "name": "(私立)桃園市私立欣田幼兒園",
    "type": "spub1"
  },
  {
    "newsch": 1,
    "lat": 25.017876,
    "lng": 121.306663,
    "sid": "MAA1ADMAMwAwADAAMAAxADAAOQA=",
    "name": "(非營利)桃園市新埔非營利幼兒園(委託社團法人中華啟幼思學會辦理)",
    "type": "spub2"
  },
  {
    "newsch": 1,
    "lat": 25.01873,
    "lng": 121.315464,
    "sid": "MAA1ADMAMwAwADAAMAAxADEAMAA=",
    "name": "(非營利)桃園市快樂非營利幼兒園(委託社團法人台灣幼兒早期教育協會辦理)",
    "type": "spub2"
  },
  {
    "newsch": 1,
    "lat": 25.016419,
    "lng": 121.314159,
    "sid": "MAA1ADMAMwAwADAAMAAxADEAMAAtADAAMQA=",
    "name": "(非營利)桃園市快樂非營利幼兒園(委託社團法人台灣幼兒早期教育協會辦理)會稽分班",
    "type": "spub2"
  },
  {
    "newsch": 1,
    "lat": 25.012952,
    "lng": 121.295804,
    "sid": "MAA1ADMAMwAwADAAMAAxADEAMQA=",
    "name": "(私立)桃園市私立中正藝文幼兒園",
    "type": "spub1"
  },
  {
    "newsch": 1,
    "lat": 25.014841,
    "lng": 121.296258,
    "sid": "MAA1ADMAMwAwADAAMAAxADEAMgA=",
    "name": "(非營利)桃園市同德非營利幼兒園(委託社團法人桃園市全能多元文教發展協會辦理)",
    "type": "spub2"
  },
  {
    "newsch": 1,
    "lat": 25.021126,
    "lng": 121.292969,
    "sid": "MAA1ADMAMwAwADAAMAAxADEAMgAtADAAMQA=",
    "name": "(非營利)桃園市同德非營利幼兒園(委託社團法人桃園市全能多元文教發展協會辦理)莊敬分班",
    "type": "spub2"
  },
  {
    "newsch": 1,
    "lat": 24.976825,
    "lng": 121.306322,
    "sid": "MAA1ADMAMwAwADAAMAAxADEAMwA=",
    "name": "(非營利)桃園市建國非營利幼兒園(委託社團法人臺灣亞洲學前教育培訓協會辦理)",
    "type": "spub2"
  },
  {
    "newsch": 1,
    "lat": 25.009579,
    "lng": 121.307234,
    "sid": "MAA1ADMAMwAwADAAMAAxADEANAA=",
    "name": "(非營利)桃園市文昌非營利幼兒園(委託財團法人彭婉如文教基金會辦理)",
    "type": "spub2"
  },
  {
    "newsch": 1,
    "lat": 25.005386,
    "lng": 121.324508,
    "sid": "MAA1ADMAMwAwADAAMAAxADEANQA=",
    "name": "(準公共)桃園市私立華樂幼兒園",
    "type": "spub3"
  },
  {
    "newsch": 1,
    "lat": 24.993876,
    "lng": 121.281859,
    "sid": "MAA1ADMAMwAwADAAMAAxADEANgA=",
    "name": "(非營利)桃園市國強非營利幼兒園(委託財團法人台灣兒童暨家庭扶助基金會辦理)",
    "type": "spub2"
  },
  {
    "newsch": 1,
    "lat": 25.001416,
    "lng": 121.293508,
    "sid": "MAA1ADMAMwAwADAAMAAxADEANwA=",
    "name": "(私立)桃園市私立風禾日光幼兒園",
    "type": "spub1"
  },
  {
    "newsch": 1,
    "lat": 24.997018,
    "lng": 121.318732,
    "sid": "MAA1ADMAMwAwADAAMAAxADEAOAA=",
    "name": "(公立)桃園市立青溪國民中學附設幼兒園",
    "type": "spub0"
  },
  {
    "newsch": 1,
    "lat": 24.991064,
    "lng": 121.313579,
    "sid": "MAA1ADMAMwAwADAAMAAxADEAOQA=",
    "name": "(私立)臺灣銀行桃園分行職場互助教保服務中心(委託社團法人桃園市教保服務人員協會辦理)",
    "type": "spub1"
  },
  {
    "newsch": 1,
    "lat": 25.014095,
    "lng": 121.286332,
    "sid": "MAA1ADMAMwAwADAAMAAxADIAMAA=",
    "name": "(私立)桃園市中華電信富國職場互助教保服務中心(委託社團法人台灣幼兒早期教育協會辦理)",
    "type": "spub1"
  },
  {
    "newsch": 1,
    "lat": 25.003762,
    "lng": 121.321926,
    "sid": "MAA1ADMAMwAwADAAMAAxADIAMQA=",
    "name": "(私立)財政部北區國稅局職場互助教保服務中心(委託社團法人台灣公共托育協會辦理)",
    "type": "spub1"
  },
  {
    "newsch": 1,
    "lat": 25.005936,
    "lng": 121.323574,
    "sid": "MAA1ADMAMwAwADAAMAAxADIAMgA=",
    "name": "(私立)憲兵指揮部慈平一村職場互助教保服務中心(委託財團法人彭婉如文教基金會辦理)",
    "type": "spub1"
  },
  {
    "newsch": 1,
    "lat": 24.99349,
    "lng": 121.297714,
    "sid": "MAA1ADMAMwAwADAAMAAxADIAMwA=",
    "name": "(私立)農業部農田水利署桃園管理處職場互助教保服務中心（委託社團法人桃園市全能多元文教發展協會辦理）",
    "type": "spub1"
  },
  {
    "newsch": 1,
    "lat": 24.994917,
    "lng": 121.291626,
    "sid": "MAA1ADMAMwAwADAAMAAxADIANAA=",
    "name": "(私立)臺灣桃園地方檢察署職場互助教保服務中心(委託社團法人中華音樂舞蹈暨表演藝術教育協會辦理)",
    "type": "spub1"
  },
  {
    "newsch": 1,
    "lat": 24.998167,
    "lng": 121.288966,
    "sid": "MAA1ADMAMwAwADAAMAAxADIANQA=",
    "name": "(私立)桃園市私立福祿貝爾國際幼兒園",
    "type": "spub1"
  },
  {
    "newsch": 1,
    "lat": 24.98894,
    "lng": 121.305898,
    "sid": "MAA1ADMAMwAwADAAMAAxADIANgA=",
    "name": "(非營利)桃園市復興非營利幼兒園(委託社團法人桃園市全能多元文教發展協會辦理)",
    "type": "spub2"
  },
  {
    "newsch": 1,
    "lat": 24.9966,
    "lng": 121.305821,
    "sid": "MAA1ADMAMwAwADAAMAAxADIANwA=",
    "name": "(非營利)桃園市中福非營利幼兒園(委託社團法人中華啟幼思學會辦理)",
    "type": "spub2"
  },
  {
    "newsch": 1,
    "lat": 25.010558,
    "lng": 121.28815,
    "sid": "MAA1ADMAMwAwADAAMAAxADIAOAA=",
    "name": "(準公共)桃園市私立暖暖幼兒園",
    "type": "spub3"
  },
  {
    "newsch": 1,
    "lat": 25.004871,
    "lng": 121.288909,
    "sid": "MAA1ADMAMwAwADAAMAAxADIAOQA=",
    "name": "(私立)桃園市私立韋爾斯利幼兒園",
    "type": "spub1"
  },
  {
    "newsch": 1,
    "lat": 25.01295809,
    "lng": 121.32076954,
    "sid": "MAA1ADMAMwAwADAAMAAxADMAMAA=",
    "name": "(非營利)桃園市梯田非營利幼兒園(委託財團法人彭婉如文教基金會辦理)",
    "type": "spub2"
  },
  {
    "newsch": 1,
    "lat": 25.008021,
    "lng": 121.287269,
    "sid": "MAA1ADMAMwAwADAAMAAxADMAMQA=",
    "name": "(非營利)桃園市中埔非營利幼兒園(委託社團法人向日葵教育文化協會辦理)",
    "type": "spub2"
  },
  {
    "newsch": 1,
    "lat": 24.99737119,
    "lng": 121.32509581,
    "sid": "MAA1ADMAMwAwADAAMAAxADMAMgA=",
    "name": "(非營利)桃園市三聖非營利幼兒園(委託社團法人臺灣三之三生命教育學會辦理)",
    "type": "spub2"
  },
  {
    "newsch": 1,
    "lat": 24.986985,
    "lng": 121.290127,
    "sid": "MAA1ADMAMwAwADAAMAAxADMAMwA=",
    "name": "(私立)桃園市私立福祿貝爾勁草幼兒園",
    "type": "spub1"
  },
  {
    "newsch": 1,
    "lat": 24.99403,
    "lng": 121.300333,
    "sid": "MAA1ADMAMwAwADAAMAAxADMANAA=",
    "name": "(非營利)桃園市政府員工子女非營利幼兒園(委託社團法人臺灣三之三生命教育學會辦理)",
    "type": "spub2"
  }
]