[
  {
    "newsch": 1,
    "lat": 25.021921,
    "lng": 121.265806,
    "sid": "MAA1ADMAMwA4ADAAMAAwADAAMQA=",
    "name": "(私立)桃園市私立維妮兒幼兒園",
    "type": "spub1"
  },
  {
    "newsch": 1,
    "lat": 25.044633,
    "lng": 121.290041,
    "sid": "MAA1ADMAMwA4ADAAMAAwADAAMwA=",
    "name": "(準公共)桃園市私立立得幼兒園",
    "type": "spub3"
  },
  {
    "newsch": 1,
    "lat": 25.040694,
    "lng": 121.286976,
    "sid": "MAA1ADMAMwA4ADAAMAAwADAANAA=",
    "name": "(準公共)桃園市私立方圓幼兒園",
    "type": "spub3"
  },
  {
    "newsch": 1,
    "lat": 25.053778,
    "lng": 121.301839,
    "sid": "MAA1ADMAMwA4ADAAMAAwADAANQA=",
    "name": "(私立)桃園市私立晨鐘幼兒園",
    "type": "spub1"
  },
  {
    "newsch": 1,
    "lat": 25.043893,
    "lng": 121.295926,
    "sid": "MAA1ADMAMwA4ADAAMAAwADAANgA=",
    "name": "(私立)桃園市私立長欣幼兒園",
    "type": "spub1"
  },
  {
    "newsch": 1,
    "lat": 25.039874,
    "lng": 121.291482,
    "sid": "MAA1ADMAMwA4ADAAMAAwADAANwA=",
    "name": "(私立)桃園市私立春天幼兒園",
    "type": "spub1"
  },
  {
    "newsch": 1,
    "lat": 25.035693,
    "lng": 121.252105,
    "sid": "MAA1ADMAMwA4ADAAMAAwADAAOAA=",
    "name": "(私立)桃園市私立芳棋幼兒園",
    "type": "spub1"
  },
  {
    "newsch": 1,
    "lat": 25.047732,
    "lng": 121.291132,
    "sid": "MAA1ADMAMwA4ADAAMAAwADEAMAA=",
    "name": "(準公共)桃園市私立桃園維多利亞幼兒園",
    "type": "spub3"
  },
  {
    "newsch": 1,
    "lat": 25.0529,
    "lng": 121.294367,
    "sid": "MAA1ADMAMwA4ADAAMAAwADEAMQA=",
    "name": "(準公共)桃園市私立康橋幼兒園",
    "type": "spub3"
  },
  {
    "newsch": 1,
    "lat": 25.006046,
    "lng": 121.266318,
    "sid": "MAA1ADMAMwA4ADAAMAAwADEAMgA=",
    "name": "(準公共)桃園市私立惠思頓幼兒園",
    "type": "spub3"
  },
  {
    "newsch": 1,
    "lat": 25.044896,
    "lng": 121.289691,
    "sid": "MAA1ADMAMwA4ADAAMAAwADEAMwA=",
    "name": "(私立)桃園市私立快樂營幼兒園",
    "type": "spub1"
  },
  {
    "newsch": 1,
    "lat": 25.026142,
    "lng": 121.259895,
    "sid": "MAA1ADMAMwA4ADAAMAAwADEANAA=",
    "name": "(公立)桃園市立蘆竹幼兒園南竹分班",
    "type": "spub0"
  },
  {
    "newsch": 1,
    "lat": 25.024126,
    "lng": 121.248867,
    "sid": "MAA1ADMAMwA4ADAAMAAwADEANAAtADAAMwA=",
    "name": "(公立)桃園市立蘆竹幼兒園新莊分班",
    "type": "spub0"
  },
  {
    "newsch": 1,
    "lat": 25.024373,
    "lng": 121.261459,
    "sid": "MAA1ADMAMwA4ADAAMAAwADEANAAtADAANAA=",
    "name": "(公立)桃園市立蘆竹幼兒園上竹分班",
    "type": "spub0"
  },
  {
    "newsch": 1,
    "lat": 25.044383,
    "lng": 121.28668,
    "sid": "MAA1ADMAMwA4ADAAMAAwADEANAAtADAANgA=",
    "name": "(公立)桃園市立南崁幼兒園南興分班",
    "type": "spub0"
  },
  {
    "newsch": 1,
    "lat": 25.042744,
    "lng": 121.293262,
    "sid": "MAA1ADMAMwA4ADAAMAAwADEANAAtADAAOAA=",
    "name": "(公立)桃園市立南崁幼兒園南榮分班",
    "type": "spub0"
  },
  {
    "newsch": 1,
    "lat": 25.087991,
    "lng": 121.281163,
    "sid": "MAA1ADMAMwA4ADAAMAAwADEANQA=",
    "name": "(準公共)桃園市私立蜻蜓幼兒園",
    "type": "spub3"
  },
  {
    "newsch": 1,
    "lat": 25.048016,
    "lng": 121.289028,
    "sid": "MAA1ADMAMwA4ADAAMAAwADEANgA=",
    "name": "(私立)桃園市私立福祿貝爾幼兒園",
    "type": "spub1"
  },
  {
    "newsch": 1,
    "lat": 25.054683,
    "lng": 121.296067,
    "sid": "MAA1ADMAMwA4ADAAMAAwADEANwA=",
    "name": "(私立)桃園市私立溫馨園幼兒園",
    "type": "spub1"
  },
  {
    "newsch": 1,
    "lat": 25.034405,
    "lng": 121.284984,
    "sid": "MAA1ADMAMwA4ADAAMAAwADEAOQA=",
    "name": "(私立)桃園市私立瑞恩帝兒南竹幼兒園",
    "type": "spub1"
  },
  {
    "newsch": 1,
    "lat": 25.02184,
    "lng": 121.260728,
    "sid": "MAA1ADMAMwA4ADAAMAAwADIAMQA=",
    "name": "(私立)桃園市私立蔚霖幼兒園",
    "type": "spub1"
  },
  {
    "newsch": 1,
    "lat": 25.008307,
    "lng": 121.264901,
    "sid": "MAA1ADMAMwA4ADAAMAAwADIAMgA=",
    "name": "(公立)桃園市蘆竹區新興國民小學附設幼兒園",
    "type": "spub0"
  },
  {
    "newsch": 1,
    "lat": 25.051789,
    "lng": 121.298106,
    "sid": "MAA1ADMAMwA4ADAAMAAwADIAMwA=",
    "name": "(準公共)桃園市私立蘆竹小天使幼兒園",
    "type": "spub3"
  },
  {
    "newsch": 1,
    "lat": 25.106675,
    "lng": 121.257823,
    "sid": "MAA1ADMAMwA4ADAAMAAwADIANAA=",
    "name": "(準公共)桃園市私立愛佳幼兒園",
    "type": "spub3"
  },
  {
    "newsch": 1,
    "lat": 25.054185,
    "lng": 121.296015,
    "sid": "MAA1ADMAMwA4ADAAMAAwADIANwA=",
    "name": "(私立)桃園市私立小朋友幼兒園",
    "type": "spub1"
  },
  {
    "newsch": 1,
    "lat": 25.05119,
    "lng": 121.295889,
    "sid": "MAA1ADMAMwA4ADAAMAAwADIAOAA=",
    "name": "(準公共)桃園市私立華納幼兒園",
    "type": "spub3"
  },
  {
    "newsch": 1,
    "lat": 25.018432,
    "lng": 121.263275,
    "sid": "MAA1ADMAMwA4ADAAMAAwADIAOQA=",
    "name": "(私立)桃園市私立格林幼兒園",
    "type": "spub1"
  },
  {
    "newsch": 1,
    "lat": 25.084376,
    "lng": 121.292252,
    "sid": "MAA1ADMAMwA4ADAAMAAwADMAMAA=",
    "name": "(私立)桃園市私立安德笙幼兒園",
    "type": "spub1"
  },
  {
    "newsch": 1,
    "lat": 24.992425,
    "lng": 121.274088,
    "sid": "MAA1ADMAMwA4ADAAMAAwADMAMgA=",
    "name": "(準公共)桃園市私立育佳幼兒園",
    "type": "spub3"
  },
  {
    "newsch": 1,
    "lat": 25.057837,
    "lng": 121.296618,
    "sid": "MAA1ADMAMwA4ADAAMAAwADMANgA=",
    "name": "(私立)桃園市私立嘉仁幼兒園",
    "type": "spub1"
  },
  {
    "newsch": 1,
    "lat": 25.022969,
    "lng": 121.253736,
    "sid": "MAA1ADMAMwA4ADAAMAAwADMANwA=",
    "name": "(準公共)桃園市私立日愛幼兒園",
    "type": "spub3"
  },
  {
    "newsch": 1,
    "lat": 25.03672,
    "lng": 121.285634,
    "sid": "MAA1ADMAMwA4ADAAMAAwADMAOAA=",
    "name": "(私立)桃園市私立衛斯理幼兒園",
    "type": "spub1"
  },
  {
    "newsch": 1,
    "lat": 25.049991,
    "lng": 121.295694,
    "sid": "MAA1ADMAMwA4ADAAMAAwADMAOQA=",
    "name": "(準公共)桃園市私立家家幼兒園",
    "type": "spub3"
  },
  {
    "newsch": 1,
    "lat": 25.039151,
    "lng": 121.29097,
    "sid": "MAA1ADMAMwA4ADAAMAAwADQAMAA=",
    "name": "(準公共)桃園市私立信華幼兒園",
    "type": "spub3"
  },
  {
    "newsch": 1,
    "lat": 25.050948,
    "lng": 121.301007,
    "sid": "MAA1ADMAMwA4ADAAMAAwADQAMQA=",
    "name": "(公立)桃園市蘆竹區南崁國民小學附設幼兒園",
    "type": "spub0"
  },
  {
    "newsch": 1,
    "lat": 25.055812,
    "lng": 121.297106,
    "sid": "MAA1ADMAMwA4ADAAMAAwADQAMwA=",
    "name": "(私立)桃園市私立玫瑰莊園幼兒園",
    "type": "spub1"
  },
  {
    "newsch": 1,
    "lat": 25.088553,
    "lng": 121.287641,
    "sid": "MAA1ADMAMwA4ADAAMAAwADQANAA=",
    "name": "(公立)桃園市蘆竹區山腳國民小學附設幼兒園",
    "type": "spub0"
  },
  {
    "newsch": 1,
    "lat": 25.102279,
    "lng": 121.267306,
    "sid": "MAA1ADMAMwA4ADAAMAAwADQANQA=",
    "name": "(公立)桃園市蘆竹區海湖國民小學附設幼兒園",
    "type": "spub0"
  },
  {
    "newsch": 1,
    "lat": 25.019913,
    "lng": 121.267322,
    "sid": "MAA1ADMAMwA4ADAAMAAwADQANgA=",
    "name": "(公立)桃園市立蘆竹幼兒園",
    "type": "spub0"
  },
  {
    "newsch": 1,
    "lat": 25.019828,
    "lng": 121.257249,
    "sid": "MAA1ADMAMwA4ADAAMAAwADQAOAA=",
    "name": "(準公共)桃園市私立囿柔幼兒園",
    "type": "spub3"
  },
  {
    "newsch": 1,
    "lat": 24.990957,
    "lng": 121.273208,
    "sid": "MAA1ADMAMwA4ADAAMAAwADQAOQA=",
    "name": "(公立)桃園市蘆竹區龍安國民小學附設幼兒園",
    "type": "spub0"
  },
  {
    "newsch": 1,
    "lat": 25.050945,
    "lng": 121.268291,
    "sid": "MAA1ADMAMwA4ADAAMAAwADUAMAA=",
    "name": "(公立)桃園市蘆竹區蘆竹國民小學附設幼兒園",
    "type": "spub0"
  },
  {
    "newsch": 1,
    "lat": 25.039407,
    "lng": 121.254438,
    "sid": "MAA1ADMAMwA4ADAAMAAwADUAMQA=",
    "name": "(公立)桃園市蘆竹區大華國民小學附設幼兒園",
    "type": "spub0"
  },
  {
    "newsch": 1,
    "lat": 25.046705,
    "lng": 121.289697,
    "sid": "MAA1ADMAMwA4ADAAMAAwADUAMgA=",
    "name": "(公立)桃園市蘆竹區錦興國民小學附設幼兒園",
    "type": "spub0"
  },
  {
    "newsch": 1,
    "lat": 25.022794,
    "lng": 121.258566,
    "sid": "MAA1ADMAMwA4ADAAMAAwADUAMwA=",
    "name": "(公立)桃園市立大竹國民中學附設幼兒園",
    "type": "spub0"
  },
  {
    "newsch": 1,
    "lat": 25.051216,
    "lng": 121.291159,
    "sid": "MAA1ADMAMwA4ADAAMAAwADUANAA=",
    "name": "(公立)桃園市立南崁幼兒園",
    "type": "spub0"
  },
  {
    "newsch": 1,
    "lat": 25.071812,
    "lng": 121.285966,
    "sid": "MAA1ADMAMwA4ADAAMAAwADUANQA=",
    "name": "(公立)桃園市蘆竹區公埔國民小學附設幼兒園",
    "type": "spub0"
  },
  {
    "newsch": 1,
    "lat": 25.077854,
    "lng": 121.320332,
    "sid": "MAA1ADMAMwA4ADAAMAAwADUANgA=",
    "name": "(公立)桃園市蘆竹區頂社國民小學附設幼兒園",
    "type": "spub0"
  },
  {
    "newsch": 1,
    "lat": 25.082035,
    "lng": 121.306631,
    "sid": "MAA1ADMAMwA4ADAAMAAwADUANwA=",
    "name": "(非營利)桃園市外社非營利幼兒園（委託財團法人慈心兒童教育基金會辦理）",
    "type": "spub2"
  },
  {
    "newsch": 1,
    "lat": 25.058572,
    "lng": 121.296353,
    "sid": "MAA1ADMAMwA4ADAAMAAwADUAOAA=",
    "name": "(非營利)桃園市中山非營利幼兒園(委託社團法人臺灣優質兒童教育發展協會辦理)",
    "type": "spub2"
  }
]