[
  {
    "newsch": 1,
    "lat": 24.570089,
    "lng": 120.816818,
    "sid": "MAA4ADMANgAwADAAMAAwADAAMQA=",
    "name": "(準公共)苗栗縣私立芝蔴街幼兒園",
    "type": "spub3"
  },
  {
    "newsch": 1,
    "lat": 24.573635,
    "lng": 120.832264,
    "sid": "MAA4ADMANgAwADAAMAAwADAAMgA=",
    "name": "(準公共)苗栗縣私立三之三嘉新幼兒園",
    "type": "spub3"
  },
  {
    "newsch": 1,
    "lat": 24.5461821,
    "lng": 120.822383,
    "sid": "MAA4ADMANgAwADAAMAAwADAAMwA=",
    "name": "(準公共)苗栗縣私立三之三寶貝幼兒園",
    "type": "spub3"
  },
  {
    "newsch": 1,
    "lat": 24.578393,
    "lng": 120.825472,
    "sid": "MAA4ADMANgAwADAAMAAwADAANAA=",
    "name": "(私立)苗栗縣私立維多利亞幼兒園",
    "type": "spub1"
  },
  {
    "newsch": 1,
    "lat": 24.5824804,
    "lng": 120.8258241,
    "sid": "MAA4ADMANgAwADAAMAAwADAANQA=",
    "name": "(準公共)苗栗縣私立育仁幼兒園",
    "type": "spub3"
  },
  {
    "newsch": 1,
    "lat": 24.57,
    "lng": 120.82,
    "sid": "MAA4ADMANgAwADAAMAAwADAANwA=",
    "name": "(非營利)苗栗縣中油員工子女非營利幼兒園（財團法人台灣中油股份有限公司職工福利委員會申請辦理）",
    "type": "spub2"
  },
  {
    "newsch": 1,
    "lat": 24.566709,
    "lng": 120.817387,
    "sid": "MAA4ADMANgAwADAAMAAwADAAOAA=",
    "name": "(準公共)苗栗縣私立欣兒園幼兒園",
    "type": "spub3"
  },
  {
    "newsch": 1,
    "lat": 24.5644977,
    "lng": 120.8135757,
    "sid": "MAA4ADMANgAwADAAMAAwADEAMAA=",
    "name": "(準公共)苗栗縣私立米妮幼兒園",
    "type": "spub3"
  },
  {
    "newsch": 1,
    "lat": 24.556857,
    "lng": 120.812039,
    "sid": "MAA4ADMANgAwADAAMAAwADEAMQA=",
    "name": "(準公共)財團法人台灣省苗栗縣苗栗市福星山淨覺院附設苗栗縣私立良兒幼兒園",
    "type": "spub3"
  },
  {
    "newsch": 1,
    "lat": 24.5650109,
    "lng": 120.8113503,
    "sid": "MAA4ADMANgAwADAAMAAwADEAMgA=",
    "name": "(準公共)苗栗縣私立米吉幼兒園",
    "type": "spub3"
  },
  {
    "newsch": 1,
    "lat": 24.576445,
    "lng": 120.826187,
    "sid": "MAA4ADMANgAwADAAMAAwADEANAA=",
    "name": "(準公共)苗栗縣私立芳仁紀念幼兒園",
    "type": "spub3"
  },
  {
    "newsch": 1,
    "lat": 24.560327,
    "lng": 120.823803,
    "sid": "MAA4ADMANgAwADAAMAAwADEANQA=",
    "name": "(準公共)財團法人天主教耶穌瑪利亞聖心修女會附設苗栗縣私立文化幼兒園",
    "type": "spub3"
  },
  {
    "newsch": 1,
    "lat": 24.5709654,
    "lng": 120.8175458,
    "sid": "MAA4ADMANgAwADAAMAAwADEANgA=",
    "name": "(準公共)苗栗縣私立愛琪兒幼兒園",
    "type": "spub3"
  },
  {
    "newsch": 1,
    "lat": 24.552658,
    "lng": 120.815177,
    "sid": "MAA4ADMANgAwADAAMAAwADEANwA=",
    "name": "(公立)苗栗縣苗栗市大同國民小學附設幼兒園",
    "type": "spub0"
  },
  {
    "newsch": 1,
    "lat": 24.527184,
    "lng": 120.798024,
    "sid": "MAA4ADMANgAwADAAMAAwADEAOAA=",
    "name": "(公立)苗栗縣苗栗市新英國民小學附設幼兒園",
    "type": "spub0"
  },
  {
    "newsch": 1,
    "lat": 24.565566,
    "lng": 120.818103,
    "sid": "MAA4ADMANgAwADAAMAAwADIAMAA=",
    "name": "(準公共)苗栗縣私立耶魯幼兒園",
    "type": "spub3"
  },
  {
    "newsch": 1,
    "lat": 24.574983,
    "lng": 120.819941,
    "sid": "MAA4ADMANgAwADAAMAAwADIAMQA=",
    "name": "(準公共)苗栗縣私立三之三幼兒園",
    "type": "spub3"
  },
  {
    "newsch": 1,
    "lat": 24.5642247,
    "lng": 120.8178367,
    "sid": "MAA4ADMANgAwADAAMAAwADIAMgA=",
    "name": "(準公共)苗栗縣私立吉的堡幼兒園",
    "type": "spub3"
  },
  {
    "newsch": 1,
    "lat": 24.5709286,
    "lng": 120.8172644,
    "sid": "MAA4ADMANgAwADAAMAAwADIAMwA=",
    "name": "(準公共)苗栗縣私立幼竹幼兒園",
    "type": "spub3"
  },
  {
    "newsch": 1,
    "lat": 24.573373,
    "lng": 120.827635,
    "sid": "MAA4ADMANgAwADAAMAAwADIANAA=",
    "name": "(公立)苗栗縣苗栗市啟文國民小學附設幼兒園",
    "type": "spub0"
  },
  {
    "newsch": 1,
    "lat": 24.559523,
    "lng": 120.8266118,
    "sid": "MAA4ADMANgAwADAAMAAwADIANQA=",
    "name": "(準公共)苗栗縣私立喬嘉樂幼兒園",
    "type": "spub3"
  },
  {
    "newsch": 1,
    "lat": 24.552022,
    "lng": 120.808936,
    "sid": "MAA4ADMANgAwADAAMAAwADIANwA=",
    "name": "(私立)苗栗縣私立大將軍幼兒園",
    "type": "spub1"
  },
  {
    "newsch": 1,
    "lat": 24.568871,
    "lng": 120.812307,
    "sid": "MAA4ADMANgAwADAAMAAwADIAOQA=",
    "name": "(公立)苗栗縣苗栗市文山國民小學附設幼兒園",
    "type": "spub0"
  },
  {
    "newsch": 1,
    "lat": 24.5691815,
    "lng": 120.8165114,
    "sid": "MAA4ADMANgAwADAAMAAwADMAMQA=",
    "name": "(公立)苗栗縣苗栗市文華國民小學附設幼兒園",
    "type": "spub0"
  },
  {
    "newsch": 1,
    "lat": 24.5647142,
    "lng": 120.8266994,
    "sid": "MAA4ADMANgAwADAAMAAwADMAMgA=",
    "name": "(準公共)苗栗縣私立貝思特幼兒園",
    "type": "spub3"
  },
  {
    "newsch": 1,
    "lat": 24.579126,
    "lng": 120.826065,
    "sid": "MAA4ADMANgAwADAAMAAwADMAMwA=",
    "name": "(非營利)苗栗縣福星非營利幼兒園（委託財團法人幼兒教育基金會辦理）",
    "type": "spub2"
  },
  {
    "newsch": 1,
    "lat": 24.5820762,
    "lng": 120.8275018,
    "sid": "MAA4ADMANgAwADAAMAAwADMANAA=",
    "name": "(準公共)苗栗縣私立苗栗愛彌兒幼兒園",
    "type": "spub3"
  },
  {
    "newsch": 1,
    "lat": 24.5644646,
    "lng": 120.8242587,
    "sid": "MAA4ADMANgAwADAAMAAwADMANQA=",
    "name": "(非營利)苗栗縣建功非營利幼兒園（委託社團法人東台灣幼兒教保專業促進協會辦理）",
    "type": "spub2"
  },
  {
    "newsch": 1,
    "lat": 24.5526126,
    "lng": 120.8214732,
    "sid": "MAA4ADMANgAwADAAMAAwADMANgA=",
    "name": "(公立)苗栗縣苗栗市僑育國民小學附設幼兒園",
    "type": "spub0"
  },
  {
    "newsch": 1,
    "lat": 24.5622831,
    "lng": 120.8365241,
    "sid": "MAA4ADMANgAwADAAMAAwADMANwA=",
    "name": "(私立)財政部國有財產署中區分署苗栗辦事處職場互助教保服務中心（委託財團法人臺中市蒙特梭利教育基金會辦理）",
    "type": "spub1"
  },
  {
    "newsch": 1,
    "lat": 24.5463934,
    "lng": 120.8164877,
    "sid": "MAA4ADMANgAwADAAMAAwADMAOAA=",
    "name": "(私立)臺灣苗栗地方檢察署職場互助教保服務中心（委託財團法人臺中市蒙特梭利教育基金會辦理）",
    "type": "spub1"
  }
]