[
  {
    "newsch": 1,
    "lat": 24.421882,
    "lng": 120.870857,
    "sid": "MAA4ADMANgA0ADAAMAAwADAAMgA=",
    "name": "(公立)苗栗縣大湖鄉大湖國民小學附設幼兒園",
    "type": "spub0"
  },
  {
    "newsch": 1,
    "lat": 24.424785,
    "lng": 120.86686,
    "sid": "MAA4ADMANgA0ADAAMAAwADAAMwA=",
    "name": "(公立)苗栗縣大湖鄉立幼兒園",
    "type": "spub0"
  },
  {
    "newsch": 1,
    "lat": 24.398133,
    "lng": 120.866279,
    "sid": "MAA4ADMANgA0ADAAMAAwADAANAA=",
    "name": "(公立)苗栗縣大湖鄉南湖國民小學附設幼兒園",
    "type": "spub0"
  },
  {
    "newsch": 1,
    "lat": 24.347862,
    "lng": 120.82663,
    "sid": "MAA4ADMANgA0ADAAMAAwADAANQA=",
    "name": "(公立)苗栗縣大湖鄉新開國民小學附設幼兒園",
    "type": "spub0"
  },
  {
    "newsch": 1,
    "lat": 24.443921,
    "lng": 120.874367,
    "sid": "MAA4ADMANgA0ADAAMAAwADAANgA=",
    "name": "(公立)苗栗縣大湖鄉華興國民小學附設幼兒園",
    "type": "spub0"
  },
  {
    "newsch": 1,
    "lat": 24.373791,
    "lng": 120.843208,
    "sid": "MAA4ADMANgA0ADAAMAAwADAANwA=",
    "name": "(公立)苗栗縣大湖鄉栗林國民小學附設幼兒園",
    "type": "spub0"
  },
  {
    "newsch": 1,
    "lat": 24.380315,
    "lng": 120.882514,
    "sid": "MAA4ADMANgA0ADAAMAAwADAAOAA=",
    "name": "(公立)苗栗縣大湖鄉東興國民小學附設幼兒園",
    "type": "spub0"
  },
  {
    "newsch": 1,
    "lat": 24.410455,
    "lng": 120.902552,
    "sid": "MAA4ADMANgA0ADAAMAAwADAAOQA=",
    "name": "(公立)苗栗縣大湖鄉大南國民小學附設幼兒園",
    "type": "spub0"
  }
]