[
  {
    "newsch": 1,
    "lat": 24.42125001,
    "lng": 120.8700991,
    "sid": "MAA4ADMANgA0ADAAMAAwADAAMgA=",
    "name": "(公立)苗栗縣大湖鄉大湖國民小學附設幼兒園",
    "type": "spub0"
  },
  {
    "newsch": 1,
    "lat": 24.424899,
    "lng": 120.8669073,
    "sid": "MAA4ADMANgA0ADAAMAAwADAAMwA=",
    "name": "(公立)苗栗縣大湖鄉立幼兒園",
    "type": "spub0"
  },
  {
    "newsch": 1,
    "lat": 24.3979342,
    "lng": 120.8666053,
    "sid": "MAA4ADMANgA0ADAAMAAwADAANAA=",
    "name": "(公立)苗栗縣大湖鄉南湖國民小學附設幼兒園",
    "type": "spub0"
  },
  {
    "newsch": 1,
    "lat": 24.433397,
    "lng": 120.8695543,
    "sid": "MAA4ADMANgA0ADAAMAAwADAANQA=",
    "name": "(公立)苗栗縣大湖鄉新開國民小學附設幼兒園",
    "type": "spub0"
  },
  {
    "newsch": 1,
    "lat": 24.443862,
    "lng": 120.8740913,
    "sid": "MAA4ADMANgA0ADAAMAAwADAANgA=",
    "name": "(公立)苗栗縣大湖鄉華興國民小學附設幼兒園",
    "type": "spub0"
  },
  {
    "newsch": 1,
    "lat": 24.3734422,
    "lng": 120.842677,
    "sid": "MAA4ADMANgA0ADAAMAAwADAANwA=",
    "name": "(公立)苗栗縣大湖鄉栗林國民小學附設幼兒園",
    "type": "spub0"
  }
]