[
  {
    "newsch": 1,
    "lat": 24.307559,
    "lng": 120.831745,
    "sid": "MAA4ADMANgA5ADAAMAAwADAAMQA=",
    "name": "(準公共)苗栗縣私立多倫多幼兒園",
    "type": "spub3"
  },
  {
    "newsch": 1,
    "lat": 24.324522,
    "lng": 120.823636,
    "sid": "MAA4ADMANgA5ADAAMAAwADAAMwA=",
    "name": "(公立)苗栗縣卓蘭鎮豐田國民小學附設幼兒園",
    "type": "spub0"
  },
  {
    "newsch": 1,
    "lat": 24.299256,
    "lng": 120.849118,
    "sid": "MAA4ADMANgA5ADAAMAAwADAANAA=",
    "name": "(公立)苗栗縣卓蘭鎮內灣國民小學附設幼兒園",
    "type": "spub0"
  },
  {
    "newsch": 1,
    "lat": 24.312534,
    "lng": 120.824229,
    "sid": "MAA4ADMANgA5ADAAMAAwADAANQA=",
    "name": "(公立)苗栗縣卓蘭鎮卓蘭國民小學附設幼兒園",
    "type": "spub0"
  },
  {
    "newsch": 1,
    "lat": 24.302705,
    "lng": 120.83172,
    "sid": "MAA4ADMANgA5ADAAMAAwADAANgA=",
    "name": "(公立)苗栗縣卓蘭鎮立幼兒園",
    "type": "spub0"
  },
  {
    "newsch": 1,
    "lat": 24.335795,
    "lng": 120.876426,
    "sid": "MAA4ADMANgA5ADAAMAAwADAANgAtADAAMgA=",
    "name": "(公立)苗栗縣卓蘭鎮立幼兒園坪林分班",
    "type": "spub0"
  },
  {
    "newsch": 1,
    "lat": 24.352631,
    "lng": 120.865255,
    "sid": "MAA4ADMANgA5ADAAMAAwADAANgAtADAAMwA=",
    "name": "(公立)苗栗縣卓蘭鎮立幼兒園景山分班",
    "type": "spub0"
  }
]