[
  {
    "newsch": 1,
    "lat": 24.148705,
    "lng": 120.652383,
    "sid": "MAA5ADQAMAAzADAAMAAwADAAMQA=",
    "name": "(私立)臺中市私立大蘋果幼兒園",
    "type": "spub1"
  },
  {
    "newsch": 1,
    "lat": 24.1308626,
    "lng": 120.6655142,
    "sid": "MAA5ADQAMAAzADAAMAAwADAAMgA=",
    "name": "(準公共)臺中市私立歌德幼兒園",
    "type": "spub3"
  },
  {
    "newsch": 1,
    "lat": 24.134347,
    "lng": 120.661378,
    "sid": "MAA5ADQAMAAzADAAMAAwADAAMwA=",
    "name": "(私立)臺中市私立狄仕耐幼兒園",
    "type": "spub1"
  },
  {
    "newsch": 1,
    "lat": 24.139848,
    "lng": 120.664541,
    "sid": "MAA5ADQAMAAzADAAMAAwADAANAA=",
    "name": "(私立)財團法人台灣聖公會附設臺中市私立聖雅各幼兒園",
    "type": "spub1"
  },
  {
    "newsch": 1,
    "lat": 24.141917,
    "lng": 120.671848,
    "sid": "MAA5ADQAMAAzADAAMAAwADAANQA=",
    "name": "(私立)財團法人中華基督教衛理公會附設臺中市私立衛理幼兒園",
    "type": "spub1"
  },
  {
    "newsch": 1,
    "lat": 24.157088,
    "lng": 120.662686,
    "sid": "MAA5ADQAMAAzADAAMAAwADAANgA=",
    "name": "(私立)臺中市私立牛頓幼兒園",
    "type": "spub1"
  },
  {
    "newsch": 1,
    "lat": 24.150406,
    "lng": 120.668659,
    "sid": "MAA5ADQAMAAzADAAMAAwADAANwA=",
    "name": "(私立)臺中市私立愛迪生幼兒園",
    "type": "spub1"
  },
  {
    "newsch": 1,
    "lat": 24.143024,
    "lng": 120.661604,
    "sid": "MAA5ADQAMAAzADAAMAAwADAAOAA=",
    "name": "(私立)臺中市私立鴻德幼兒園",
    "type": "spub1"
  },
  {
    "newsch": 1,
    "lat": 24.1490376,
    "lng": 120.6684442,
    "sid": "MAA5ADQAMAAzADAAMAAwADAAOQA=",
    "name": "(準公共)臺中市私立敦煌幼兒園",
    "type": "spub3"
  },
  {
    "newsch": 1,
    "lat": 24.135266,
    "lng": 120.658182,
    "sid": "MAA5ADQAMAAzADAAMAAwADEAMAA=",
    "name": "(私立)臺中市私立聖柏德幼兒園",
    "type": "spub1"
  },
  {
    "newsch": 1,
    "lat": 24.1499299,
    "lng": 120.6728633,
    "sid": "MAA5ADQAMAAzADAAMAAwADEAMgA=",
    "name": "(私立)臺中市私立幼采幼兒園",
    "type": "spub1"
  },
  {
    "newsch": 1,
    "lat": 24.154719,
    "lng": 120.65767,
    "sid": "MAA5ADQAMAAzADAAMAAwADEANAA=",
    "name": "(私立)臺中市私立璞石華德福幼兒園",
    "type": "spub1"
  },
  {
    "newsch": 1,
    "lat": 24.151593,
    "lng": 120.661451,
    "sid": "MAA5ADQAMAAzADAAMAAwADEANQA=",
    "name": "(私立)臺中市私立西區何嘉仁幼兒園",
    "type": "spub1"
  },
  {
    "newsch": 1,
    "lat": 24.1530569,
    "lng": 120.657578,
    "sid": "MAA5ADQAMAAzADAAMAAwADEANwA=",
    "name": "(私立)臺中市私立孩子國蒙特梭利幼兒園",
    "type": "spub1"
  },
  {
    "newsch": 1,
    "lat": 24.145369,
    "lng": 120.652047,
    "sid": "MAA5ADQAMAAzADAAMAAwADEAOQA=",
    "name": "(私立)臺中市私立班比優幼兒園",
    "type": "spub1"
  },
  {
    "newsch": 1,
    "lat": 24.1351301,
    "lng": 120.6598327,
    "sid": "MAA5ADQAMAAzADAAMAAwADIAMAA=",
    "name": "(私立)臺中市私立哥倫比亞幼兒園",
    "type": "spub1"
  },
  {
    "newsch": 1,
    "lat": 24.142018,
    "lng": 120.673218,
    "sid": "MAA5ADQAMAAzADAAMAAwADIAMgA=",
    "name": "(準公共)財團法人天主教聖母聖心修女會附設臺中市私立惠華幼兒園",
    "type": "spub3"
  },
  {
    "newsch": 1,
    "lat": 24.142313,
    "lng": 120.674241,
    "sid": "MAA5ADQAMAAzADAAMAAwADIAMwA=",
    "name": "(準公共)臺中市私立德明幼兒園",
    "type": "spub3"
  },
  {
    "newsch": 1,
    "lat": 24.151956,
    "lng": 120.665885,
    "sid": "MAA5ADQAMAAzADAAMAAwADIANAA=",
    "name": "(公立)臺中市西區中正國民小學附設幼兒園",
    "type": "spub0"
  },
  {
    "newsch": 1,
    "lat": 24.134403,
    "lng": 120.657582,
    "sid": "MAA5ADQAMAAzADAAMAAwADIANQA=",
    "name": "(公立)臺中市西區大勇國民小學附設幼兒園",
    "type": "spub0"
  },
  {
    "newsch": 1,
    "lat": 24.139023,
    "lng": 120.668752,
    "sid": "MAA5ADQAMAAzADAAMAAwADIANgA=",
    "name": "(公立)臺中市西區忠信國民小學附設幼兒園",
    "type": "spub0"
  },
  {
    "newsch": 1,
    "lat": 24.158023,
    "lng": 120.65909,
    "sid": "MAA5ADQAMAAzADAAMAAwADIANwA=",
    "name": "(公立)臺中市西區忠明國民小學附設幼兒園",
    "type": "spub0"
  },
  {
    "newsch": 1,
    "lat": 24.13778,
    "lng": 120.674331,
    "sid": "MAA5ADQAMAAzADAAMAAwADIAOAA=",
    "name": "(公立)臺中市西區忠孝國民小學附設幼兒園",
    "type": "spub0"
  },
  {
    "newsch": 1,
    "lat": 24.150176,
    "lng": 120.66283,
    "sid": "MAA5ADQAMAAzADAAMAAwADIAOQA=",
    "name": "(私立)臺中市私立卡帕幼兒園",
    "type": "spub1"
  },
  {
    "newsch": 1,
    "lat": 24.1476074,
    "lng": 120.6515623,
    "sid": "MAA5ADQAMAAzADAAMAAwADMAMAA=",
    "name": "(私立)臺中市私立普霖斯頓幼兒園",
    "type": "spub1"
  },
  {
    "newsch": 1,
    "lat": 24.135586,
    "lng": 120.677803,
    "sid": "MAA5ADQAMAAzADAAMAAwADMAMQA=",
    "name": "(公立)臺中市西區大同國民小學附設幼兒園",
    "type": "spub0"
  },
  {
    "newsch": 1,
    "lat": 24.1543799,
    "lng": 120.658716,
    "sid": "MAA5ADQAMAAzADAAMAAwADMAMgA=",
    "name": "(私立)臺中市私立國郁幼兒園",
    "type": "spub1"
  },
  {
    "newsch": 1,
    "lat": 24.1373627,
    "lng": 120.664323,
    "sid": "MAA5ADQAMAAzADAAMAAwADMAMwA=",
    "name": "(私立)臺中市私立小鳥幼兒園",
    "type": "spub1"
  }
]