[
  {
    "newsch": 1,
    "lat": 24.148577,
    "lng": 120.652404,
    "sid": "MAA5ADQAMAAzADAAMAAwADAAMQA=",
    "name": "(私立)臺中市私立大蘋果幼兒園",
    "type": "spub1"
  },
  {
    "newsch": 1,
    "lat": 24.130291,
    "lng": 120.663158,
    "sid": "MAA5ADQAMAAzADAAMAAwADAAMgA=",
    "name": "(準公共)臺中市私立歌德幼兒園",
    "type": "spub3"
  },
  {
    "newsch": 1,
    "lat": 24.134473,
    "lng": 120.660966,
    "sid": "MAA5ADQAMAAzADAAMAAwADAAMwA=",
    "name": "(準公共)臺中市私立狄仕耐幼兒園",
    "type": "spub3"
  },
  {
    "newsch": 1,
    "lat": 24.139931,
    "lng": 120.66467,
    "sid": "MAA5ADQAMAAzADAAMAAwADAANAA=",
    "name": "(私立)財團法人台灣聖公會附設臺中市私立聖雅各幼兒園",
    "type": "spub1"
  },
  {
    "newsch": 1,
    "lat": 24.141788,
    "lng": 120.671911,
    "sid": "MAA5ADQAMAAzADAAMAAwADAANQA=",
    "name": "(私立)財團法人中華基督教衛理公會附設臺中市私立衛理幼兒園",
    "type": "spub1"
  },
  {
    "newsch": 1,
    "lat": 24.156968,
    "lng": 120.662643,
    "sid": "MAA5ADQAMAAzADAAMAAwADAANgA=",
    "name": "(私立)臺中市私立牛頓幼兒園",
    "type": "spub1"
  },
  {
    "newsch": 1,
    "lat": 24.150339,
    "lng": 120.668814,
    "sid": "MAA5ADQAMAAzADAAMAAwADAANwA=",
    "name": "(準公共)臺中市私立愛迪生幼兒園",
    "type": "spub3"
  },
  {
    "newsch": 1,
    "lat": 24.14314825,
    "lng": 120.66144991,
    "sid": "MAA5ADQAMAAzADAAMAAwADAAOAA=",
    "name": "(準公共)臺中市私立卡帕幼兒園",
    "type": "spub3"
  },
  {
    "newsch": 1,
    "lat": 24.14888,
    "lng": 120.668488,
    "sid": "MAA5ADQAMAAzADAAMAAwADAAOQA=",
    "name": "(準公共)臺中市私立敦煌幼兒園",
    "type": "spub3"
  },
  {
    "newsch": 1,
    "lat": 24.135289,
    "lng": 120.658143,
    "sid": "MAA5ADQAMAAzADAAMAAwADEAMAA=",
    "name": "(準公共)臺中市私立聖柏德幼兒園",
    "type": "spub3"
  },
  {
    "newsch": 1,
    "lat": 24.150036,
    "lng": 120.67257,
    "sid": "MAA5ADQAMAAzADAAMAAwADEAMgA=",
    "name": "(準公共)臺中市私立幼采幼兒園",
    "type": "spub3"
  },
  {
    "newsch": 1,
    "lat": 24.154636,
    "lng": 120.657517,
    "sid": "MAA5ADQAMAAzADAAMAAwADEANAA=",
    "name": "(私立)臺中市私立璞石華德福幼兒園",
    "type": "spub1"
  },
  {
    "newsch": 1,
    "lat": 24.153077,
    "lng": 120.657591,
    "sid": "MAA5ADQAMAAzADAAMAAwADEANwA=",
    "name": "(準公共)臺中市私立孩子國蒙特梭利幼兒園",
    "type": "spub3"
  },
  {
    "newsch": 1,
    "lat": 24.1353,
    "lng": 120.659849,
    "sid": "MAA5ADQAMAAzADAAMAAwADIAMAA=",
    "name": "(私立)臺中市私立哥倫比亞幼兒園",
    "type": "spub1"
  },
  {
    "newsch": 1,
    "lat": 24.141965,
    "lng": 120.673254,
    "sid": "MAA5ADQAMAAzADAAMAAwADIAMgA=",
    "name": "(準公共)財團法人天主教聖母聖心修女會附設臺中市私立惠華幼兒園",
    "type": "spub3"
  },
  {
    "newsch": 1,
    "lat": 24.151056,
    "lng": 120.666253,
    "sid": "MAA5ADQAMAAzADAAMAAwADIANAA=",
    "name": "(公立)臺中市西區中正國民小學附設幼兒園",
    "type": "spub0"
  },
  {
    "newsch": 1,
    "lat": 24.134406,
    "lng": 120.657838,
    "sid": "MAA5ADQAMAAzADAAMAAwADIANQA=",
    "name": "(公立)臺中市西區大勇國民小學附設幼兒園",
    "type": "spub0"
  },
  {
    "newsch": 1,
    "lat": 24.13909,
    "lng": 120.668409,
    "sid": "MAA5ADQAMAAzADAAMAAwADIANgA=",
    "name": "(公立)臺中市西區忠信國民小學附設幼兒園",
    "type": "spub0"
  },
  {
    "newsch": 1,
    "lat": 24.15813,
    "lng": 120.659287,
    "sid": "MAA5ADQAMAAzADAAMAAwADIANwA=",
    "name": "(公立)臺中市西區忠明國民小學附設幼兒園",
    "type": "spub0"
  },
  {
    "newsch": 1,
    "lat": 24.13883,
    "lng": 120.673758,
    "sid": "MAA5ADQAMAAzADAAMAAwADIAOAA=",
    "name": "(公立)臺中市西區忠孝國民小學附設幼兒園",
    "type": "spub0"
  },
  {
    "newsch": 1,
    "lat": 24.150236,
    "lng": 120.662851,
    "sid": "MAA5ADQAMAAzADAAMAAwADIAOQA=",
    "name": "(私立)臺中市私立我的家蒙特梭利幼兒園",
    "type": "spub1"
  },
  {
    "newsch": 1,
    "lat": 24.147658,
    "lng": 120.651557,
    "sid": "MAA5ADQAMAAzADAAMAAwADMAMAA=",
    "name": "(私立)臺中市私立普霖斯頓幼兒園",
    "type": "spub1"
  },
  {
    "newsch": 1,
    "lat": 24.13531,
    "lng": 120.677897,
    "sid": "MAA5ADQAMAAzADAAMAAwADMAMQA=",
    "name": "(公立)臺中市西區大同國民小學附設幼兒園",
    "type": "spub0"
  },
  {
    "newsch": 1,
    "lat": 24.154385,
    "lng": 120.658698,
    "sid": "MAA5ADQAMAAzADAAMAAwADMAMgA=",
    "name": "(準公共)臺中市私立國郁幼兒園",
    "type": "spub3"
  },
  {
    "newsch": 1,
    "lat": 24.137407,
    "lng": 120.664341,
    "sid": "MAA5ADQAMAAzADAAMAAwADMAMwA=",
    "name": "(私立)臺中市私立小鳥幼兒園",
    "type": "spub1"
  },
  {
    "newsch": 1,
    "lat": 24.139307,
    "lng": 120.674333,
    "sid": "MAA5ADQAMAAzADAAMAAwADMANAA=",
    "name": "(私立)衛生福利部中區兒童之家職場互助教保服務中心(委託社團法人幼兒教保協會辦理)",
    "type": "spub1"
  },
  {
    "newsch": 1,
    "lat": 24.145066,
    "lng": 120.667645,
    "sid": "MAA5ADQAMAAzADAAMAAwADMANQA=",
    "name": "(私立)財政部中區國稅局職場互助教保服務中心(委託社團法人台灣公共托育協會辦理)",
    "type": "spub1"
  },
  {
    "newsch": 1,
    "lat": 24.132635,
    "lng": 120.67422,
    "sid": "MAA5ADQAMAAzADAAMAAwADMANgA=",
    "name": "(私立)臺灣高等檢察署臺中職場互助教保服務中心(委託財團法人臺中市蒙特梭利教育基金會辦理)",
    "type": "spub1"
  },
  {
    "newsch": 1,
    "lat": 24.141116,
    "lng": 120.663134,
    "sid": "MAA5ADQAMAAzADAAMAAwADMANwA=",
    "name": "(私立)文化部國立臺灣美術館職場互助教保服務中心(委託社團法人幼兒教保協會辦理)",
    "type": "spub1"
  }
]