[
  {
    "newsch": 1,
    "lat": 24.072588,
    "lng": 120.694611,
    "sid": "MAA5ADQAMQAzADAAMAAwADAAMQA=",
    "name": "(準公共)臺中市私立育群幼兒園",
    "type": "spub3"
  },
  {
    "newsch": 1,
    "lat": 24.0666419,
    "lng": 120.6975137,
    "sid": "MAA5ADQAMQAzADAAMAAwADAAMgA=",
    "name": "(私立)臺中市私立竹恩幼兒園",
    "type": "spub1"
  },
  {
    "newsch": 1,
    "lat": 24.0649229,
    "lng": 120.696038,
    "sid": "MAA5ADQAMQAzADAAMAAwADAAMwA=",
    "name": "(私立)臺中市私立美斯特幼兒園",
    "type": "spub1"
  },
  {
    "newsch": 1,
    "lat": 24.067902,
    "lng": 120.70187,
    "sid": "MAA5ADQAMQAzADAAMAAwADAANAA=",
    "name": "(準公共)臺中市私立康爾藝術幼兒園",
    "type": "spub3"
  },
  {
    "newsch": 1,
    "lat": 24.063592,
    "lng": 120.696187,
    "sid": "MAA5ADQAMQAzADAAMAAwADAANQA=",
    "name": "(準公共)臺中市私立愛因斯坦幼兒園",
    "type": "spub3"
  },
  {
    "newsch": 1,
    "lat": 24.070141,
    "lng": 120.715468,
    "sid": "MAA5ADQAMQAzADAAMAAwADAANwA=",
    "name": "(私立)私立朝陽科技大學附設臺中市幼兒園",
    "type": "spub1"
  },
  {
    "newsch": 1,
    "lat": 24.065637,
    "lng": 120.68586,
    "sid": "MAA5ADQAMQAzADAAMAAwADAAOAA=",
    "name": "(準公共)臺中市私立新佳育幼兒園",
    "type": "spub3"
  },
  {
    "newsch": 1,
    "lat": 24.061934,
    "lng": 120.670254,
    "sid": "MAA5ADQAMQAzADAAMAAwADAAOQA=",
    "name": "(準公共)臺中市私立愛迪克幼兒園",
    "type": "spub3"
  },
  {
    "newsch": 1,
    "lat": 24.042579,
    "lng": 120.697249,
    "sid": "MAA5ADQAMQAzADAAMAAwADEAMAA=",
    "name": "(公立)臺中市霧峰區復興國民小學附設幼兒園",
    "type": "spub0"
  },
  {
    "newsch": 1,
    "lat": 24.073126,
    "lng": 120.667326,
    "sid": "MAA5ADQAMQAzADAAMAAwADEAMQA=",
    "name": "(公立)臺中市霧峰區五福國民小學附設幼兒園",
    "type": "spub0"
  },
  {
    "newsch": 1,
    "lat": 24.0748215,
    "lng": 120.7120669,
    "sid": "MAA5ADQAMQAzADAAMAAwADEAMgA=",
    "name": "(公立)臺中市立霧峰幼兒園",
    "type": "spub0"
  },
  {
    "newsch": 1,
    "lat": 24.0659216,
    "lng": 120.700419,
    "sid": "MAA5ADQAMQAzADAAMAAwADEAMgAtADAAMQA=",
    "name": "(公立)臺中市立霧峰幼兒園甲寅分班",
    "type": "spub0"
  },
  {
    "newsch": 1,
    "lat": 24.0666667,
    "lng": 120.7,
    "sid": "MAA5ADQAMQAzADAAMAAwADEAMgAtADAAMgA=",
    "name": "(公立)臺中市立霧峰幼兒園吉峰分班",
    "type": "spub0"
  },
  {
    "newsch": 1,
    "lat": 24.060518,
    "lng": 120.6670339,
    "sid": "MAA5ADQAMQAzADAAMAAwADEAMgAtADAAMwA=",
    "name": "(公立)臺中市立霧峰幼兒園四德分班",
    "type": "spub0"
  },
  {
    "newsch": 1,
    "lat": 24.0659135,
    "lng": 120.70042719999999,
    "sid": "MAA5ADQAMQAzADAAMAAwADEAMgAtADAANAA=",
    "name": "(公立)臺中市立霧峰幼兒園本鄉分班",
    "type": "spub0"
  },
  {
    "newsch": 1,
    "lat": 24.0445869,
    "lng": 120.6938554,
    "sid": "MAA5ADQAMQAzADAAMAAwADEAMgAtADAANQA=",
    "name": "(公立)臺中市立霧峰幼兒園坑口分班",
    "type": "spub0"
  },
  {
    "newsch": 1,
    "lat": 24.0437285,
    "lng": 120.6873684,
    "sid": "MAA5ADQAMQAzADAAMAAwADEAMgAtADAANwA=",
    "name": "(公立)臺中市立霧峰幼兒園南柳分班",
    "type": "spub0"
  },
  {
    "newsch": 1,
    "lat": 24.0411878,
    "lng": 120.6921973,
    "sid": "MAA5ADQAMQAzADAAMAAwADEAMgAtADAAOAA=",
    "name": "(公立)臺中市立霧峰幼兒園六股分班",
    "type": "spub0"
  },
  {
    "newsch": 1,
    "lat": 24.025846,
    "lng": 120.689382,
    "sid": "MAA5ADQAMQAzADAAMAAwADEAMgAtADAAOQA=",
    "name": "(公立)臺中市立霧峰幼兒園舊正分班",
    "type": "spub0"
  },
  {
    "newsch": 1,
    "lat": 24.0615069,
    "lng": 120.7005113,
    "sid": "MAA5ADQAMQAzADAAMAAwADEANAA=",
    "name": "(私立)臺中市私立霧峰新弘明幼兒園",
    "type": "spub1"
  },
  {
    "newsch": 1,
    "lat": 24.0594118,
    "lng": 120.698027,
    "sid": "MAA5ADQAMQAzADAAMAAwADEANQA=",
    "name": "(公立)臺中市霧峰區霧峰國民小學附設幼兒園",
    "type": "spub0"
  },
  {
    "newsch": 1,
    "lat": 24.0360024,
    "lng": 120.6688033,
    "sid": "MAA5ADQAMQAzADAAMAAwADEANgA=",
    "name": "(公立)臺中市霧峰區光正國民小學附設幼兒園",
    "type": "spub0"
  },
  {
    "newsch": 1,
    "lat": 24.0786064,
    "lng": 120.7183249,
    "sid": "MAA5ADQAMQAzADAAMAAwADEANwA=",
    "name": "(公立)臺中市霧峰區吉峰國民小學附設幼兒園",
    "type": "spub0"
  },
  {
    "newsch": 1,
    "lat": 24.0278443,
    "lng": 120.6970097,
    "sid": "MAA5ADQAMQAzADAAMAAwADEAOAA=",
    "name": "(公立)臺中市霧峰區萬豐國民小學附設幼兒園",
    "type": "spub0"
  },
  {
    "newsch": 1,
    "lat": 24.0350895,
    "lng": 120.7253576,
    "sid": "MAA5ADQAMQAzADAAMAAwADEAOQA=",
    "name": "(公立)臺中市霧峰區峰谷國民小學附設幼兒園",
    "type": "spub0"
  },
  {
    "newsch": 1,
    "lat": 24.0701972,
    "lng": 120.7028117,
    "sid": "MAA5ADQAMQAzADAAMAAwADIAMAA=",
    "name": "(公立)臺中市霧峰區僑榮國民小學附設幼兒園",
    "type": "spub0"
  }
]