[
  {
    "newsch": 1,
    "lat": 24.241374,
    "lng": 120.708991,
    "sid": "MAA5ADQAMgAwADAAMAAwADAAMQA=",
    "name": "(私立)臺中市私立艾貝兒幼兒園",
    "type": "spub1"
  },
  {
    "newsch": 1,
    "lat": 24.24414,
    "lng": 120.723818,
    "sid": "MAA5ADQAMgAwADAAMAAwADAAMgA=",
    "name": "(私立)臺中市私立三光幼兒園",
    "type": "spub1"
  },
  {
    "newsch": 1,
    "lat": 24.261821,
    "lng": 120.715251,
    "sid": "MAA5ADQAMgAwADAAMAAwADAANAA=",
    "name": "(準公共)臺中市私立奇美幼兒園",
    "type": "spub3"
  },
  {
    "newsch": 1,
    "lat": 24.234756,
    "lng": 120.71511,
    "sid": "MAA5ADQAMgAwADAAMAAwADAANQA=",
    "name": "(私立)臺中市私立豐原大千幼兒園",
    "type": "spub1"
  },
  {
    "newsch": 1,
    "lat": 24.245533,
    "lng": 120.723089,
    "sid": "MAA5ADQAMgAwADAAMAAwADAANgA=",
    "name": "(私立)臺中市私立豐原何嘉仁幼兒園",
    "type": "spub1"
  },
  {
    "newsch": 1,
    "lat": 24.248163,
    "lng": 120.712623,
    "sid": "MAA5ADQAMgAwADAAMAAwADAANwA=",
    "name": "(準公共)臺中市私立三愛幼兒園",
    "type": "spub3"
  },
  {
    "newsch": 1,
    "lat": 24.264235,
    "lng": 120.743857,
    "sid": "MAA5ADQAMgAwADAAMAAwADAAOAA=",
    "name": "(私立)臺中市私立東之寶幼兒園",
    "type": "spub1"
  },
  {
    "newsch": 1,
    "lat": 24.23737,
    "lng": 120.72264,
    "sid": "MAA5ADQAMgAwADAAMAAwADAAOQA=",
    "name": "(準公共)臺中市私立巧兒幼兒園",
    "type": "spub3"
  },
  {
    "newsch": 1,
    "lat": 24.238088,
    "lng": 120.707023,
    "sid": "MAA5ADQAMgAwADAAMAAwADEAMAA=",
    "name": "(準公共)臺中市私立立立幼兒園",
    "type": "spub3"
  },
  {
    "newsch": 1,
    "lat": 24.251134,
    "lng": 120.711169,
    "sid": "MAA5ADQAMgAwADAAMAAwADEAMgA=",
    "name": "(準公共)臺中市私立亞特藍幼兒園",
    "type": "spub3"
  },
  {
    "newsch": 1,
    "lat": 24.251915,
    "lng": 120.735417,
    "sid": "MAA5ADQAMgAwADAAMAAwADEAMwA=",
    "name": "(私立)臺中市私立馬爾斯幼兒園",
    "type": "spub1"
  },
  {
    "newsch": 1,
    "lat": 24.254442,
    "lng": 120.728067,
    "sid": "MAA5ADQAMgAwADAAMAAwADEANAA=",
    "name": "(私立)臺中市私立揚百翰幼兒園",
    "type": "spub1"
  },
  {
    "newsch": 1,
    "lat": 24.246361,
    "lng": 120.72297,
    "sid": "MAA5ADQAMgAwADAAMAAwADEANQA=",
    "name": "(私立)臺中市私立美倫幼兒園",
    "type": "spub1"
  },
  {
    "newsch": 1,
    "lat": 24.246795,
    "lng": 120.725377,
    "sid": "MAA5ADQAMgAwADAAMAAwADEANgA=",
    "name": "(私立)臺中市私立真愛幼兒園",
    "type": "spub1"
  },
  {
    "newsch": 1,
    "lat": 24.261341,
    "lng": 120.713253,
    "sid": "MAA5ADQAMgAwADAAMAAwADEAOAA=",
    "name": "(私立)臺中市私立愛笛兒幼兒園",
    "type": "spub1"
  },
  {
    "newsch": 1,
    "lat": 24.252119,
    "lng": 120.735559,
    "sid": "MAA5ADQAMgAwADAAMAAwADEAOQA=",
    "name": "(私立)臺中市私立愛伯特幼兒園",
    "type": "spub1"
  },
  {
    "newsch": 1,
    "lat": 24.250262,
    "lng": 120.709796,
    "sid": "MAA5ADQAMgAwADAAMAAwADIAMAA=",
    "name": "(私立)臺中市私立桃太郎幼兒園",
    "type": "spub1"
  },
  {
    "newsch": 1,
    "lat": 24.244727,
    "lng": 120.726104,
    "sid": "MAA5ADQAMgAwADAAMAAwADIAMQA=",
    "name": "(準公共)臺中市私立幼寶幼兒園",
    "type": "spub3"
  },
  {
    "newsch": 1,
    "lat": 24.237096,
    "lng": 120.715014,
    "sid": "MAA5ADQAMgAwADAAMAAwADIAMgA=",
    "name": "(私立)臺中市私立民宜幼兒園",
    "type": "spub1"
  },
  {
    "newsch": 1,
    "lat": 24.260791,
    "lng": 120.723985,
    "sid": "MAA5ADQAMgAwADAAMAAwADIANAA=",
    "name": "(私立)臺中市私立豐原蒲公英幼兒園",
    "type": "spub1"
  },
  {
    "newsch": 1,
    "lat": 24.239929,
    "lng": 120.722801,
    "sid": "MAA5ADQAMgAwADAAMAAwADIANQA=",
    "name": "(私立)臺中市私立亞恩蒂幼兒園",
    "type": "spub1"
  },
  {
    "newsch": 1,
    "lat": 24.24815,
    "lng": 120.734693,
    "sid": "MAA5ADQAMgAwADAAMAAwADIANgA=",
    "name": "(私立)臺中市私立豐原欣欣幼兒園",
    "type": "spub1"
  },
  {
    "newsch": 1,
    "lat": 24.245084,
    "lng": 120.723443,
    "sid": "MAA5ADQAMgAwADAAMAAwADIANwA=",
    "name": "(私立)臺中市私立立盈幼兒園",
    "type": "spub1"
  },
  {
    "newsch": 1,
    "lat": 24.252396,
    "lng": 120.713748,
    "sid": "MAA5ADQAMgAwADAAMAAwADIAOAA=",
    "name": "(公立)臺中市豐原區富春國民小學附設幼兒園",
    "type": "spub0"
  },
  {
    "newsch": 1,
    "lat": 24.23975,
    "lng": 120.703956,
    "sid": "MAA5ADQAMgAwADAAMAAwADIAOQA=",
    "name": "(公立)臺中市豐原區合作國民小學附設幼兒園",
    "type": "spub0"
  },
  {
    "newsch": 1,
    "lat": 24.247859,
    "lng": 120.723578,
    "sid": "MAA5ADQAMgAwADAAMAAwADMAMAA=",
    "name": "(公立)臺中市豐原區南陽國民小學附設幼兒園",
    "type": "spub0"
  },
  {
    "newsch": 1,
    "lat": 24.26222,
    "lng": 120.74276,
    "sid": "MAA5ADQAMgAwADAAMAAwADMAMQA=",
    "name": "(公立)臺中市豐原區翁子國民小學附設幼兒園",
    "type": "spub0"
  },
  {
    "newsch": 1,
    "lat": 24.23777,
    "lng": 120.721471,
    "sid": "MAA5ADQAMgAwADAAMAAwADMAMgA=",
    "name": "(公立)臺中市豐原區豐田國民小學附設幼兒園",
    "type": "spub0"
  },
  {
    "newsch": 1,
    "lat": 24.255225,
    "lng": 120.736225,
    "sid": "MAA5ADQAMgAwADAAMAAwADMAMwA=",
    "name": "(公立)臺中市豐原區豐村國民小學附設幼兒園",
    "type": "spub0"
  },
  {
    "newsch": 1,
    "lat": 24.254361,
    "lng": 120.720622,
    "sid": "MAA5ADQAMgAwADAAMAAwADMANAA=",
    "name": "(公立)臺中市豐原區豐原國民小學附設幼兒園",
    "type": "spub0"
  },
  {
    "newsch": 1,
    "lat": 24.265334,
    "lng": 120.738029,
    "sid": "MAA5ADQAMgAwADAAMAAwADMANQA=",
    "name": "(公立)臺中市立豐原幼兒園",
    "type": "spub0"
  },
  {
    "newsch": 1,
    "lat": 24.27395,
    "lng": 120.747951,
    "sid": "MAA5ADQAMgAwADAAMAAwADMANQAtADAAMQA=",
    "name": "(公立)臺中市立豐原幼兒園朴子分班",
    "type": "spub0"
  },
  {
    "newsch": 1,
    "lat": 24.269439,
    "lng": 120.72619,
    "sid": "MAA5ADQAMgAwADAAMAAwADMANQAtADAAMgA=",
    "name": "(公立)臺中市立豐原幼兒園東湳分班",
    "type": "spub0"
  },
  {
    "newsch": 1,
    "lat": 24.267844,
    "lng": 120.716765,
    "sid": "MAA5ADQAMgAwADAAMAAwADMANQAtADAAMwA=",
    "name": "(公立)臺中市立豐原幼兒園西湳分班",
    "type": "spub0"
  },
  {
    "newsch": 1,
    "lat": 24.253443999999998,
    "lng": 120.708283,
    "sid": "MAA5ADQAMgAwADAAMAAwADMANQAtADAANAA=",
    "name": "(公立)臺中市立豐原幼兒園豐圳分班",
    "type": "spub0"
  },
  {
    "newsch": 1,
    "lat": 24.244169,
    "lng": 120.700701,
    "sid": "MAA5ADQAMgAwADAAMAAwADMANQAtADAANQA=",
    "name": "(公立)臺中市立豐原幼兒園社皮分班",
    "type": "spub0"
  },
  {
    "newsch": 1,
    "lat": 24.24437,
    "lng": 120.72987,
    "sid": "MAA5ADQAMgAwADAAMAAwADMANQAtADAANgA=",
    "name": "(公立)臺中市立豐原幼兒園北陽分班",
    "type": "spub0"
  },
  {
    "newsch": 1,
    "lat": 24.226124,
    "lng": 120.72688,
    "sid": "MAA5ADQAMgAwADAAMAAwADMANQAtADAANwA=",
    "name": "(公立)臺中市立豐原幼兒園鎌村分班",
    "type": "spub0"
  },
  {
    "newsch": 1,
    "lat": 24.256507,
    "lng": 120.715758,
    "sid": "MAA5ADQAMgAwADAAMAAwADMANQAtADAAOAA=",
    "name": "(公立)臺中市立豐原幼兒園圳寮分班",
    "type": "spub0"
  },
  {
    "newsch": 1,
    "lat": 24.251007,
    "lng": 120.72479,
    "sid": "MAA5ADQAMgAwADAAMAAwADMANQAtADAAOQA=",
    "name": "(公立)臺中市立豐原幼兒園中陽分班",
    "type": "spub0"
  },
  {
    "newsch": 1,
    "lat": 24.259169,
    "lng": 120.742231,
    "sid": "MAA5ADQAMgAwADAAMAAwADMANQAtADEAMAA=",
    "name": "(公立)臺中市立豐原幼兒園南田分班",
    "type": "spub0"
  },
  {
    "newsch": 1,
    "lat": 24.240724,
    "lng": 120.715483,
    "sid": "MAA5ADQAMgAwADAAMAAwADMANgA=",
    "name": "(私立)臺中市私立丰原格林幼兒園",
    "type": "spub1"
  },
  {
    "newsch": 1,
    "lat": 24.242274,
    "lng": 120.736052,
    "sid": "MAA5ADQAMgAwADAAMAAwADMAOAA=",
    "name": "(公立)臺中市豐原區福陽國民小學附設幼兒園",
    "type": "spub0"
  },
  {
    "newsch": 1,
    "lat": 24.238074,
    "lng": 120.70517,
    "sid": "MAA5ADQAMgAwADAAMAAwADMAOQA=",
    "name": "(準公共)臺中市私立兒童花園幼兒園",
    "type": "spub3"
  },
  {
    "newsch": 1,
    "lat": 24.249642,
    "lng": 120.712427,
    "sid": "MAA5ADQAMgAwADAAMAAwADQAMQA=",
    "name": "(公立)臺中市豐原區瑞穗國民小學附設幼兒園",
    "type": "spub0"
  },
  {
    "newsch": 1,
    "lat": 24.238334,
    "lng": 120.704165,
    "sid": "MAA5ADQAMgAwADAAMAAwADQAMgA=",
    "name": "(私立)臺中市私立冠鈞藝術幼兒園",
    "type": "spub1"
  },
  {
    "newsch": 1,
    "lat": 24.246432,
    "lng": 120.722742,
    "sid": "MAA5ADQAMgAwADAAMAAwADQAMwA=",
    "name": "(私立)臺中市私立日光城堡幼兒園",
    "type": "spub1"
  },
  {
    "newsch": 1,
    "lat": 24.251437,
    "lng": 120.735734,
    "sid": "MAA5ADQAMgAwADAAMAAwADQANAA=",
    "name": "(私立)臺中市私立日初幼兒園",
    "type": "spub1"
  },
  {
    "newsch": 1,
    "lat": 24.252758,
    "lng": 120.736493,
    "sid": "MAA5ADQAMgAwADAAMAAwADQANQA=",
    "name": "(私立)臺中市私立滿果藝術幼兒園",
    "type": "spub1"
  }
]