[
  {
    "newsch": 1,
    "lat": 24.241149,
    "lng": 120.709343,
    "sid": "MAA5ADQAMgAwADAAMAAwADAAMQA=",
    "name": "(私立)臺中市私立艾貝兒幼兒園",
    "type": "spub1"
  },
  {
    "newsch": 1,
    "lat": 24.244057,
    "lng": 120.723842,
    "sid": "MAA5ADQAMgAwADAAMAAwADAAMgA=",
    "name": "(私立)臺中市私立三光幼兒園",
    "type": "spub1"
  },
  {
    "newsch": 1,
    "lat": 24.261769,
    "lng": 120.715203,
    "sid": "MAA5ADQAMgAwADAAMAAwADAANAA=",
    "name": "(準公共)臺中市私立奇美幼兒園",
    "type": "spub3"
  },
  {
    "newsch": 1,
    "lat": 24.2345203,
    "lng": 120.7145601,
    "sid": "MAA5ADQAMgAwADAAMAAwADAANQA=",
    "name": "(私立)臺中市私立豐原大千幼兒園",
    "type": "spub1"
  },
  {
    "newsch": 1,
    "lat": 24.2456302,
    "lng": 120.7230971,
    "sid": "MAA5ADQAMgAwADAAMAAwADAANgA=",
    "name": "(私立)臺中市私立豐原何嘉仁幼兒園",
    "type": "spub1"
  },
  {
    "newsch": 1,
    "lat": 24.248207,
    "lng": 120.712661,
    "sid": "MAA5ADQAMgAwADAAMAAwADAANwA=",
    "name": "(私立)臺中市私立三愛幼兒園",
    "type": "spub1"
  },
  {
    "newsch": 1,
    "lat": 24.264232,
    "lng": 120.743863,
    "sid": "MAA5ADQAMgAwADAAMAAwADAAOAA=",
    "name": "(私立)臺中市私立東之寶幼兒園",
    "type": "spub1"
  },
  {
    "newsch": 1,
    "lat": 24.237391,
    "lng": 120.722779,
    "sid": "MAA5ADQAMgAwADAAMAAwADAAOQA=",
    "name": "(準公共)臺中市私立巧兒幼兒園",
    "type": "spub3"
  },
  {
    "newsch": 1,
    "lat": 24.2379525,
    "lng": 120.7076922,
    "sid": "MAA5ADQAMgAwADAAMAAwADEAMAA=",
    "name": "(準公共)臺中市私立立立幼兒園",
    "type": "spub3"
  },
  {
    "newsch": 1,
    "lat": 24.251269,
    "lng": 120.711105,
    "sid": "MAA5ADQAMgAwADAAMAAwADEAMgA=",
    "name": "(私立)臺中市私立亞特藍幼兒園",
    "type": "spub1"
  },
  {
    "newsch": 1,
    "lat": 24.251946,
    "lng": 120.73558,
    "sid": "MAA5ADQAMgAwADAAMAAwADEAMwA=",
    "name": "(私立)臺中市私立馬爾斯幼兒園",
    "type": "spub1"
  },
  {
    "newsch": 1,
    "lat": 24.254436,
    "lng": 120.728203,
    "sid": "MAA5ADQAMgAwADAAMAAwADEANAA=",
    "name": "(私立)臺中市私立揚百翰幼兒園",
    "type": "spub1"
  },
  {
    "newsch": 1,
    "lat": 24.246893,
    "lng": 120.723693,
    "sid": "MAA5ADQAMgAwADAAMAAwADEANQA=",
    "name": "(私立)臺中市私立美倫幼兒園",
    "type": "spub1"
  },
  {
    "newsch": 1,
    "lat": 24.2474683,
    "lng": 120.7256049,
    "sid": "MAA5ADQAMgAwADAAMAAwADEANgA=",
    "name": "(私立)臺中市私立真愛幼兒園",
    "type": "spub1"
  },
  {
    "newsch": 1,
    "lat": 24.261195,
    "lng": 120.713378,
    "sid": "MAA5ADQAMgAwADAAMAAwADEAOAA=",
    "name": "(準公共)臺中市私立愛笛兒幼兒園",
    "type": "spub3"
  },
  {
    "newsch": 1,
    "lat": 24.252071,
    "lng": 120.735586,
    "sid": "MAA5ADQAMgAwADAAMAAwADEAOQA=",
    "name": "(私立)臺中市私立愛伯特幼兒園",
    "type": "spub1"
  },
  {
    "newsch": 1,
    "lat": 24.249977,
    "lng": 120.7098192,
    "sid": "MAA5ADQAMgAwADAAMAAwADIAMAA=",
    "name": "(私立)臺中市私立桃太郎幼兒園",
    "type": "spub1"
  },
  {
    "newsch": 1,
    "lat": 24.244703,
    "lng": 120.726071,
    "sid": "MAA5ADQAMgAwADAAMAAwADIAMQA=",
    "name": "(準公共)臺中市私立幼寶幼兒園",
    "type": "spub3"
  },
  {
    "newsch": 1,
    "lat": 24.23681,
    "lng": 120.716652,
    "sid": "MAA5ADQAMgAwADAAMAAwADIAMgA=",
    "name": "(私立)臺中市私立民宜幼兒園",
    "type": "spub1"
  },
  {
    "newsch": 1,
    "lat": 24.26074,
    "lng": 120.72417,
    "sid": "MAA5ADQAMgAwADAAMAAwADIANAA=",
    "name": "(私立)臺中市私立豐原蒲公英幼兒園",
    "type": "spub1"
  },
  {
    "newsch": 1,
    "lat": 24.245741,
    "lng": 120.712762,
    "sid": "MAA5ADQAMgAwADAAMAAwADIANQA=",
    "name": "(私立)臺中市私立亞恩蒂幼兒園",
    "type": "spub1"
  },
  {
    "newsch": 1,
    "lat": 24.248622,
    "lng": 120.734901,
    "sid": "MAA5ADQAMgAwADAAMAAwADIANgA=",
    "name": "(私立)臺中市私立豐原欣欣幼兒園",
    "type": "spub1"
  },
  {
    "newsch": 1,
    "lat": 24.2454607,
    "lng": 120.7233208,
    "sid": "MAA5ADQAMgAwADAAMAAwADIANwA=",
    "name": "(私立)臺中市私立立盈幼兒園",
    "type": "spub1"
  },
  {
    "newsch": 1,
    "lat": 24.2520869,
    "lng": 120.714079,
    "sid": "MAA5ADQAMgAwADAAMAAwADIAOAA=",
    "name": "(公立)臺中市豐原區富春國民小學附設幼兒園",
    "type": "spub0"
  },
  {
    "newsch": 1,
    "lat": 24.239649,
    "lng": 120.704237,
    "sid": "MAA5ADQAMgAwADAAMAAwADIAOQA=",
    "name": "(公立)臺中市豐原區合作國民小學附設幼兒園",
    "type": "spub0"
  },
  {
    "newsch": 1,
    "lat": 24.248177,
    "lng": 120.723241,
    "sid": "MAA5ADQAMgAwADAAMAAwADMAMAA=",
    "name": "(公立)臺中市豐原區南陽國民小學附設幼兒園",
    "type": "spub0"
  },
  {
    "newsch": 1,
    "lat": 24.263241,
    "lng": 120.742742,
    "sid": "MAA5ADQAMgAwADAAMAAwADMAMQA=",
    "name": "(公立)臺中市豐原區翁子國民小學附設幼兒園",
    "type": "spub0"
  },
  {
    "newsch": 1,
    "lat": 24.237609,
    "lng": 120.722148,
    "sid": "MAA5ADQAMgAwADAAMAAwADMAMgA=",
    "name": "(公立)臺中市豐原區豐田國民小學附設幼兒園",
    "type": "spub0"
  },
  {
    "newsch": 1,
    "lat": 24.255367,
    "lng": 120.736391,
    "sid": "MAA5ADQAMgAwADAAMAAwADMAMwA=",
    "name": "(公立)臺中市豐原區豐村國民小學附設幼兒園",
    "type": "spub0"
  },
  {
    "newsch": 1,
    "lat": 24.254604,
    "lng": 120.720781,
    "sid": "MAA5ADQAMgAwADAAMAAwADMANAA=",
    "name": "(公立)臺中市豐原區豐原國民小學附設幼兒園",
    "type": "spub0"
  },
  {
    "newsch": 1,
    "lat": 24.26554,
    "lng": 120.738092,
    "sid": "MAA5ADQAMgAwADAAMAAwADMANQA=",
    "name": "(公立)臺中市立豐原幼兒園",
    "type": "spub0"
  },
  {
    "newsch": 1,
    "lat": 24.2738242,
    "lng": 120.7478638,
    "sid": "MAA5ADQAMgAwADAAMAAwADMANQAtADAAMQA=",
    "name": "(公立)臺中市立豐原幼兒園朴子分班",
    "type": "spub0"
  },
  {
    "newsch": 1,
    "lat": 24.2698389,
    "lng": 120.7271737,
    "sid": "MAA5ADQAMgAwADAAMAAwADMANQAtADAAMgA=",
    "name": "(公立)臺中市立豐原幼兒園東湳分班",
    "type": "spub0"
  },
  {
    "newsch": 1,
    "lat": 24.268143,
    "lng": 120.71722,
    "sid": "MAA5ADQAMgAwADAAMAAwADMANQAtADAAMwA=",
    "name": "(公立)臺中市立豐原幼兒園西湳分班",
    "type": "spub0"
  },
  {
    "newsch": 1,
    "lat": 24.2537,
    "lng": 120.709006,
    "sid": "MAA5ADQAMgAwADAAMAAwADMANQAtADAANAA=",
    "name": "(公立)臺中市立豐原幼兒園豐圳分班",
    "type": "spub0"
  },
  {
    "newsch": 1,
    "lat": 24.2421029,
    "lng": 120.7003471,
    "sid": "MAA5ADQAMgAwADAAMAAwADMANQAtADAANQA=",
    "name": "(公立)臺中市立豐原幼兒園社皮分班",
    "type": "spub0"
  },
  {
    "newsch": 1,
    "lat": 24.2440358,
    "lng": 120.7297857,
    "sid": "MAA5ADQAMgAwADAAMAAwADMANQAtADAANgA=",
    "name": "(公立)臺中市立豐原幼兒園北陽分班",
    "type": "spub0"
  },
  {
    "newsch": 1,
    "lat": 24.2261387,
    "lng": 120.7268178,
    "sid": "MAA5ADQAMgAwADAAMAAwADMANQAtADAANwA=",
    "name": "(公立)臺中市立豐原幼兒園鎌村分班",
    "type": "spub0"
  },
  {
    "newsch": 1,
    "lat": 24.2572488,
    "lng": 120.7181067,
    "sid": "MAA5ADQAMgAwADAAMAAwADMANQAtADAAOAA=",
    "name": "(公立)臺中市立豐原幼兒園圳寮分班",
    "type": "spub0"
  },
  {
    "newsch": 1,
    "lat": 24.250909,
    "lng": 120.724595,
    "sid": "MAA5ADQAMgAwADAAMAAwADMANQAtADAAOQA=",
    "name": "(公立)臺中市立豐原幼兒園中陽分班",
    "type": "spub0"
  },
  {
    "newsch": 1,
    "lat": 24.259223,
    "lng": 120.741968,
    "sid": "MAA5ADQAMgAwADAAMAAwADMANQAtADEAMAA=",
    "name": "(公立)臺中市立豐原幼兒園南田分班",
    "type": "spub0"
  },
  {
    "newsch": 1,
    "lat": 24.240966,
    "lng": 120.715463,
    "sid": "MAA5ADQAMgAwADAAMAAwADMANgA=",
    "name": "(私立)臺中市私立丰原格林幼兒園",
    "type": "spub1"
  },
  {
    "newsch": 1,
    "lat": 24.2422551,
    "lng": 120.7352991,
    "sid": "MAA5ADQAMgAwADAAMAAwADMAOAA=",
    "name": "(公立)臺中市豐原區福陽國民小學附設幼兒園",
    "type": "spub0"
  },
  {
    "newsch": 1,
    "lat": 24.2381178,
    "lng": 120.7051382,
    "sid": "MAA5ADQAMgAwADAAMAAwADMAOQA=",
    "name": "(準公共)臺中市私立兒童花園幼兒園",
    "type": "spub3"
  },
  {
    "newsch": 1,
    "lat": 24.248973199999998,
    "lng": 120.7106485,
    "sid": "MAA5ADQAMgAwADAAMAAwADQAMQA=",
    "name": "(公立)臺中市豐原區瑞穗國民小學附設幼兒園",
    "type": "spub0"
  },
  {
    "newsch": 1,
    "lat": 24.2377246,
    "lng": 120.7038734,
    "sid": "MAA5ADQAMgAwADAAMAAwADQAMgA=",
    "name": "(私立)臺中市私立冠鈞藝術幼兒園",
    "type": "spub1"
  },
  {
    "newsch": 1,
    "lat": 24.2464457,
    "lng": 120.7227157,
    "sid": "MAA5ADQAMgAwADAAMAAwADQAMwA=",
    "name": "(私立)臺中市私立日光城堡幼兒園",
    "type": "spub1"
  }
]