[
  {
    "newsch": 1,
    "lat": 24.259075,
    "lng": 120.703705,
    "sid": "MAA5ADQAMgA5ADAAMAAwADAAMQA=",
    "name": "(準公共)臺中市私立一安堂幼兒園",
    "type": "spub3"
  },
  {
    "newsch": 1,
    "lat": 24.242871,
    "lng": 120.677192,
    "sid": "MAA5ADQAMgA5ADAAMAAwADAAMgA=",
    "name": "(準公共)臺中市私立神岡三采幼兒園",
    "type": "spub3"
  },
  {
    "newsch": 1,
    "lat": 24.251261,
    "lng": 120.684071,
    "sid": "MAA5ADQAMgA5ADAAMAAwADAAMwA=",
    "name": "(私立)臺中市私立巧雅幼兒園",
    "type": "spub1"
  },
  {
    "newsch": 1,
    "lat": 24.257287,
    "lng": 120.710424,
    "sid": "MAA5ADQAMgA5ADAAMAAwADAANAA=",
    "name": "(私立)臺中市私立保貝兒幼兒園",
    "type": "spub1"
  },
  {
    "newsch": 1,
    "lat": 24.245514,
    "lng": 120.683234,
    "sid": "MAA5ADQAMgA5ADAAMAAwADAANQA=",
    "name": "(私立)臺中市私立佳音幼兒園",
    "type": "spub1"
  },
  {
    "newsch": 1,
    "lat": 24.2521624,
    "lng": 120.6795956,
    "sid": "MAA5ADQAMgA5ADAAMAAwADAANgA=",
    "name": "(準公共)臺中市私立立人幼兒園",
    "type": "spub3"
  },
  {
    "newsch": 1,
    "lat": 24.236749,
    "lng": 120.697836,
    "sid": "MAA5ADQAMgA5ADAAMAAwADAANwA=",
    "name": "(私立)臺中市私立維笙幼兒園",
    "type": "spub1"
  },
  {
    "newsch": 1,
    "lat": 24.236737,
    "lng": 120.699832,
    "sid": "MAA5ADQAMgA5ADAAMAAwADAAOAA=",
    "name": "(私立)臺中市私立神岡愛兒堡幼兒園",
    "type": "spub1"
  },
  {
    "newsch": 1,
    "lat": 24.265714,
    "lng": 120.693802,
    "sid": "MAA5ADQAMgA5ADAAMAAwADEAMAA=",
    "name": "(準公共)臺中市私立神岡諾貝爾幼兒園",
    "type": "spub3"
  },
  {
    "newsch": 1,
    "lat": 24.251124,
    "lng": 120.700317,
    "sid": "MAA5ADQAMgA5ADAAMAAwADEAMgA=",
    "name": "(準公共)臺中市私立文惠幼兒園",
    "type": "spub3"
  },
  {
    "newsch": 1,
    "lat": 24.267418,
    "lng": 120.658759,
    "sid": "MAA5ADQAMgA5ADAAMAAwADEANAA=",
    "name": "(私立)臺中市私立瀚林幼兒園",
    "type": "spub1"
  },
  {
    "newsch": 1,
    "lat": 24.2571057,
    "lng": 120.712144,
    "sid": "MAA5ADQAMgA5ADAAMAAwADEANgA=",
    "name": "(準公共)臺中市私立百科學幼兒園",
    "type": "spub3"
  },
  {
    "newsch": 1,
    "lat": 24.257243,
    "lng": 120.671127,
    "sid": "MAA5ADQAMgA5ADAAMAAwADEANwA=",
    "name": "(私立)臺中市私立幼任幼兒園",
    "type": "spub1"
  },
  {
    "newsch": 1,
    "lat": 24.260155,
    "lng": 120.673468,
    "sid": "MAA5ADQAMgA5ADAAMAAwADEAOAA=",
    "name": "(私立)臺中市私立貝多芬幼兒園",
    "type": "spub1"
  },
  {
    "newsch": 1,
    "lat": 24.272939,
    "lng": 120.65936,
    "sid": "MAA5ADQAMgA5ADAAMAAwADEAOQA=",
    "name": "(公立)臺中市神岡區圳堵國民小學附設幼兒園",
    "type": "spub0"
  },
  {
    "newsch": 1,
    "lat": 24.24569,
    "lng": 120.684715,
    "sid": "MAA5ADQAMgA5ADAAMAAwADIAMAA=",
    "name": "(公立)臺中市神岡區社口國民小學附設幼兒園",
    "type": "spub0"
  },
  {
    "newsch": 1,
    "lat": 24.248969,
    "lng": 120.697722,
    "sid": "MAA5ADQAMgA5ADAAMAAwADIAMQA=",
    "name": "(公立)臺中市神岡區岸裡國民小學附設幼兒園",
    "type": "spub0"
  },
  {
    "newsch": 1,
    "lat": 24.258343,
    "lng": 120.660911,
    "sid": "MAA5ADQAMgA5ADAAMAAwADIAMgA=",
    "name": "(公立)臺中市神岡區神岡國民小學附設幼兒園",
    "type": "spub0"
  },
  {
    "newsch": 1,
    "lat": 24.244301,
    "lng": 120.684809,
    "sid": "MAA5ADQAMgA5ADAAMAAwADIAMwA=",
    "name": "(公立)臺中市立神岡幼兒園",
    "type": "spub0"
  },
  {
    "newsch": 1,
    "lat": 24.2788857,
    "lng": 120.6567575,
    "sid": "MAA5ADQAMgA5ADAAMAAwADIAMwAtADAAMQA=",
    "name": "(公立)臺中市立神岡幼兒園新庄分班",
    "type": "spub0"
  },
  {
    "newsch": 1,
    "lat": 24.257373,
    "lng": 120.668144,
    "sid": "MAA5ADQAMgA5ADAAMAAwADIAMwAtADAAMgA=",
    "name": "(公立)臺中市立神岡幼兒園北庄分班",
    "type": "spub0"
  },
  {
    "newsch": 1,
    "lat": 24.255156,
    "lng": 120.7046561,
    "sid": "MAA5ADQAMgA5ADAAMAAwADIAMwAtADAAMwA=",
    "name": "(公立)臺中市立神岡幼兒園豐洲分班",
    "type": "spub0"
  },
  {
    "newsch": 1,
    "lat": 24.238713,
    "lng": 120.689621,
    "sid": "MAA5ADQAMgA5ADAAMAAwADIAMwAtADAANAA=",
    "name": "(公立)臺中市立神岡幼兒園三角分班",
    "type": "spub0"
  },
  {
    "newsch": 1,
    "lat": 24.2620159,
    "lng": 120.7039507,
    "sid": "MAA5ADQAMgA5ADAAMAAwADIANAA=",
    "name": "(公立)臺中市神岡區豐洲國民小學附設幼兒園",
    "type": "spub0"
  },
  {
    "newsch": 1,
    "lat": 24.2611614,
    "lng": 120.7102844,
    "sid": "MAA5ADQAMgA5ADAAMAAwADIANQA=",
    "name": "(私立)臺中市星光教育發展協會附設臺中市私立星光國際幼兒園",
    "type": "spub1"
  },
  {
    "newsch": 1,
    "lat": 24.2609985,
    "lng": 120.6586229,
    "sid": "MAA5ADQAMgA5ADAAMAAwADIANgA=",
    "name": "(非營利)臺中市神圳非營利幼兒園(委託財團法人仁德醫護管理專科學校設立之仁德醫護管理專科學校辦理)",
    "type": "spub2"
  }
]