[
  {
    "newsch": 1,
    "lat": 24.259251,
    "lng": 120.703423,
    "sid": "MAA5ADQAMgA5ADAAMAAwADAAMQA=",
    "name": "(準公共)臺中市私立一安堂幼兒園",
    "type": "spub3"
  },
  {
    "newsch": 1,
    "lat": 24.243017,
    "lng": 120.677044,
    "sid": "MAA5ADQAMgA5ADAAMAAwADAAMgA=",
    "name": "(準公共)臺中市私立神岡三采幼兒園",
    "type": "spub3"
  },
  {
    "newsch": 1,
    "lat": 24.250169,
    "lng": 120.687328,
    "sid": "MAA5ADQAMgA5ADAAMAAwADAAMwA=",
    "name": "(私立)臺中市私立巧雅幼兒園",
    "type": "spub1"
  },
  {
    "newsch": 1,
    "lat": 24.257394,
    "lng": 120.710443,
    "sid": "MAA5ADQAMgA5ADAAMAAwADAANAA=",
    "name": "(私立)臺中市私立保貝兒幼兒園",
    "type": "spub1"
  },
  {
    "newsch": 1,
    "lat": 24.245285,
    "lng": 120.683148,
    "sid": "MAA5ADQAMgA5ADAAMAAwADAANQA=",
    "name": "(私立)臺中市私立佳音幼兒園",
    "type": "spub1"
  },
  {
    "newsch": 1,
    "lat": 24.252207,
    "lng": 120.679485,
    "sid": "MAA5ADQAMgA5ADAAMAAwADAANgA=",
    "name": "(準公共)臺中市私立立人幼兒園",
    "type": "spub3"
  },
  {
    "newsch": 1,
    "lat": 24.236953,
    "lng": 120.699802,
    "sid": "MAA5ADQAMgA5ADAAMAAwADAANwA=",
    "name": "(私立)臺中市私立維笙幼兒園",
    "type": "spub1"
  },
  {
    "newsch": 1,
    "lat": 24.236948,
    "lng": 120.699689,
    "sid": "MAA5ADQAMgA5ADAAMAAwADAAOAA=",
    "name": "(私立)臺中市私立神岡愛兒堡幼兒園",
    "type": "spub1"
  },
  {
    "newsch": 1,
    "lat": 24.265728,
    "lng": 120.693768,
    "sid": "MAA5ADQAMgA5ADAAMAAwADEAMAA=",
    "name": "(準公共)臺中市私立神岡諾貝爾幼兒園",
    "type": "spub3"
  },
  {
    "newsch": 1,
    "lat": 24.251035,
    "lng": 120.700385,
    "sid": "MAA5ADQAMgA5ADAAMAAwADEAMgA=",
    "name": "(準公共)臺中市私立文惠幼兒園",
    "type": "spub3"
  },
  {
    "newsch": 1,
    "lat": 24.267489,
    "lng": 120.65861,
    "sid": "MAA5ADQAMgA5ADAAMAAwADEANAA=",
    "name": "(私立)臺中市私立瀚林幼兒園",
    "type": "spub1"
  },
  {
    "newsch": 1,
    "lat": 24.257144,
    "lng": 120.712294,
    "sid": "MAA5ADQAMgA5ADAAMAAwADEANgA=",
    "name": "(準公共)臺中市私立百科學幼兒園",
    "type": "spub3"
  },
  {
    "newsch": 1,
    "lat": 24.257922,
    "lng": 120.669859,
    "sid": "MAA5ADQAMgA5ADAAMAAwADEANwA=",
    "name": "(私立)臺中市私立幼任幼兒園",
    "type": "spub1"
  },
  {
    "newsch": 1,
    "lat": 24.260233,
    "lng": 120.673608,
    "sid": "MAA5ADQAMgA5ADAAMAAwADEAOAA=",
    "name": "(私立)臺中市私立貝多芬幼兒園",
    "type": "spub1"
  },
  {
    "newsch": 1,
    "lat": 24.272561,
    "lng": 120.658525,
    "sid": "MAA5ADQAMgA5ADAAMAAwADEAOQA=",
    "name": "(公立)臺中市神岡區圳堵國民小學附設幼兒園",
    "type": "spub0"
  },
  {
    "newsch": 1,
    "lat": 24.24539471,
    "lng": 120.68438042,
    "sid": "MAA5ADQAMgA5ADAAMAAwADIAMAA=",
    "name": "(公立)臺中市神岡區社口國民小學附設幼兒園",
    "type": "spub0"
  },
  {
    "newsch": 1,
    "lat": 24.249098,
    "lng": 120.696454,
    "sid": "MAA5ADQAMgA5ADAAMAAwADIAMQA=",
    "name": "(公立)臺中市神岡區岸裡國民小學附設幼兒園",
    "type": "spub0"
  },
  {
    "newsch": 1,
    "lat": 24.25813,
    "lng": 120.660752,
    "sid": "MAA5ADQAMgA5ADAAMAAwADIAMgA=",
    "name": "(公立)臺中市神岡區神岡國民小學附設幼兒園",
    "type": "spub0"
  },
  {
    "newsch": 1,
    "lat": 24.24424,
    "lng": 120.684742,
    "sid": "MAA5ADQAMgA5ADAAMAAwADIAMwA=",
    "name": "(公立)臺中市立神岡幼兒園",
    "type": "spub0"
  },
  {
    "newsch": 1,
    "lat": 24.279708,
    "lng": 120.65799,
    "sid": "MAA5ADQAMgA5ADAAMAAwADIAMwAtADAAMQA=",
    "name": "(公立)臺中市立神岡幼兒園新庄分班",
    "type": "spub0"
  },
  {
    "newsch": 1,
    "lat": 24.257447,
    "lng": 120.668271,
    "sid": "MAA5ADQAMgA5ADAAMAAwADIAMwAtADAAMgA=",
    "name": "(公立)臺中市立神岡幼兒園北庄分班",
    "type": "spub0"
  },
  {
    "newsch": 1,
    "lat": 24.261652,
    "lng": 120.703781,
    "sid": "MAA5ADQAMgA5ADAAMAAwADIAMwAtADAAMwA=",
    "name": "(公立)臺中市立神岡幼兒園豐洲分班",
    "type": "spub0"
  },
  {
    "newsch": 1,
    "lat": 24.238612,
    "lng": 120.6895,
    "sid": "MAA5ADQAMgA5ADAAMAAwADIAMwAtADAANAA=",
    "name": "(公立)臺中市立神岡幼兒園三角分班",
    "type": "spub0"
  },
  {
    "newsch": 1,
    "lat": 24.262243,
    "lng": 120.703919,
    "sid": "MAA5ADQAMgA5ADAAMAAwADIANAA=",
    "name": "(公立)臺中市神岡區豐洲國民小學附設幼兒園",
    "type": "spub0"
  },
  {
    "newsch": 1,
    "lat": 24.261149,
    "lng": 120.710604,
    "sid": "MAA5ADQAMgA5ADAAMAAwADIANQA=",
    "name": "(私立)臺中市星光教育發展協會附設臺中市私立星光國際幼兒園",
    "type": "spub1"
  },
  {
    "newsch": 1,
    "lat": 24.26049,
    "lng": 120.657617,
    "sid": "MAA5ADQAMgA5ADAAMAAwADIANgA=",
    "name": "(非營利)臺中市神圳非營利幼兒園(委託財團法人仁德醫護管理專科學校設立之仁德醫護管理專科學校辦理)",
    "type": "spub2"
  }
]