[
  {
    "newsch": 1,
    "lat": 24.222716,
    "lng": 120.541373,
    "sid": "MAA5ADQAMwA1ADAAMAAwADAAMQA=",
    "name": "(私立)臺中市私立慈興幼兒園",
    "type": "spub1"
  },
  {
    "newsch": 1,
    "lat": 24.257589,
    "lng": 120.534555,
    "sid": "MAA5ADQAMwA1ADAAMAAwADAAMwA=",
    "name": "(私立)臺中市私立善美真娃得福幼兒園",
    "type": "spub1"
  },
  {
    "newsch": 1,
    "lat": 24.221129,
    "lng": 120.543736,
    "sid": "MAA5ADQAMwA1ADAAMAAwADAANAA=",
    "name": "(準公共)臺中市私立貴族幼兒園",
    "type": "spub3"
  },
  {
    "newsch": 1,
    "lat": 24.228142,
    "lng": 120.531835,
    "sid": "MAA5ADQAMwA1ADAAMAAwADAANQA=",
    "name": "(私立)臺中市私立新象幼兒園",
    "type": "spub1"
  },
  {
    "newsch": 1,
    "lat": 24.246916,
    "lng": 120.554401,
    "sid": "MAA5ADQAMwA1ADAAMAAwADAANgA=",
    "name": "(準公共)臺中市私立綠太陽幼兒園",
    "type": "spub3"
  },
  {
    "newsch": 1,
    "lat": 24.256663,
    "lng": 120.533333,
    "sid": "MAA5ADQAMwA1ADAAMAAwADAANwA=",
    "name": "(私立)臺中市私立新中華文藻幼兒園",
    "type": "spub1"
  },
  {
    "newsch": 1,
    "lat": 24.257372,
    "lng": 120.53233,
    "sid": "MAA5ADQAMwA1ADAAMAAwADAANwAtADAAMQA=",
    "name": "(私立)臺中市私立新中華文藻幼兒園易寶貝分班",
    "type": "spub1"
  },
  {
    "newsch": 1,
    "lat": 24.242354,
    "lng": 120.541874,
    "sid": "MAA5ADQAMwA1ADAAMAAwADEAMAA=",
    "name": "(私立)臺中市私立親子田藝術幼兒園",
    "type": "spub1"
  },
  {
    "newsch": 1,
    "lat": 24.247399,
    "lng": 120.547375,
    "sid": "MAA5ADQAMwA1ADAAMAAwADEAMQA=",
    "name": "(準公共)臺中市私立有志幼兒園",
    "type": "spub3"
  },
  {
    "newsch": 1,
    "lat": 24.255892,
    "lng": 120.546273,
    "sid": "MAA5ADQAMwA1ADAAMAAwADEAMgA=",
    "name": "(私立)臺中市私立梧棲同德幼兒園",
    "type": "spub1"
  },
  {
    "newsch": 1,
    "lat": 24.252959,
    "lng": 120.530191,
    "sid": "MAA5ADQAMwA1ADAAMAAwADEAMwA=",
    "name": "(公立)臺中市梧棲區梧棲國民小學附設幼兒園",
    "type": "spub0"
  },
  {
    "newsch": 1,
    "lat": 24.241184,
    "lng": 120.555252,
    "sid": "MAA5ADQAMwA1ADAAMAAwADEANAA=",
    "name": "(公立)臺中市梧棲區中港國民小學附設幼兒園",
    "type": "spub0"
  },
  {
    "newsch": 1,
    "lat": 24.250925,
    "lng": 120.538122,
    "sid": "MAA5ADQAMwA1ADAAMAAwADEANQA=",
    "name": "(公立)臺中市梧棲區中正國民小學附設幼兒園",
    "type": "spub0"
  },
  {
    "newsch": 1,
    "lat": 24.229349,
    "lng": 120.533436,
    "sid": "MAA5ADQAMwA1ADAAMAAwADEANgA=",
    "name": "(公立)臺中市梧棲區永寧國民小學附設幼兒園",
    "type": "spub0"
  },
  {
    "newsch": 1,
    "lat": 24.248453,
    "lng": 120.530751,
    "sid": "MAA5ADQAMwA1ADAAMAAwADEANwA=",
    "name": "(公立)臺中市立梧棲幼兒園",
    "type": "spub0"
  },
  {
    "newsch": 1,
    "lat": 24.243105,
    "lng": 120.547504,
    "sid": "MAA5ADQAMwA1ADAAMAAwADEAOAA=",
    "name": "(私立)財團法人海聲人智學教育基金會附設臺中市私立海聲華德福幼兒園",
    "type": "spub1"
  },
  {
    "newsch": 1,
    "lat": 24.241608,
    "lng": 120.548195,
    "sid": "MAA5ADQAMwA1ADAAMAAwADEAOQA=",
    "name": "(私立)臺中市私立有一加幼兒園",
    "type": "spub1"
  },
  {
    "newsch": 1,
    "lat": 24.255529,
    "lng": 120.537261,
    "sid": "MAA5ADQAMwA1ADAAMAAwADIAMAA=",
    "name": "(私立)臺中市私立夏洛特幼兒園",
    "type": "spub1"
  },
  {
    "newsch": 1,
    "lat": 24.257263,
    "lng": 120.524266,
    "sid": "MAA5ADQAMwA1ADAAMAAwADIAMQA=",
    "name": "(私立)臺灣港務股份有限公司臺中港職場互助教保服務中心(委託財團法人星光教育基金會辦理)",
    "type": "spub1"
  },
  {
    "newsch": 1,
    "lat": 24.244705,
    "lng": 120.528155,
    "sid": "MAA5ADQAMwA1ADAAMAAwADIAMgA=",
    "name": "(公立)臺中市梧棲區梧南國民小學附設幼兒園",
    "type": "spub0"
  },
  {
    "newsch": 1,
    "lat": 24.256209,
    "lng": 120.551997,
    "sid": "MAA5ADQAMwA1ADAAMAAwADIAMwA=",
    "name": "(私立)臺中市私立善美真華德福幼兒園",
    "type": "spub1"
  }
]