[
  {
    "newsch": 1,
    "lat": 24.222739,
    "lng": 120.541209,
    "sid": "MAA5ADQAMwA1ADAAMAAwADAAMQA=",
    "name": "(私立)臺中市私立慈興幼兒園",
    "type": "spub1"
  },
  {
    "newsch": 1,
    "lat": 24.242467,
    "lng": 120.530595,
    "sid": "MAA5ADQAMwA1ADAAMAAwADAAMgA=",
    "name": "(私立)臺中市私立梧棲向日葵幼兒園",
    "type": "spub1"
  },
  {
    "newsch": 1,
    "lat": 24.257663,
    "lng": 120.534373,
    "sid": "MAA5ADQAMwA1ADAAMAAwADAAMwA=",
    "name": "(私立)臺中市私立善美真娃得福幼兒園",
    "type": "spub1"
  },
  {
    "newsch": 1,
    "lat": 24.221271,
    "lng": 120.543325,
    "sid": "MAA5ADQAMwA1ADAAMAAwADAANAA=",
    "name": "(準公共)臺中市私立貴族幼兒園",
    "type": "spub3"
  },
  {
    "newsch": 1,
    "lat": 24.22823,
    "lng": 120.5317,
    "sid": "MAA5ADQAMwA1ADAAMAAwADAANQA=",
    "name": "(私立)臺中市私立新象幼兒園",
    "type": "spub1"
  },
  {
    "newsch": 1,
    "lat": 24.24299,
    "lng": 120.564976,
    "sid": "MAA5ADQAMwA1ADAAMAAwADAANgA=",
    "name": "(準公共)臺中市私立綠太陽幼兒園",
    "type": "spub3"
  },
  {
    "newsch": 1,
    "lat": 24.2566893,
    "lng": 120.533205,
    "sid": "MAA5ADQAMwA1ADAAMAAwADAANwA=",
    "name": "(私立)臺中市私立新中華文藻幼兒園",
    "type": "spub1"
  },
  {
    "newsch": 1,
    "lat": 24.2573667,
    "lng": 120.5324558,
    "sid": "MAA5ADQAMwA1ADAAMAAwADAANwAtADAAMQA=",
    "name": "(私立)臺中市私立新中華文藻幼兒園易寶貝分班",
    "type": "spub1"
  },
  {
    "newsch": 1,
    "lat": 24.242356,
    "lng": 120.542029,
    "sid": "MAA5ADQAMwA1ADAAMAAwADEAMAA=",
    "name": "(私立)臺中市私立親子田藝術幼兒園",
    "type": "spub1"
  },
  {
    "newsch": 1,
    "lat": 24.247319,
    "lng": 120.54738,
    "sid": "MAA5ADQAMwA1ADAAMAAwADEAMQA=",
    "name": "(私立)臺中市私立有志幼兒園",
    "type": "spub1"
  },
  {
    "newsch": 1,
    "lat": 24.255289,
    "lng": 120.549835,
    "sid": "MAA5ADQAMwA1ADAAMAAwADEAMgA=",
    "name": "(私立)臺中市私立梧棲同德幼兒園",
    "type": "spub1"
  },
  {
    "newsch": 1,
    "lat": 24.253032,
    "lng": 120.531052,
    "sid": "MAA5ADQAMwA1ADAAMAAwADEAMwA=",
    "name": "(公立)臺中市梧棲區梧棲國民小學附設幼兒園",
    "type": "spub0"
  },
  {
    "newsch": 1,
    "lat": 24.240863,
    "lng": 120.555539,
    "sid": "MAA5ADQAMwA1ADAAMAAwADEANAA=",
    "name": "(公立)臺中市梧棲區中港國民小學附設幼兒園",
    "type": "spub0"
  },
  {
    "newsch": 1,
    "lat": 24.250478,
    "lng": 120.538681,
    "sid": "MAA5ADQAMwA1ADAAMAAwADEANQA=",
    "name": "(公立)臺中市梧棲區中正國民小學附設幼兒園",
    "type": "spub0"
  },
  {
    "newsch": 1,
    "lat": 24.2291009,
    "lng": 120.532367,
    "sid": "MAA5ADQAMwA1ADAAMAAwADEANgA=",
    "name": "(公立)臺中市梧棲區永寧國民小學附設幼兒園",
    "type": "spub0"
  },
  {
    "newsch": 1,
    "lat": 24.2494269,
    "lng": 120.5308296,
    "sid": "MAA5ADQAMwA1ADAAMAAwADEANwA=",
    "name": "(公立)臺中市立梧棲幼兒園",
    "type": "spub0"
  },
  {
    "newsch": 1,
    "lat": 24.2429472,
    "lng": 120.5476867,
    "sid": "MAA5ADQAMwA1ADAAMAAwADEAOAA=",
    "name": "(私立)財團法人海聲人智學教育基金會附設臺中市私立海聲華德福幼兒園",
    "type": "spub1"
  },
  {
    "newsch": 1,
    "lat": 24.241612,
    "lng": 120.5486119,
    "sid": "MAA5ADQAMwA1ADAAMAAwADEAOQA=",
    "name": "(私立)臺中市私立有一加幼兒園",
    "type": "spub1"
  },
  {
    "newsch": 1,
    "lat": 24.2555811,
    "lng": 120.5369987,
    "sid": "MAA5ADQAMwA1ADAAMAAwADIAMAA=",
    "name": "(私立)臺中市私立夏洛特幼兒園",
    "type": "spub1"
  }
]