[
  {
    "newsch": 1,
    "lat": 24.085041,
    "lng": 120.581834,
    "sid": "MQAxADUAMAAwADAAMAAwADAAMQA=",
    "name": "(準公共)彰化縣私立先鋒幼兒園",
    "type": "spub3"
  },
  {
    "newsch": 1,
    "lat": 24.0932349,
    "lng": 120.55281,
    "sid": "MQAxADUAMAAwADAAMAAwADAAMgA=",
    "name": "(私立)彰化縣私立立大幼兒園",
    "type": "spub1"
  },
  {
    "newsch": 1,
    "lat": 24.085298,
    "lng": 120.569745,
    "sid": "MQAxADUAMAAwADAAMAAwADAANAA=",
    "name": "(準公共)彰化縣私立昀銛幼兒園",
    "type": "spub3"
  },
  {
    "newsch": 1,
    "lat": 24.058673,
    "lng": 120.5453697,
    "sid": "MQAxADUAMAAwADAAMAAwADAANQA=",
    "name": "(私立)彰化縣私立小樹苗幼兒園",
    "type": "spub1"
  },
  {
    "newsch": 1,
    "lat": 24.0704359,
    "lng": 120.5388995,
    "sid": "MQAxADUAMAAwADAAMAAwADAANgA=",
    "name": "(私立)彰化縣私立爵諾威爾幼兒園",
    "type": "spub1"
  },
  {
    "newsch": 1,
    "lat": 24.075346,
    "lng": 120.551994,
    "sid": "MQAxADUAMAAwADAAMAAwADAANwA=",
    "name": "(準公共)彰化縣私立三才幼兒園",
    "type": "spub3"
  },
  {
    "newsch": 1,
    "lat": 24.0575309,
    "lng": 120.533912,
    "sid": "MQAxADUAMAAwADAAMAAwADAAOAA=",
    "name": "(準公共)彰化縣私立南興幼兒園",
    "type": "spub3"
  },
  {
    "newsch": 1,
    "lat": 24.084733,
    "lng": 120.543625,
    "sid": "MQAxADUAMAAwADAAMAAwADAAOQA=",
    "name": "(準公共)彰化縣私立立人幼兒園",
    "type": "spub3"
  },
  {
    "newsch": 1,
    "lat": 24.0664946,
    "lng": 120.5368771,
    "sid": "MQAxADUAMAAwADAAMAAwADEAMAA=",
    "name": "(私立)彰化縣私立威爾森幼兒園",
    "type": "spub1"
  },
  {
    "newsch": 1,
    "lat": 24.0918439,
    "lng": 120.545848,
    "sid": "MQAxADUAMAAwADAAMAAwADEAMgA=",
    "name": "(準公共)彰化縣私立美利亞幼兒園",
    "type": "spub3"
  },
  {
    "newsch": 1,
    "lat": 24.065769,
    "lng": 120.512213,
    "sid": "MQAxADUAMAAwADAAMAAwADEANAA=",
    "name": "(私立)彰化縣私立安貝兒幼兒園",
    "type": "spub1"
  },
  {
    "newsch": 1,
    "lat": 24.074355,
    "lng": 120.535725,
    "sid": "MQAxADUAMAAwADAAMAAwADEANgA=",
    "name": "(準公共)彰化縣私立探索中興幼兒園",
    "type": "spub3"
  },
  {
    "newsch": 1,
    "lat": 24.0687919,
    "lng": 120.534952,
    "sid": "MQAxADUAMAAwADAAMAAwADEANwA=",
    "name": "(私立)彰化縣私立上鼎幼兒園",
    "type": "spub1"
  },
  {
    "newsch": 1,
    "lat": 24.0721257,
    "lng": 120.5436532,
    "sid": "MQAxADUAMAAwADAAMAAwADEAOAA=",
    "name": "(準公共)彰化縣彰山宮文化慈善事業協會附設彰化縣私立彰山宮幼兒園",
    "type": "spub3"
  },
  {
    "newsch": 1,
    "lat": 24.068857,
    "lng": 120.5319206,
    "sid": "MQAxADUAMAAwADAAMAAwADEAOQA=",
    "name": "(準公共)彰化縣私立牛頓米羅幼兒園",
    "type": "spub3"
  },
  {
    "newsch": 1,
    "lat": 24.0629325,
    "lng": 120.5273011,
    "sid": "MQAxADUAMAAwADAAMAAwADIAMAA=",
    "name": "(私立)彰化縣私立華盛頓幼兒園",
    "type": "spub1"
  },
  {
    "newsch": 1,
    "lat": 24.0664901,
    "lng": 120.5405433,
    "sid": "MQAxADUAMAAwADAAMAAwADIAMgA=",
    "name": "(私立)彰化縣私立喜悅兒幼兒園",
    "type": "spub1"
  },
  {
    "newsch": 1,
    "lat": 24.0833732,
    "lng": 120.5324129,
    "sid": "MQAxADUAMAAwADAAMAAwADIAMwA=",
    "name": "(私立)彰化縣私立芝加哥幼兒園",
    "type": "spub1"
  },
  {
    "newsch": 1,
    "lat": 24.086189,
    "lng": 120.543942,
    "sid": "MQAxADUAMAAwADAAMAAwADIANAA=",
    "name": "(準公共)彰化縣私立堉惠幼兒園",
    "type": "spub3"
  },
  {
    "newsch": 1,
    "lat": 24.0833582,
    "lng": 120.5699524,
    "sid": "MQAxADUAMAAwADAAMAAwADIANQA=",
    "name": "(準公共)彰化縣私立和平幼兒園",
    "type": "spub3"
  },
  {
    "newsch": 1,
    "lat": 24.085905,
    "lng": 120.571871,
    "sid": "MQAxADUAMAAwADAAMAAwADIANgA=",
    "name": "(準公共)彰化縣私立格林幼兒園",
    "type": "spub3"
  },
  {
    "newsch": 1,
    "lat": 24.0863349,
    "lng": 120.54389,
    "sid": "MQAxADUAMAAwADAAMAAwADIANwA=",
    "name": "(準公共)彰化縣私立山姆叔叔幼兒園",
    "type": "spub3"
  },
  {
    "newsch": 1,
    "lat": 24.0629632,
    "lng": 120.540271,
    "sid": "MQAxADUAMAAwADAAMAAwADIAOAA=",
    "name": "(私立)彰化縣私立富蘭克林幼兒園",
    "type": "spub1"
  },
  {
    "newsch": 1,
    "lat": 24.085816,
    "lng": 120.578711,
    "sid": "MQAxADUAMAAwADAAMAAwADIAOQA=",
    "name": "(私立)彰化縣私立米堤爾幼兒園",
    "type": "spub1"
  },
  {
    "newsch": 1,
    "lat": 24.0728418,
    "lng": 120.5377322,
    "sid": "MQAxADUAMAAwADAAMAAwADMAMQA=",
    "name": "(私立)彰化縣私立喜悅兒曉陽幼兒園",
    "type": "spub1"
  },
  {
    "newsch": 1,
    "lat": 24.0950522,
    "lng": 120.5495112,
    "sid": "MQAxADUAMAAwADAAMAAwADMAMgA=",
    "name": "(準公共)彰化縣私立探索幼兒園",
    "type": "spub3"
  },
  {
    "newsch": 1,
    "lat": 24.080165,
    "lng": 120.535204,
    "sid": "MQAxADUAMAAwADAAMAAwADMAMwA=",
    "name": "(私立)彰化縣私立樂耕幼兒園",
    "type": "spub1"
  },
  {
    "newsch": 1,
    "lat": 24.0694158,
    "lng": 120.5393597,
    "sid": "MQAxADUAMAAwADAAMAAwADMANAA=",
    "name": "(私立)彰化縣私立嘟嘟幼兒園",
    "type": "spub1"
  },
  {
    "newsch": 1,
    "lat": 24.0838391,
    "lng": 120.5454689,
    "sid": "MQAxADUAMAAwADAAMAAwADMANQA=",
    "name": "(準公共)彰化縣私立格瑞特幼兒園",
    "type": "spub3"
  },
  {
    "newsch": 1,
    "lat": 24.075971,
    "lng": 120.532805,
    "sid": "MQAxADUAMAAwADAAMAAwADMANwA=",
    "name": "(私立)彰化縣私立探索辭修幼兒園",
    "type": "spub1"
  },
  {
    "newsch": 1,
    "lat": 24.0841004,
    "lng": 120.5828456,
    "sid": "MQAxADUAMAAwADAAMAAwADMAOAA=",
    "name": "(私立)彰化縣私立均成幼兒園",
    "type": "spub1"
  },
  {
    "newsch": 1,
    "lat": 24.071812,
    "lng": 120.598857,
    "sid": "MQAxADUAMAAwADAAMAAwADQAMAA=",
    "name": "(準公共)彰化縣私立陳興幼兒園",
    "type": "spub3"
  },
  {
    "newsch": 1,
    "lat": 24.080593,
    "lng": 120.545232,
    "sid": "MQAxADUAMAAwADAAMAAwADQAMQA=",
    "name": "(私立)彰化縣私立樹人幼兒園",
    "type": "spub1"
  },
  {
    "newsch": 1,
    "lat": 24.066254,
    "lng": 120.533767,
    "sid": "MQAxADUAMAAwADAAMAAwADQAMgA=",
    "name": "(準公共)彰化縣私立幼祥幼兒園",
    "type": "spub3"
  },
  {
    "newsch": 1,
    "lat": 24.079807,
    "lng": 120.537854,
    "sid": "MQAxADUAMAAwADAAMAAwADQAMwA=",
    "name": "(私立)彰化縣私立成陽幼兒園",
    "type": "spub1"
  },
  {
    "newsch": 1,
    "lat": 24.06428,
    "lng": 120.54216,
    "sid": "MQAxADUAMAAwADAAMAAwADQANAA=",
    "name": "(準公共)彰化縣私立幼幼幼兒園",
    "type": "spub3"
  },
  {
    "newsch": 1,
    "lat": 24.07977,
    "lng": 120.5350611,
    "sid": "MQAxADUAMAAwADAAMAAwADQANQA=",
    "name": "(私立)彰化縣私立旗艦史丹福幼兒園",
    "type": "spub1"
  },
  {
    "newsch": 1,
    "lat": 24.064706,
    "lng": 120.528307,
    "sid": "MQAxADUAMAAwADAAMAAwADQANgA=",
    "name": "(私立)彰化縣私立童年幼兒園",
    "type": "spub1"
  },
  {
    "newsch": 1,
    "lat": 24.067045,
    "lng": 120.514068,
    "sid": "MQAxADUAMAAwADAAMAAwADQANwA=",
    "name": "(準公共)彰化縣私立劍聲幼兒園",
    "type": "spub3"
  },
  {
    "newsch": 1,
    "lat": 24.0938431,
    "lng": 120.5528605,
    "sid": "MQAxADUAMAAwADAAMAAwADUAMAA=",
    "name": "(私立)彰化縣私立爵諾麗森幼兒園",
    "type": "spub1"
  },
  {
    "newsch": 1,
    "lat": 24.064263,
    "lng": 120.541851,
    "sid": "MQAxADUAMAAwADAAMAAwADUAMQA=",
    "name": "(準公共)彰化縣私立鵝媽媽幼兒園",
    "type": "spub3"
  },
  {
    "newsch": 1,
    "lat": 24.091189,
    "lng": 120.547319,
    "sid": "MQAxADUAMAAwADAAMAAwADUAMgA=",
    "name": "(公立)彰化縣彰化市大成國民小學附設幼兒園",
    "type": "spub0"
  },
  {
    "newsch": 1,
    "lat": 24.062423,
    "lng": 120.516326,
    "sid": "MQAxADUAMAAwADAAMAAwADUAMwA=",
    "name": "(公立)彰化縣彰化市東芳國民小學附設幼兒園",
    "type": "spub0"
  },
  {
    "newsch": 1,
    "lat": 24.084411,
    "lng": 120.53173,
    "sid": "MQAxADUAMAAwADAAMAAwADUANAA=",
    "name": "(公立)彰化縣彰化市忠孝國民小學附設幼兒園",
    "type": "spub0"
  },
  {
    "newsch": 1,
    "lat": 24.081872,
    "lng": 120.546487,
    "sid": "MQAxADUAMAAwADAAMAAwADUANQA=",
    "name": "(公立)彰化縣彰化市中山國民小學附設幼兒園",
    "type": "spub0"
  },
  {
    "newsch": 1,
    "lat": 24.0713479,
    "lng": 120.547012,
    "sid": "MQAxADUAMAAwADAAMAAwADUANgA=",
    "name": "(公立)彰化縣彰化市南郭國民小學附設幼兒園",
    "type": "spub0"
  },
  {
    "newsch": 1,
    "lat": 24.086633,
    "lng": 120.549748,
    "sid": "MQAxADUAMAAwADAAMAAwADUANwA=",
    "name": "(公立)彰化縣彰化市立幼兒園",
    "type": "spub0"
  },
  {
    "newsch": 1,
    "lat": 24.069281,
    "lng": 120.550277,
    "sid": "MQAxADUAMAAwADAAMAAwADUANwAtADAAMQA=",
    "name": "(公立)彰化縣彰化市立幼兒園介壽分班",
    "type": "spub0"
  },
  {
    "newsch": 1,
    "lat": 24.082589,
    "lng": 120.558357,
    "sid": "MQAxADUAMAAwADAAMAAwADUAOAA=",
    "name": "(私立)有限責任國立彰化師範大學員生消費合作社附設彰化縣私立彰師大幼兒園",
    "type": "spub1"
  },
  {
    "newsch": 1,
    "lat": 24.062673,
    "lng": 120.533371,
    "sid": "MQAxADUAMAAwADAAMAAwADYAMAA=",
    "name": "(準公共)彰化縣私立耕新幼兒園",
    "type": "spub3"
  },
  {
    "newsch": 1,
    "lat": 24.0641589,
    "lng": 120.540671,
    "sid": "MQAxADUAMAAwADAAMAAwADYAMgA=",
    "name": "(準公共)彰化縣私立幼幼皇家幼兒園",
    "type": "spub3"
  },
  {
    "newsch": 1,
    "lat": 24.0641589,
    "lng": 120.540671,
    "sid": "MQAxADUAMAAwADAAMAAwADYAMwA=",
    "name": "(非營利)彰化縣彰基員工子女非營利幼兒園（彰化基督教醫療財團法人申請辦理）",
    "type": "spub2"
  },
  {
    "newsch": 1,
    "lat": 24.0645132,
    "lng": 120.5444838,
    "sid": "MQAxADUAMAAwADAAMAAwADYANAA=",
    "name": "(私立)彰化縣私立勁寶兒海頓幼兒園",
    "type": "spub1"
  },
  {
    "newsch": 1,
    "lat": 24.0905,
    "lng": 120.538365,
    "sid": "MQAxADUAMAAwADAAMAAwADYANgA=",
    "name": "(私立)彰化縣私立培根幼兒園",
    "type": "spub1"
  },
  {
    "newsch": 1,
    "lat": 24.0691469,
    "lng": 120.5280588,
    "sid": "MQAxADUAMAAwADAAMAAwADYANwA=",
    "name": "(準公共)彰化縣私立頂尖保進幼兒園",
    "type": "spub3"
  },
  {
    "newsch": 1,
    "lat": 24.087268,
    "lng": 120.547023,
    "sid": "MQAxADUAMAAwADAAMAAwADYAOAA=",
    "name": "(準公共)彰化縣私立悅恩幼兒園",
    "type": "spub3"
  },
  {
    "newsch": 1,
    "lat": 24.0711,
    "lng": 120.5314284,
    "sid": "MQAxADUAMAAwADAAMAAwADYAOQA=",
    "name": "(非營利)彰化縣平和非營利幼兒園（委託社團法人彰化縣中華幼兒教保職涯發展協會辦理）",
    "type": "spub2"
  },
  {
    "newsch": 1,
    "lat": 24.0823362,
    "lng": 120.5462825,
    "sid": "MQAxADUAMAAwADAAMAAwADcAMAA=",
    "name": "(私立)彰化縣私立日光城堡幼兒園",
    "type": "spub1"
  },
  {
    "newsch": 1,
    "lat": 24.0588863,
    "lng": 120.5335302,
    "sid": "MQAxADUAMAAwADAAMAAwADcAMQA=",
    "name": "(非營利)彰化縣興光非營利幼兒園（委託社團法人彰化縣中華幼兒教保職涯發展協會辦理）",
    "type": "spub2"
  },
  {
    "newsch": 1,
    "lat": 24.0847288,
    "lng": 120.5422718,
    "sid": "MQAxADUAMAAwADAAMAAwADcAMgA=",
    "name": "(非營利)彰化縣民生非營利幼兒園（委託社團法人彰化縣全方位教育協會辦理）",
    "type": "spub2"
  },
  {
    "newsch": 1,
    "lat": 24.0585579,
    "lng": 120.6149419,
    "sid": "MQAxADUAMAAwADAAMAAwADcAMwA=",
    "name": "(非營利)彰化縣石牌非營利幼兒園（委託社團法人彰化縣中華幼兒教保職涯發展協會辦理）",
    "type": "spub2"
  },
  {
    "newsch": 1,
    "lat": 24.092292,
    "lng": 120.5680891,
    "sid": "MQAxADUAMAAwADAAMAAwADcANAA=",
    "name": "(非營利)彰化縣國聖非營利幼兒園（委託社團法人彰化縣全方位教育協會辦理）",
    "type": "spub2"
  }
]