[
  {
    "newsch": 1,
    "lat": 24.085047,
    "lng": 120.581676,
    "sid": "MQAxADUAMAAwADAAMAAwADAAMQA=",
    "name": "(準公共)彰化縣私立先鋒幼兒園",
    "type": "spub3"
  },
  {
    "newsch": 1,
    "lat": 24.092366,
    "lng": 120.553999,
    "sid": "MQAxADUAMAAwADAAMAAwADAAMgA=",
    "name": "(私立)彰化縣私立立大幼兒園",
    "type": "spub1"
  },
  {
    "newsch": 1,
    "lat": 24.085374,
    "lng": 120.569848,
    "sid": "MQAxADUAMAAwADAAMAAwADAANAA=",
    "name": "(準公共)彰化縣私立昀銛幼兒園",
    "type": "spub3"
  },
  {
    "newsch": 1,
    "lat": 24.058576,
    "lng": 120.544835,
    "sid": "MQAxADUAMAAwADAAMAAwADAANQA=",
    "name": "(私立)彰化縣私立小樹苗幼兒園",
    "type": "spub1"
  },
  {
    "newsch": 1,
    "lat": 24.070281,
    "lng": 120.538525,
    "sid": "MQAxADUAMAAwADAAMAAwADAANgA=",
    "name": "(準公共)彰化縣私立幼安人文幼兒園",
    "type": "spub3"
  },
  {
    "newsch": 1,
    "lat": 24.075206,
    "lng": 120.551936,
    "sid": "MQAxADUAMAAwADAAMAAwADAANwA=",
    "name": "(準公共)彰化縣私立三才幼兒園",
    "type": "spub3"
  },
  {
    "newsch": 1,
    "lat": 24.05759,
    "lng": 120.533897,
    "sid": "MQAxADUAMAAwADAAMAAwADAAOAA=",
    "name": "(準公共)彰化縣私立南興幼兒園",
    "type": "spub3"
  },
  {
    "newsch": 1,
    "lat": 24.08476,
    "lng": 120.543615,
    "sid": "MQAxADUAMAAwADAAMAAwADAAOQA=",
    "name": "(準公共)彰化縣私立立人幼兒園",
    "type": "spub3"
  },
  {
    "newsch": 1,
    "lat": 24.066439,
    "lng": 120.536735,
    "sid": "MQAxADUAMAAwADAAMAAwADEAMAA=",
    "name": "(私立)彰化縣私立威爾森幼兒園",
    "type": "spub1"
  },
  {
    "newsch": 1,
    "lat": 24.091804,
    "lng": 120.546013,
    "sid": "MQAxADUAMAAwADAAMAAwADEAMgA=",
    "name": "(準公共)彰化縣私立美利亞幼兒園",
    "type": "spub3"
  },
  {
    "newsch": 1,
    "lat": 24.07444,
    "lng": 120.535708,
    "sid": "MQAxADUAMAAwADAAMAAwADEANgA=",
    "name": "(準公共)彰化縣私立探索中興幼兒園",
    "type": "spub3"
  },
  {
    "newsch": 1,
    "lat": 24.072384,
    "lng": 120.543855,
    "sid": "MQAxADUAMAAwADAAMAAwADEAOAA=",
    "name": "(準公共)彰化縣彰山宮文化慈善事業協會附設彰化縣私立彰山宮幼兒園",
    "type": "spub3"
  },
  {
    "newsch": 1,
    "lat": 24.068637,
    "lng": 120.531634,
    "sid": "MQAxADUAMAAwADAAMAAwADEAOQA=",
    "name": "(準公共)彰化縣私立牛頓米羅幼兒園",
    "type": "spub3"
  },
  {
    "newsch": 1,
    "lat": 24.063728,
    "lng": 120.52661,
    "sid": "MQAxADUAMAAwADAAMAAwADIAMAA=",
    "name": "(私立)彰化縣私立華盛頓幼兒園",
    "type": "spub1"
  },
  {
    "newsch": 1,
    "lat": 24.06642,
    "lng": 120.539119,
    "sid": "MQAxADUAMAAwADAAMAAwADIAMgA=",
    "name": "(私立)彰化縣私立喜悅兒幼兒園",
    "type": "spub1"
  },
  {
    "newsch": 1,
    "lat": 24.085644,
    "lng": 120.53357,
    "sid": "MQAxADUAMAAwADAAMAAwADIAMwA=",
    "name": "(準公共)彰化縣私立芝加哥幼兒園",
    "type": "spub3"
  },
  {
    "newsch": 1,
    "lat": 24.086053,
    "lng": 120.544021,
    "sid": "MQAxADUAMAAwADAAMAAwADIANAA=",
    "name": "(準公共)彰化縣私立堉惠幼兒園",
    "type": "spub3"
  },
  {
    "newsch": 1,
    "lat": 24.08291,
    "lng": 120.569894,
    "sid": "MQAxADUAMAAwADAAMAAwADIANQA=",
    "name": "(準公共)彰化縣私立和平幼兒園",
    "type": "spub3"
  },
  {
    "newsch": 1,
    "lat": 24.085587,
    "lng": 120.572051,
    "sid": "MQAxADUAMAAwADAAMAAwADIANgA=",
    "name": "(準公共)彰化縣私立格林幼兒園",
    "type": "spub3"
  },
  {
    "newsch": 1,
    "lat": 24.086311,
    "lng": 120.543896,
    "sid": "MQAxADUAMAAwADAAMAAwADIANwA=",
    "name": "(準公共)彰化縣私立山姆叔叔幼兒園",
    "type": "spub3"
  },
  {
    "newsch": 1,
    "lat": 24.06308,
    "lng": 120.539678,
    "sid": "MQAxADUAMAAwADAAMAAwADIAOAA=",
    "name": "(私立)彰化縣私立富蘭克林幼兒園",
    "type": "spub1"
  },
  {
    "newsch": 1,
    "lat": 24.085844,
    "lng": 120.578638,
    "sid": "MQAxADUAMAAwADAAMAAwADIAOQA=",
    "name": "(準公共)彰化縣私立米堤爾幼兒園",
    "type": "spub3"
  },
  {
    "newsch": 1,
    "lat": 24.073128,
    "lng": 120.537783,
    "sid": "MQAxADUAMAAwADAAMAAwADMAMQA=",
    "name": "(私立)彰化縣私立喜悅兒曉陽幼兒園",
    "type": "spub1"
  },
  {
    "newsch": 1,
    "lat": 24.094267,
    "lng": 120.550044,
    "sid": "MQAxADUAMAAwADAAMAAwADMAMgA=",
    "name": "(準公共)彰化縣私立探索幼兒園",
    "type": "spub3"
  },
  {
    "newsch": 1,
    "lat": 24.080411,
    "lng": 120.535115,
    "sid": "MQAxADUAMAAwADAAMAAwADMAMwA=",
    "name": "(私立)彰化縣私立樂耕幼兒園",
    "type": "spub1"
  },
  {
    "newsch": 1,
    "lat": 24.069185,
    "lng": 120.538887,
    "sid": "MQAxADUAMAAwADAAMAAwADMANAA=",
    "name": "(私立)彰化縣私立嘟嘟幼兒園",
    "type": "spub1"
  },
  {
    "newsch": 1,
    "lat": 24.075946,
    "lng": 120.532594,
    "sid": "MQAxADUAMAAwADAAMAAwADMANwA=",
    "name": "(準公共)彰化縣私立探索辭修幼兒園",
    "type": "spub3"
  },
  {
    "newsch": 1,
    "lat": 24.083832,
    "lng": 120.583044,
    "sid": "MQAxADUAMAAwADAAMAAwADMAOAA=",
    "name": "(私立)彰化縣私立均成幼兒園",
    "type": "spub1"
  },
  {
    "newsch": 1,
    "lat": 24.071484,
    "lng": 120.598529,
    "sid": "MQAxADUAMAAwADAAMAAwADQAMAA=",
    "name": "(準公共)彰化縣私立陳興幼兒園",
    "type": "spub3"
  },
  {
    "newsch": 1,
    "lat": 24.066147,
    "lng": 120.533807,
    "sid": "MQAxADUAMAAwADAAMAAwADQAMgA=",
    "name": "(準公共)彰化縣私立幼祥幼兒園",
    "type": "spub3"
  },
  {
    "newsch": 1,
    "lat": 24.067683,
    "lng": 120.536772,
    "sid": "MQAxADUAMAAwADAAMAAwADQAMwA=",
    "name": "(私立)彰化縣私立成陽幼兒園",
    "type": "spub1"
  },
  {
    "newsch": 1,
    "lat": 24.064218,
    "lng": 120.54222,
    "sid": "MQAxADUAMAAwADAAMAAwADQANAA=",
    "name": "(準公共)彰化縣私立幼幼幼兒園",
    "type": "spub3"
  },
  {
    "newsch": 1,
    "lat": 24.079973,
    "lng": 120.534527,
    "sid": "MQAxADUAMAAwADAAMAAwADQANQA=",
    "name": "(準公共)彰化縣私立旗艦史丹福幼兒園",
    "type": "spub3"
  },
  {
    "newsch": 1,
    "lat": 24.064661,
    "lng": 120.528336,
    "sid": "MQAxADUAMAAwADAAMAAwADQANgA=",
    "name": "(私立)彰化縣私立童年幼兒園",
    "type": "spub1"
  },
  {
    "newsch": 1,
    "lat": 24.067049,
    "lng": 120.514067,
    "sid": "MQAxADUAMAAwADAAMAAwADQANwA=",
    "name": "(準公共)彰化縣私立劍聲幼兒園",
    "type": "spub3"
  },
  {
    "newsch": 1,
    "lat": 24.096658,
    "lng": 120.5539,
    "sid": "MQAxADUAMAAwADAAMAAwADUAMAA=",
    "name": "(私立)彰化縣私立爵諾麗森幼兒園",
    "type": "spub1"
  },
  {
    "newsch": 1,
    "lat": 24.064207,
    "lng": 120.541851,
    "sid": "MQAxADUAMAAwADAAMAAwADUAMQA=",
    "name": "(準公共)彰化縣私立鵝媽媽幼兒園",
    "type": "spub3"
  },
  {
    "newsch": 1,
    "lat": 24.091344,
    "lng": 120.546642,
    "sid": "MQAxADUAMAAwADAAMAAwADUAMgA=",
    "name": "(公立)彰化縣彰化市大成國民小學附設幼兒園",
    "type": "spub0"
  },
  {
    "newsch": 1,
    "lat": 24.062548,
    "lng": 120.515291,
    "sid": "MQAxADUAMAAwADAAMAAwADUAMwA=",
    "name": "(公立)彰化縣彰化市東芳國民小學附設幼兒園",
    "type": "spub0"
  },
  {
    "newsch": 1,
    "lat": 24.084017,
    "lng": 120.531918,
    "sid": "MQAxADUAMAAwADAAMAAwADUANAA=",
    "name": "(公立)彰化縣彰化市忠孝國民小學附設幼兒園",
    "type": "spub0"
  },
  {
    "newsch": 1,
    "lat": 24.081333,
    "lng": 120.5461,
    "sid": "MQAxADUAMAAwADAAMAAwADUANQA=",
    "name": "(公立)彰化縣彰化市中山國民小學附設幼兒園",
    "type": "spub0"
  },
  {
    "newsch": 1,
    "lat": 24.070153,
    "lng": 120.547635,
    "sid": "MQAxADUAMAAwADAAMAAwADUANgA=",
    "name": "(公立)彰化縣彰化市南郭國民小學附設幼兒園",
    "type": "spub0"
  },
  {
    "newsch": 1,
    "lat": 24.086674,
    "lng": 120.5497,
    "sid": "MQAxADUAMAAwADAAMAAwADUANwA=",
    "name": "(公立)彰化縣彰化市立幼兒園",
    "type": "spub0"
  },
  {
    "newsch": 1,
    "lat": 24.082632,
    "lng": 120.560289,
    "sid": "MQAxADUAMAAwADAAMAAwADUAOAA=",
    "name": "(私立)有限責任國立彰化師範大學員生消費合作社附設彰化縣私立彰師大幼兒園",
    "type": "spub1"
  },
  {
    "newsch": 1,
    "lat": 24.062704,
    "lng": 120.533407,
    "sid": "MQAxADUAMAAwADAAMAAwADYAMAA=",
    "name": "(準公共)彰化縣私立耕新幼兒園",
    "type": "spub3"
  },
  {
    "newsch": 1,
    "lat": 24.063961,
    "lng": 120.542617,
    "sid": "MQAxADUAMAAwADAAMAAwADYAMgA=",
    "name": "(準公共)彰化縣私立幼幼皇家幼兒園",
    "type": "spub3"
  },
  {
    "newsch": 1,
    "lat": 24.06404,
    "lng": 120.540656,
    "sid": "MQAxADUAMAAwADAAMAAwADYAMwA=",
    "name": "(非營利)彰化縣彰基員工子女非營利幼兒園（彰化基督教醫療財團法人申請辦理）",
    "type": "spub2"
  },
  {
    "newsch": 1,
    "lat": 24.064393,
    "lng": 120.544458,
    "sid": "MQAxADUAMAAwADAAMAAwADYANAA=",
    "name": "(私立)彰化縣私立勁寶兒海頓幼兒園",
    "type": "spub1"
  },
  {
    "newsch": 1,
    "lat": 24.090328,
    "lng": 120.538139,
    "sid": "MQAxADUAMAAwADAAMAAwADYANgA=",
    "name": "(私立)彰化縣私立培根幼兒園",
    "type": "spub1"
  },
  {
    "newsch": 1,
    "lat": 24.069359,
    "lng": 120.52777,
    "sid": "MQAxADUAMAAwADAAMAAwADYANwA=",
    "name": "(準公共)彰化縣私立頂尖保進幼兒園",
    "type": "spub3"
  },
  {
    "newsch": 1,
    "lat": 24.087162,
    "lng": 120.547073,
    "sid": "MQAxADUAMAAwADAAMAAwADYAOAA=",
    "name": "(準公共)彰化縣私立悅恩幼兒園",
    "type": "spub3"
  },
  {
    "newsch": 1,
    "lat": 24.070944,
    "lng": 120.531083,
    "sid": "MQAxADUAMAAwADAAMAAwADYAOQA=",
    "name": "(非營利)彰化縣平和非營利幼兒園（委託社團法人彰化縣中華幼兒教保職涯發展協會辦理）",
    "type": "spub2"
  },
  {
    "newsch": 1,
    "lat": 24.08251,
    "lng": 120.546318,
    "sid": "MQAxADUAMAAwADAAMAAwADcAMAA=",
    "name": "(私立)彰化縣私立日光城堡幼兒園",
    "type": "spub1"
  },
  {
    "newsch": 1,
    "lat": 24.05812,
    "lng": 120.534058,
    "sid": "MQAxADUAMAAwADAAMAAwADcAMQA=",
    "name": "(非營利)彰化縣興光非營利幼兒園（委託社團法人彰化縣中華幼兒教保職涯發展協會辦理）",
    "type": "spub2"
  },
  {
    "newsch": 1,
    "lat": 24.083823,
    "lng": 120.543082,
    "sid": "MQAxADUAMAAwADAAMAAwADcAMgA=",
    "name": "(非營利)彰化縣民生非營利幼兒園（委託社團法人彰化縣全方位教育協會辦理）",
    "type": "spub2"
  },
  {
    "newsch": 1,
    "lat": 24.058442,
    "lng": 120.614376,
    "sid": "MQAxADUAMAAwADAAMAAwADcAMwA=",
    "name": "(非營利)彰化縣石牌非營利幼兒園（委託社團法人彰化縣中華幼兒教保職涯發展協會辦理）",
    "type": "spub2"
  },
  {
    "newsch": 1,
    "lat": 24.092114,
    "lng": 120.568321,
    "sid": "MQAxADUAMAAwADAAMAAwADcANAA=",
    "name": "(非營利)彰化縣國聖非營利幼兒園（委託社團法人彰化縣全方位教育協會辦理）",
    "type": "spub2"
  },
  {
    "newsch": 1,
    "lat": 24.064063,
    "lng": 120.526427,
    "sid": "MQAxADUAMAAwADAAMAAwADcANQA=",
    "name": "(私立)彰化縣私立圓周幼兒園",
    "type": "spub1"
  },
  {
    "newsch": 1,
    "lat": 24.083604,
    "lng": 120.561259,
    "sid": "MQAxADUAMAAwADAAMAAwADcANgA=",
    "name": "(私立)彰化縣私立蒔雨幼兒園",
    "type": "spub1"
  }
]