[
  {
    "newsch": 1,
    "lat": 23.96836,
    "lng": 120.481916,
    "sid": "MQAxADUAMQA0ADAAMAAwADAAMQA=",
    "name": "(私立)彰化縣私立成功幼兒園",
    "type": "spub1"
  },
  {
    "newsch": 1,
    "lat": 23.95972,
    "lng": 120.481712,
    "sid": "MQAxADUAMQA0ADAAMAAwADAAMgA=",
    "name": "(準公共)彰化縣私立安迪生幼兒園",
    "type": "spub3"
  },
  {
    "newsch": 1,
    "lat": 23.960315,
    "lng": 120.489079,
    "sid": "MQAxADUAMQA0ADAAMAAwADAAMwA=",
    "name": "(準公共)彰化縣私立名晟幼兒園",
    "type": "spub3"
  },
  {
    "newsch": 1,
    "lat": 23.961973,
    "lng": 120.470973,
    "sid": "MQAxADUAMQA0ADAAMAAwADAANAA=",
    "name": "(準公共)彰化縣私立彩虹屋幼兒園",
    "type": "spub3"
  },
  {
    "newsch": 1,
    "lat": 23.959937,
    "lng": 120.475561,
    "sid": "MQAxADUAMQA0ADAAMAAwADAANQA=",
    "name": "(私立)彰化縣私立西門幼兒園",
    "type": "spub1"
  },
  {
    "newsch": 1,
    "lat": 23.961409,
    "lng": 120.47584,
    "sid": "MQAxADUAMQA0ADAAMAAwADAANgA=",
    "name": "(準公共)彰化縣私立鉅陽幼兒園",
    "type": "spub3"
  },
  {
    "newsch": 1,
    "lat": 23.956248,
    "lng": 120.47656,
    "sid": "MQAxADUAMQA0ADAAMAAwADAANwA=",
    "name": "(準公共)彰化縣私立溪湖保進幼兒園",
    "type": "spub3"
  },
  {
    "newsch": 1,
    "lat": 23.968423,
    "lng": 120.481972,
    "sid": "MQAxADUAMQA0ADAAMAAwADAAOAA=",
    "name": "(私立)彰化縣私立教育家幼兒園",
    "type": "spub1"
  },
  {
    "newsch": 1,
    "lat": 23.967646,
    "lng": 120.47398,
    "sid": "MQAxADUAMQA0ADAAMAAwADAAOQA=",
    "name": "(私立)彰化縣私立空間幼兒園",
    "type": "spub1"
  },
  {
    "newsch": 1,
    "lat": 23.963161,
    "lng": 120.47926,
    "sid": "MQAxADUAMQA0ADAAMAAwADEAMAA=",
    "name": "(準公共)彰化縣私立天民幼兒園",
    "type": "spub3"
  },
  {
    "newsch": 1,
    "lat": 23.957753,
    "lng": 120.481162,
    "sid": "MQAxADUAMQA0ADAAMAAwADEAMQA=",
    "name": "(準公共)彰化縣私立綠太陽幼兒園",
    "type": "spub3"
  },
  {
    "newsch": 1,
    "lat": 23.963693,
    "lng": 120.482819,
    "sid": "MQAxADUAMQA0ADAAMAAwADEAMgA=",
    "name": "(公立)彰化縣溪湖鎮湖東國民小學附設幼兒園",
    "type": "spub0"
  },
  {
    "newsch": 1,
    "lat": 23.95835,
    "lng": 120.478198,
    "sid": "MQAxADUAMQA0ADAAMAAwADEAMwA=",
    "name": "(公立)彰化縣溪湖鎮溪湖國民小學附設幼兒園",
    "type": "spub0"
  },
  {
    "newsch": 1,
    "lat": 23.965458,
    "lng": 120.475727,
    "sid": "MQAxADUAMQA0ADAAMAAwADEANAA=",
    "name": "(公立)彰化縣溪湖鎮湖北國民小學附設幼兒園",
    "type": "spub0"
  },
  {
    "newsch": 1,
    "lat": 23.968545,
    "lng": 120.47936,
    "sid": "MQAxADUAMQA0ADAAMAAwADEANQA=",
    "name": "(私立)彰化縣私立志安幼兒園",
    "type": "spub1"
  },
  {
    "newsch": 1,
    "lat": 23.937416,
    "lng": 120.506946,
    "sid": "MQAxADUAMQA0ADAAMAAwADEANgA=",
    "name": "(公立)彰化縣溪湖鎮立幼兒園",
    "type": "spub0"
  },
  {
    "newsch": 1,
    "lat": 23.960905,
    "lng": 120.488439,
    "sid": "MQAxADUAMQA0ADAAMAAwADEANwA=",
    "name": "(準公共)彰化縣私立昕鉅陽幼兒園",
    "type": "spub3"
  },
  {
    "newsch": 1,
    "lat": 23.950093,
    "lng": 120.479673,
    "sid": "MQAxADUAMQA0ADAAMAAwADEAOAA=",
    "name": "(非營利)彰化縣湖南非營利幼兒園（委託社團法人彰化縣劍橋社會關懷協會辦理）",
    "type": "spub2"
  },
  {
    "newsch": 1,
    "lat": 23.960295,
    "lng": 120.468117,
    "sid": "MQAxADUAMQA0ADAAMAAwADEAOQA=",
    "name": "(非營利)彰化縣湖西非營利幼兒園（委託社團法人彰化縣全方位教育協會辦理）",
    "type": "spub2"
  }
]