[
  {
    "newsch": 1,
    "lat": 23.96851,
    "lng": 120.481276,
    "sid": "MQAxADUAMQA0ADAAMAAwADAAMQA=",
    "name": "(私立)彰化縣私立成功幼兒園",
    "type": "spub1"
  },
  {
    "newsch": 1,
    "lat": 23.959536,
    "lng": 120.481406,
    "sid": "MQAxADUAMQA0ADAAMAAwADAAMgA=",
    "name": "(準公共)彰化縣私立安迪生幼兒園",
    "type": "spub3"
  },
  {
    "newsch": 1,
    "lat": 23.96408,
    "lng": 120.489828,
    "sid": "MQAxADUAMQA0ADAAMAAwADAAMwA=",
    "name": "(準公共)彰化縣私立名晟幼兒園",
    "type": "spub3"
  },
  {
    "newsch": 1,
    "lat": 23.9619979,
    "lng": 120.471174,
    "sid": "MQAxADUAMQA0ADAAMAAwADAANAA=",
    "name": "(準公共)彰化縣私立彩虹屋幼兒園",
    "type": "spub3"
  },
  {
    "newsch": 1,
    "lat": 23.9599119,
    "lng": 120.47584,
    "sid": "MQAxADUAMQA0ADAAMAAwADAANQA=",
    "name": "(私立)彰化縣私立西門幼兒園",
    "type": "spub1"
  },
  {
    "newsch": 1,
    "lat": 23.961431,
    "lng": 120.475693,
    "sid": "MQAxADUAMQA0ADAAMAAwADAANgA=",
    "name": "(私立)彰化縣私立鉅陽幼兒園",
    "type": "spub1"
  },
  {
    "newsch": 1,
    "lat": 23.9559411,
    "lng": 120.4766295,
    "sid": "MQAxADUAMQA0ADAAMAAwADAANwA=",
    "name": "(準公共)彰化縣私立溪湖保進幼兒園",
    "type": "spub3"
  },
  {
    "newsch": 1,
    "lat": 23.9662774,
    "lng": 120.4831809,
    "sid": "MQAxADUAMQA0ADAAMAAwADAAOAA=",
    "name": "(私立)彰化縣私立教育家幼兒園",
    "type": "spub1"
  },
  {
    "newsch": 1,
    "lat": 23.9675014,
    "lng": 120.4740415,
    "sid": "MQAxADUAMQA0ADAAMAAwADAAOQA=",
    "name": "(私立)彰化縣私立空間幼兒園",
    "type": "spub1"
  },
  {
    "newsch": 1,
    "lat": 23.963331,
    "lng": 120.479159,
    "sid": "MQAxADUAMQA0ADAAMAAwADEAMAA=",
    "name": "(私立)彰化縣私立天民幼兒園",
    "type": "spub1"
  },
  {
    "newsch": 1,
    "lat": 23.9586733,
    "lng": 120.482359,
    "sid": "MQAxADUAMQA0ADAAMAAwADEAMQA=",
    "name": "(準公共)彰化縣私立綠太陽幼兒園",
    "type": "spub3"
  },
  {
    "newsch": 1,
    "lat": 23.963789,
    "lng": 120.482419,
    "sid": "MQAxADUAMQA0ADAAMAAwADEAMgA=",
    "name": "(公立)彰化縣溪湖鎮湖東國民小學附設幼兒園",
    "type": "spub0"
  },
  {
    "newsch": 1,
    "lat": 23.959304,
    "lng": 120.478435,
    "sid": "MQAxADUAMQA0ADAAMAAwADEAMwA=",
    "name": "(公立)彰化縣溪湖鎮溪湖國民小學附設幼兒園",
    "type": "spub0"
  },
  {
    "newsch": 1,
    "lat": 23.965027,
    "lng": 120.4764869,
    "sid": "MQAxADUAMQA0ADAAMAAwADEANAA=",
    "name": "(公立)彰化縣溪湖鎮湖北國民小學附設幼兒園",
    "type": "spub0"
  },
  {
    "newsch": 1,
    "lat": 23.9685284,
    "lng": 120.4789187,
    "sid": "MQAxADUAMQA0ADAAMAAwADEANQA=",
    "name": "(私立)彰化縣私立志安幼兒園",
    "type": "spub1"
  },
  {
    "newsch": 1,
    "lat": 23.937653,
    "lng": 120.506441,
    "sid": "MQAxADUAMQA0ADAAMAAwADEANgA=",
    "name": "(公立)彰化縣溪湖鎮立幼兒園",
    "type": "spub0"
  },
  {
    "newsch": 1,
    "lat": 23.9593488,
    "lng": 120.4745233,
    "sid": "MQAxADUAMQA0ADAAMAAwADEANgAtADAANAA=",
    "name": "(公立)彰化縣溪湖鎮立幼兒園田中分班",
    "type": "spub0"
  },
  {
    "newsch": 1,
    "lat": 23.938308,
    "lng": 120.505817,
    "sid": "MQAxADUAMQA0ADAAMAAwADEANgAtADAANwA=",
    "name": "(公立)彰化縣溪湖鎮立幼兒園湳底分班",
    "type": "spub0"
  },
  {
    "newsch": 1,
    "lat": 23.948762,
    "lng": 120.497878,
    "sid": "MQAxADUAMQA0ADAAMAAwADEANgAtADAAOAA=",
    "name": "(公立)彰化縣溪湖鎮立幼兒園大庭分班",
    "type": "spub0"
  },
  {
    "newsch": 1,
    "lat": 23.968371,
    "lng": 120.4982509,
    "sid": "MQAxADUAMQA0ADAAMAAwADEANwA=",
    "name": "(私立)彰化縣私立昕鉅陽幼兒園",
    "type": "spub1"
  },
  {
    "newsch": 1,
    "lat": 23.9499242,
    "lng": 120.4803911,
    "sid": "MQAxADUAMQA0ADAAMAAwADEAOAA=",
    "name": "(非營利)彰化縣湖南非營利幼兒園（委託社團法人彰化縣劍橋社會關懷協會辦理）",
    "type": "spub2"
  }
]