[
  {
    "newsch": 1,
    "lat": 24.003174,
    "lng": 120.465668,
    "sid": "MQAxADUAMQA2ADAAMAAwADAAMgA=",
    "name": "(準公共)彰化縣私立巧冠幼兒園",
    "type": "spub3"
  },
  {
    "newsch": 1,
    "lat": 23.996251,
    "lng": 120.464927,
    "sid": "MQAxADUAMQA2ADAAMAAwADAAMwA=",
    "name": "(準公共)彰化縣私立獅子王幼兒園",
    "type": "spub3"
  },
  {
    "newsch": 1,
    "lat": 24.006903,
    "lng": 120.459662,
    "sid": "MQAxADUAMQA2ADAAMAAwADAANAA=",
    "name": "(公立)彰化縣埔鹽鄉好修國民小學附設幼兒園",
    "type": "spub0"
  },
  {
    "newsch": 1,
    "lat": 23.985826,
    "lng": 120.442311,
    "sid": "MQAxADUAMQA2ADAAMAAwADAANQA=",
    "name": "(公立)彰化縣埔鹽鄉立幼兒園",
    "type": "spub0"
  },
  {
    "newsch": 1,
    "lat": 23.983347,
    "lng": 120.479993,
    "sid": "MQAxADUAMQA2ADAAMAAwADAANgA=",
    "name": "(私立)彰化縣私立惠來熊國際蒙特梭利幼兒園",
    "type": "spub1"
  }
]