[
  {
    "newsch": 1,
    "lat": 23.85223,
    "lng": 120.320622,
    "sid": "MQAxADUAMgA3ADAAMAAwADAAMgA=",
    "name": "(公立)彰化縣大城鄉大城國民小學附設幼兒園",
    "type": "spub0"
  },
  {
    "newsch": 1,
    "lat": 23.860993,
    "lng": 120.288715,
    "sid": "MQAxADUAMgA3ADAAMAAwADAAMwA=",
    "name": "(公立)彰化縣大城鄉西港國民小學附設幼兒園",
    "type": "spub0"
  },
  {
    "newsch": 1,
    "lat": 23.852312,
    "lng": 120.320814,
    "sid": "MQAxADUAMgA3ADAAMAAwADAANAA=",
    "name": "(公立)彰化縣大城鄉立幼兒園",
    "type": "spub0"
  },
  {
    "newsch": 1,
    "lat": 23.8547307,
    "lng": 120.3221533,
    "sid": "MQAxADUAMgA3ADAAMAAwADAANAAtADAAMQA=",
    "name": "(公立)彰化縣大城鄉立幼兒園菜寮分班",
    "type": "spub0"
  },
  {
    "newsch": 1,
    "lat": 23.8406552,
    "lng": 120.3201484,
    "sid": "MQAxADUAMgA3ADAAMAAwADAANAAtADAAMgA=",
    "name": "(公立)彰化縣大城鄉立幼兒園山腳分班",
    "type": "spub0"
  }
]