[
  {
    "newsch": 1,
    "lat": 23.85302,
    "lng": 120.320343,
    "sid": "MQAxADUAMgA3ADAAMAAwADAAMgA=",
    "name": "(公立)彰化縣大城鄉大城國民小學附設幼兒園",
    "type": "spub0"
  },
  {
    "newsch": 1,
    "lat": 23.861556,
    "lng": 120.289778,
    "sid": "MQAxADUAMgA3ADAAMAAwADAAMwA=",
    "name": "(公立)彰化縣大城鄉西港國民小學附設幼兒園",
    "type": "spub0"
  },
  {
    "newsch": 1,
    "lat": 23.856978,
    "lng": 120.321041,
    "sid": "MQAxADUAMgA3ADAAMAAwADAANAA=",
    "name": "(公立)彰化縣大城鄉立幼兒園",
    "type": "spub0"
  },
  {
    "newsch": 1,
    "lat": 23.869051,
    "lng": 120.314699,
    "sid": "MQAxADUAMgA3ADAAMAAwADAANAAtADAAMQA=",
    "name": "(公立)彰化縣大城鄉立幼兒園菜寮分班",
    "type": "spub0"
  },
  {
    "newsch": 1,
    "lat": 23.841591,
    "lng": 120.32012,
    "sid": "MQAxADUAMgA3ADAAMAAwADAANAAtADAAMgA=",
    "name": "(公立)彰化縣大城鄉立幼兒園山腳分班",
    "type": "spub0"
  }
]