[
  {
    "newsch": 1,
    "lat": 23.976462,
    "lng": 120.670329,
    "sid": "MQAyADUANAAyADAAMAAwADAAMQA=",
    "name": "(準公共)南投縣私立卡帕及幼幼兒園",
    "type": "spub3"
  },
  {
    "newsch": 1,
    "lat": 24.004736,
    "lng": 120.678181,
    "sid": "MQAyADUANAAyADAAMAAwADAAMgA=",
    "name": "(準公共)南投縣私立欣慧幼兒園",
    "type": "spub3"
  },
  {
    "newsch": 1,
    "lat": 23.977601,
    "lng": 120.675488,
    "sid": "MQAyADUANAAyADAAMAAwADAAMwA=",
    "name": "(私立)南投縣私立黃柱陳樣幼兒園",
    "type": "spub1"
  },
  {
    "newsch": 1,
    "lat": 23.978188,
    "lng": 120.675398,
    "sid": "MQAyADUANAAyADAAMAAwADAANAA=",
    "name": "(私立)南投縣私立真善美幼兒園",
    "type": "spub1"
  },
  {
    "newsch": 1,
    "lat": 23.982774,
    "lng": 120.72099,
    "sid": "MQAyADUANAAyADAAMAAwADAANgA=",
    "name": "(準公共)南投縣私立小博士幼兒園",
    "type": "spub3"
  },
  {
    "newsch": 1,
    "lat": 23.976408,
    "lng": 120.699101,
    "sid": "MQAyADUANAAyADAAMAAwADAANwA=",
    "name": "(私立)南投縣私立向日葵幼兒園",
    "type": "spub1"
  },
  {
    "newsch": 1,
    "lat": 23.975942,
    "lng": 120.687576,
    "sid": "MQAyADUANAAyADAAMAAwADEAMAA=",
    "name": "(準公共)南投縣私立優蓓仕幼兒園",
    "type": "spub3"
  },
  {
    "newsch": 1,
    "lat": 23.968031,
    "lng": 120.678657,
    "sid": "MQAyADUANAAyADAAMAAwADEAMQA=",
    "name": "(準公共)南投縣私立育仁幼兒園",
    "type": "spub3"
  },
  {
    "newsch": 1,
    "lat": 23.963925,
    "lng": 120.682851,
    "sid": "MQAyADUANAAyADAAMAAwADEAMgA=",
    "name": "(準公共)南投縣私立辰星幼兒園",
    "type": "spub3"
  },
  {
    "newsch": 1,
    "lat": 23.997081,
    "lng": 120.677238,
    "sid": "MQAyADUANAAyADAAMAAwADEAMwA=",
    "name": "(準公共)南投縣私立蜜雪兒幼兒園",
    "type": "spub3"
  },
  {
    "newsch": 1,
    "lat": 23.976978,
    "lng": 120.698684,
    "sid": "MQAyADUANAAyADAAMAAwADEANQA=",
    "name": "(準公共)南投縣私立小天使幼兒園",
    "type": "spub3"
  },
  {
    "newsch": 1,
    "lat": 23.965629,
    "lng": 120.657478,
    "sid": "MQAyADUANAAyADAAMAAwADEANgA=",
    "name": "(私立)南投縣私立弘明幼兒園",
    "type": "spub1"
  },
  {
    "newsch": 1,
    "lat": 23.976695,
    "lng": 120.67109,
    "sid": "MQAyADUANAAyADAAMAAwADEANwA=",
    "name": "(準公共)南投縣私立衛斯理幼兒園",
    "type": "spub3"
  },
  {
    "newsch": 1,
    "lat": 23.97372,
    "lng": 120.656617,
    "sid": "MQAyADUANAAyADAAMAAwADIAMAA=",
    "name": "(準公共)南投縣私立育德幼兒園",
    "type": "spub3"
  },
  {
    "newsch": 1,
    "lat": 23.988764,
    "lng": 120.695377,
    "sid": "MQAyADUANAAyADAAMAAwADIAMQA=",
    "name": "(準公共)南投縣私立格瑞特幼兒園",
    "type": "spub3"
  },
  {
    "newsch": 1,
    "lat": 23.99486,
    "lng": 120.682398,
    "sid": "MQAyADUANAAyADAAMAAwADIAMgA=",
    "name": "(準公共)南投縣私立光隆幼兒園",
    "type": "spub3"
  },
  {
    "newsch": 1,
    "lat": 23.9747,
    "lng": 120.684681,
    "sid": "MQAyADUANAAyADAAMAAwADIAMwA=",
    "name": "(公立)南投縣草屯鎮炎峰國民小學附設幼兒園",
    "type": "spub0"
  },
  {
    "newsch": 1,
    "lat": 23.993783,
    "lng": 120.686051,
    "sid": "MQAyADUANAAyADAAMAAwADIANAA=",
    "name": "(公立)南投縣草屯鎮僑光國民小學附設幼兒園",
    "type": "spub0"
  },
  {
    "newsch": 1,
    "lat": 23.984807,
    "lng": 120.720107,
    "sid": "MQAyADUANAAyADAAMAAwADIANQA=",
    "name": "(公立)南投縣草屯鎮中原國民小學附設幼兒園",
    "type": "spub0"
  },
  {
    "newsch": 1,
    "lat": 23.995123,
    "lng": 120.668218,
    "sid": "MQAyADUANAAyADAAMAAwADIANgA=",
    "name": "(公立)南投縣草屯鎮新庄國民小學附設幼兒園",
    "type": "spub0"
  },
  {
    "newsch": 1,
    "lat": 23.984306,
    "lng": 120.796169,
    "sid": "MQAyADUANAAyADAAMAAwADIANwA=",
    "name": "(公立)南投縣草屯鎮雙冬國民小學附設幼兒園",
    "type": "spub0"
  },
  {
    "newsch": 1,
    "lat": 23.977555,
    "lng": 120.676512,
    "sid": "MQAyADUANAAyADAAMAAwADIAOAA=",
    "name": "(私立)南投縣私立蒲公英幼兒園",
    "type": "spub1"
  },
  {
    "newsch": 1,
    "lat": 23.982082,
    "lng": 120.687146,
    "sid": "MQAyADUANAAyADAAMAAwADIAOQA=",
    "name": "(公立)南投縣草屯鎮草屯國民小學附設幼兒園",
    "type": "spub0"
  },
  {
    "newsch": 1,
    "lat": 23.962723,
    "lng": 120.684817,
    "sid": "MQAyADUANAAyADAAMAAwADMAMAA=",
    "name": "(公立)南投縣草屯鎮虎山國民小學附設幼兒園",
    "type": "spub0"
  },
  {
    "newsch": 1,
    "lat": 23.969413,
    "lng": 120.666262,
    "sid": "MQAyADUANAAyADAAMAAwADMAMQA=",
    "name": "(公立)南投縣草屯鎮碧峰國民小學附設幼兒園",
    "type": "spub0"
  },
  {
    "newsch": 1,
    "lat": 23.9821,
    "lng": 120.677423,
    "sid": "MQAyADUANAAyADAAMAAwADMAMgA=",
    "name": "(公立)南投縣草屯鎮敦和國民小學附設幼兒園",
    "type": "spub0"
  },
  {
    "newsch": 1,
    "lat": 23.97084,
    "lng": 120.690857,
    "sid": "MQAyADUANAAyADAAMAAwADMANAA=",
    "name": "(準公共)南投縣私立柏克萊幼兒園",
    "type": "spub3"
  },
  {
    "newsch": 1,
    "lat": 23.969596,
    "lng": 120.668179,
    "sid": "MQAyADUANAAyADAAMAAwADMANgA=",
    "name": "(公立)南投縣草屯鎮立幼兒園",
    "type": "spub0"
  },
  {
    "newsch": 1,
    "lat": 23.987067,
    "lng": 120.658492,
    "sid": "MQAyADUANAAyADAAMAAwADMANwA=",
    "name": "(公立)南投縣草屯鎮北投國民小學附設幼兒園",
    "type": "spub0"
  },
  {
    "newsch": 1,
    "lat": 23.963484,
    "lng": 120.68173,
    "sid": "MQAyADUANAAyADAAMAAwADMAOAA=",
    "name": "(私立)南投縣私立優秀幼兒園",
    "type": "spub1"
  },
  {
    "newsch": 1,
    "lat": 23.979729,
    "lng": 120.698216,
    "sid": "MQAyADUANAAyADAAMAAwADMAOQA=",
    "name": "(非營利)南投縣富功非營利幼兒園(委託財團法人宏觀文教基金會辦理)",
    "type": "spub2"
  },
  {
    "newsch": 1,
    "lat": 23.971596,
    "lng": 120.671003,
    "sid": "MQAyADUANAAyADAAMAAwADQAMAA=",
    "name": "(準公共)南投縣私立一禾幼兒園",
    "type": "spub3"
  }
]