[
  {
    "newsch": 1,
    "lat": 23.976607,
    "lng": 120.670215,
    "sid": "MQAyADUANAAyADAAMAAwADAAMQA=",
    "name": "(準公共)南投縣私立卡帕及幼幼兒園",
    "type": "spub3"
  },
  {
    "newsch": 1,
    "lat": 24.004792,
    "lng": 120.678173,
    "sid": "MQAyADUANAAyADAAMAAwADAAMgA=",
    "name": "(準公共)南投縣私立欣慧幼兒園",
    "type": "spub3"
  },
  {
    "newsch": 1,
    "lat": 23.9777789,
    "lng": 120.675716,
    "sid": "MQAyADUANAAyADAAMAAwADAAMwA=",
    "name": "(私立)南投縣私立黃柱陳樣幼兒園",
    "type": "spub1"
  },
  {
    "newsch": 1,
    "lat": 23.978621,
    "lng": 120.675871,
    "sid": "MQAyADUANAAyADAAMAAwADAANAA=",
    "name": "(私立)南投縣私立真善美幼兒園",
    "type": "spub1"
  },
  {
    "newsch": 1,
    "lat": 23.982035,
    "lng": 120.721075,
    "sid": "MQAyADUANAAyADAAMAAwADAANgA=",
    "name": "(準公共)南投縣私立小博士幼兒園",
    "type": "spub3"
  },
  {
    "newsch": 1,
    "lat": 23.976609,
    "lng": 120.699097,
    "sid": "MQAyADUANAAyADAAMAAwADAANwA=",
    "name": "(私立)南投縣私立向日葵幼兒園",
    "type": "spub1"
  },
  {
    "newsch": 1,
    "lat": 23.975945,
    "lng": 120.687625,
    "sid": "MQAyADUANAAyADAAMAAwADEAMAA=",
    "name": "(準公共)南投縣私立優蓓仕幼兒園",
    "type": "spub3"
  },
  {
    "newsch": 1,
    "lat": 23.968328,
    "lng": 120.678774,
    "sid": "MQAyADUANAAyADAAMAAwADEAMQA=",
    "name": "(準公共)南投縣私立育仁幼兒園",
    "type": "spub3"
  },
  {
    "newsch": 1,
    "lat": 23.9639779,
    "lng": 120.682694,
    "sid": "MQAyADUANAAyADAAMAAwADEAMgA=",
    "name": "(準公共)南投縣私立辰星幼兒園",
    "type": "spub3"
  },
  {
    "newsch": 1,
    "lat": 23.997486,
    "lng": 120.676593,
    "sid": "MQAyADUANAAyADAAMAAwADEAMwA=",
    "name": "(準公共)南投縣私立蜜雪兒幼兒園",
    "type": "spub3"
  },
  {
    "newsch": 1,
    "lat": 23.976958,
    "lng": 120.698589,
    "sid": "MQAyADUANAAyADAAMAAwADEANQA=",
    "name": "(準公共)南投縣私立小天使幼兒園",
    "type": "spub3"
  },
  {
    "newsch": 1,
    "lat": 23.965497,
    "lng": 120.657464,
    "sid": "MQAyADUANAAyADAAMAAwADEANgA=",
    "name": "(私立)南投縣私立弘明幼兒園",
    "type": "spub1"
  },
  {
    "newsch": 1,
    "lat": 23.976886,
    "lng": 120.671253,
    "sid": "MQAyADUANAAyADAAMAAwADEANwA=",
    "name": "(準公共)南投縣私立衛斯理幼兒園",
    "type": "spub3"
  },
  {
    "newsch": 1,
    "lat": 23.973837,
    "lng": 120.6566,
    "sid": "MQAyADUANAAyADAAMAAwADIAMAA=",
    "name": "(準公共)南投縣私立育德幼兒園",
    "type": "spub3"
  },
  {
    "newsch": 1,
    "lat": 23.989103,
    "lng": 120.695572,
    "sid": "MQAyADUANAAyADAAMAAwADIAMQA=",
    "name": "(準公共)南投縣私立格瑞特幼兒園",
    "type": "spub3"
  },
  {
    "newsch": 1,
    "lat": 23.987154,
    "lng": 120.684465,
    "sid": "MQAyADUANAAyADAAMAAwADIAMgA=",
    "name": "(準公共)南投縣私立光隆幼兒園",
    "type": "spub3"
  },
  {
    "newsch": 1,
    "lat": 23.974875,
    "lng": 120.683846,
    "sid": "MQAyADUANAAyADAAMAAwADIAMwA=",
    "name": "(公立)南投縣草屯鎮炎峰國民小學附設幼兒園",
    "type": "spub0"
  },
  {
    "newsch": 1,
    "lat": 23.9940409,
    "lng": 120.686898,
    "sid": "MQAyADUANAAyADAAMAAwADIANAA=",
    "name": "(公立)南投縣草屯鎮僑光國民小學附設幼兒園",
    "type": "spub0"
  },
  {
    "newsch": 1,
    "lat": 23.985155,
    "lng": 120.72089,
    "sid": "MQAyADUANAAyADAAMAAwADIANQA=",
    "name": "(公立)南投縣草屯鎮中原國民小學附設幼兒園",
    "type": "spub0"
  },
  {
    "newsch": 1,
    "lat": 23.9951096,
    "lng": 120.6678925,
    "sid": "MQAyADUANAAyADAAMAAwADIANgA=",
    "name": "(公立)南投縣草屯鎮新庄國民小學附設幼兒園",
    "type": "spub0"
  },
  {
    "newsch": 1,
    "lat": 23.984388,
    "lng": 120.7956,
    "sid": "MQAyADUANAAyADAAMAAwADIANwA=",
    "name": "(公立)南投縣草屯鎮雙冬國民小學附設幼兒園",
    "type": "spub0"
  },
  {
    "newsch": 1,
    "lat": 23.977197,
    "lng": 120.676604,
    "sid": "MQAyADUANAAyADAAMAAwADIAOAA=",
    "name": "(私立)南投縣私立蒲公英幼兒園",
    "type": "spub1"
  },
  {
    "newsch": 1,
    "lat": 23.981151,
    "lng": 120.686901,
    "sid": "MQAyADUANAAyADAAMAAwADIAOQA=",
    "name": "(公立)南投縣草屯鎮草屯國民小學附設幼兒園",
    "type": "spub0"
  },
  {
    "newsch": 1,
    "lat": 23.963173,
    "lng": 120.684214,
    "sid": "MQAyADUANAAyADAAMAAwADMAMAA=",
    "name": "(公立)南投縣草屯鎮虎山國民小學附設幼兒園",
    "type": "spub0"
  },
  {
    "newsch": 1,
    "lat": 23.969651,
    "lng": 120.665937,
    "sid": "MQAyADUANAAyADAAMAAwADMAMQA=",
    "name": "(公立)南投縣草屯鎮碧峰國民小學附設幼兒園",
    "type": "spub0"
  },
  {
    "newsch": 1,
    "lat": 23.981856,
    "lng": 120.677744,
    "sid": "MQAyADUANAAyADAAMAAwADMAMgA=",
    "name": "(公立)南投縣草屯鎮敦和國民小學附設幼兒園",
    "type": "spub0"
  },
  {
    "newsch": 1,
    "lat": 23.970857,
    "lng": 120.690637,
    "sid": "MQAyADUANAAyADAAMAAwADMANAA=",
    "name": "(準公共)南投縣私立柏克萊幼兒園",
    "type": "spub3"
  },
  {
    "newsch": 1,
    "lat": 23.9698369,
    "lng": 120.667982,
    "sid": "MQAyADUANAAyADAAMAAwADMANgA=",
    "name": "(公立)南投縣草屯鎮立幼兒園",
    "type": "spub0"
  },
  {
    "newsch": 1,
    "lat": 23.9867158,
    "lng": 120.658908,
    "sid": "MQAyADUANAAyADAAMAAwADMANwA=",
    "name": "(公立)南投縣草屯鎮北投國民小學附設幼兒園",
    "type": "spub0"
  },
  {
    "newsch": 1,
    "lat": 23.9557616,
    "lng": 120.6806459,
    "sid": "MQAyADUANAAyADAAMAAwADMAOAA=",
    "name": "(私立)南投縣私立優秀幼兒園",
    "type": "spub1"
  },
  {
    "newsch": 1,
    "lat": 23.9788876,
    "lng": 120.6992707,
    "sid": "MQAyADUANAAyADAAMAAwADMAOQA=",
    "name": "(非營利)南投縣富功非營利幼兒園(委託財團法人宏觀文教基金會辦理)",
    "type": "spub2"
  },
  {
    "newsch": 1,
    "lat": 23.971596,
    "lng": 120.671003,
    "sid": "MQAyADUANAAyADAAMAAwADQAMAA=",
    "name": "(準公共)南投縣私立一禾幼兒園",
    "type": "spub3"
  }
]