[
  {
    "newsch": 1,
    "lat": 24.039896,
    "lng": 120.852658,
    "sid": "MQAyADUANAA0ADAAMAAwADAAMQA=",
    "name": "(準公共)南投縣私立明德幼兒園",
    "type": "spub3"
  },
  {
    "newsch": 1,
    "lat": 24.056731,
    "lng": 120.911084,
    "sid": "MQAyADUANAA0ADAAMAAwADAAMwA=",
    "name": "(公立)南投縣國姓鄉北港國民小學附設幼兒園",
    "type": "spub0"
  },
  {
    "newsch": 1,
    "lat": 23.980344,
    "lng": 120.876679,
    "sid": "MQAyADUANAA0ADAAMAAwADAANAA=",
    "name": "(公立)南投縣國姓鄉北山國民小學附設幼兒園",
    "type": "spub0"
  },
  {
    "newsch": 1,
    "lat": 24.01127,
    "lng": 120.822466,
    "sid": "MQAyADUANAA0ADAAMAAwADAANQA=",
    "name": "(公立)南投縣國姓鄉福龜國民小學附設幼兒園",
    "type": "spub0"
  },
  {
    "newsch": 1,
    "lat": 24.038981,
    "lng": 120.857066,
    "sid": "MQAyADUANAA0ADAAMAAwADAANgA=",
    "name": "(公立)南投縣國姓鄉國姓國民小學附設幼兒園",
    "type": "spub0"
  },
  {
    "newsch": 1,
    "lat": 24.066508,
    "lng": 120.876879,
    "sid": "MQAyADUANAA0ADAAMAAwADAANwA=",
    "name": "(公立)南投縣國姓鄉長流國民小學附設幼兒園",
    "type": "spub0"
  },
  {
    "newsch": 1,
    "lat": 23.950016,
    "lng": 120.869036,
    "sid": "MQAyADUANAA0ADAAMAAwADAAOQA=",
    "name": "(公立)南投縣國姓鄉南港國民小學附設幼兒園",
    "type": "spub0"
  }
]