[
  {
    "newsch": 1,
    "lat": 23.95568,
    "lng": 120.969248,
    "sid": "MQAyADUANAA1ADAAMAAwADAAMwA=",
    "name": "(準公共)南投縣私立親子田幼兒園",
    "type": "spub3"
  },
  {
    "newsch": 1,
    "lat": 23.962205,
    "lng": 120.974946,
    "sid": "MQAyADUANAA1ADAAMAAwADAANgA=",
    "name": "(準公共)南投縣私立小叮噹幼兒園",
    "type": "spub3"
  },
  {
    "newsch": 1,
    "lat": 23.965867,
    "lng": 120.968877,
    "sid": "MQAyADUANAA1ADAAMAAwADAANwA=",
    "name": "(準公共)南投縣私立信愛幼兒園",
    "type": "spub3"
  },
  {
    "newsch": 1,
    "lat": 23.968667,
    "lng": 120.953061,
    "sid": "MQAyADUANAA1ADAAMAAwADAAOAA=",
    "name": "(準公共)南投縣私立文心幼兒園",
    "type": "spub3"
  },
  {
    "newsch": 1,
    "lat": 23.96591,
    "lng": 120.970356,
    "sid": "MQAyADUANAA1ADAAMAAwADAAOQA=",
    "name": "(準公共)南投縣私立愛迪生幼兒園",
    "type": "spub3"
  },
  {
    "newsch": 1,
    "lat": 23.967539,
    "lng": 120.958675,
    "sid": "MQAyADUANAA1ADAAMAAwADEAMAA=",
    "name": "(準公共)南投縣私立培幼幼兒園",
    "type": "spub3"
  },
  {
    "newsch": 1,
    "lat": 23.97024,
    "lng": 120.964519,
    "sid": "MQAyADUANAA1ADAAMAAwADEAMQA=",
    "name": "(準公共)南投縣私立童心幼兒園",
    "type": "spub3"
  },
  {
    "newsch": 1,
    "lat": 23.990678,
    "lng": 120.978964,
    "sid": "MQAyADUANAA1ADAAMAAwADEAMgA=",
    "name": "(公立)南投縣埔里鎮忠孝國民小學附設幼兒園",
    "type": "spub0"
  },
  {
    "newsch": 1,
    "lat": 23.998681,
    "lng": 120.929744,
    "sid": "MQAyADUANAA1ADAAMAAwADEAMwA=",
    "name": "(公立)南投縣埔里鎮水尾國民小學附設幼兒園",
    "type": "spub0"
  },
  {
    "newsch": 1,
    "lat": 23.973391,
    "lng": 120.943007,
    "sid": "MQAyADUANAA1ADAAMAAwADEANAA=",
    "name": "(公立)南投縣埔里鎮愛蘭國民小學附設幼兒園",
    "type": "spub0"
  },
  {
    "newsch": 1,
    "lat": 23.94856,
    "lng": 120.955322,
    "sid": "MQAyADUANAA1ADAAMAAwADEANQA=",
    "name": "(公立)南投縣埔里鎮溪南國民小學附設幼兒園",
    "type": "spub0"
  },
  {
    "newsch": 1,
    "lat": 23.961072,
    "lng": 120.970324,
    "sid": "MQAyADUANAA1ADAAMAAwADEANgA=",
    "name": "(公立)南投縣埔里鎮南光國民小學附設幼兒園",
    "type": "spub0"
  },
  {
    "newsch": 1,
    "lat": 23.962856,
    "lng": 120.962202,
    "sid": "MQAyADUANAA1ADAAMAAwADEANwA=",
    "name": "(公立)南投縣埔里鎮育英國民小學附設幼兒園",
    "type": "spub0"
  },
  {
    "newsch": 1,
    "lat": 24.012077,
    "lng": 120.957628,
    "sid": "MQAyADUANAA1ADAAMAAwADEAOAA=",
    "name": "(公立)南投縣埔里鎮史港國民小學附設幼兒園",
    "type": "spub0"
  },
  {
    "newsch": 1,
    "lat": 23.969229,
    "lng": 120.975547,
    "sid": "MQAyADUANAA1ADAAMAAwADIAMAA=",
    "name": "(準公共)南投縣私立福祿貝爾幼兒園",
    "type": "spub3"
  },
  {
    "newsch": 1,
    "lat": 24.026507,
    "lng": 120.921242,
    "sid": "MQAyADUANAA1ADAAMAAwADIAMQA=",
    "name": "(公立)南投縣埔里鎮太平國民小學附設幼兒園",
    "type": "spub0"
  },
  {
    "newsch": 1,
    "lat": 23.96807,
    "lng": 120.966352,
    "sid": "MQAyADUANAA1ADAAMAAwADIAMgA=",
    "name": "(公立)南投縣埔里鎮埔里國民小學附設幼兒園",
    "type": "spub0"
  },
  {
    "newsch": 1,
    "lat": 23.9713,
    "lng": 120.959313,
    "sid": "MQAyADUANAA1ADAAMAAwADIAMwA=",
    "name": "(公立)南投縣埔里鎮立幼兒園",
    "type": "spub0"
  },
  {
    "newsch": 1,
    "lat": 23.973542,
    "lng": 120.951343,
    "sid": "MQAyADUANAA1ADAAMAAwADIANAA=",
    "name": "(準公共)南投縣私立貝林幼兒園",
    "type": "spub3"
  },
  {
    "newsch": 1,
    "lat": 23.967962,
    "lng": 120.953874,
    "sid": "MQAyADUANAA1ADAAMAAwADIANQA=",
    "name": "(準公共)南投縣私立小太陽幼兒園",
    "type": "spub3"
  },
  {
    "newsch": 1,
    "lat": 23.969984,
    "lng": 120.951302,
    "sid": "MQAyADUANAA1ADAAMAAwADIANgA=",
    "name": "(非營利)南投縣大成非營利幼兒園(委託財團法人三之三生命教育基金會辦理)",
    "type": "spub2"
  },
  {
    "newsch": 1,
    "lat": 23.955725,
    "lng": 120.965332,
    "sid": "MQAyADUANAA1ADAAMAAwADIANwA=",
    "name": "(準公共)南投縣私立加拿大幼兒園",
    "type": "spub3"
  },
  {
    "newsch": 1,
    "lat": 23.964914,
    "lng": 120.9785,
    "sid": "MQAyADUANAA1ADAAMAAwADIAOAA=",
    "name": "(準公共)南投縣私立童年萬歲幼兒園",
    "type": "spub3"
  },
  {
    "newsch": 1,
    "lat": 23.968028,
    "lng": 120.95951,
    "sid": "MQAyADUANAA1ADAAMAAwADIAOQA=",
    "name": "(私立)埔里酒廠職場互助教保服務中心(委託財團法人三之三生命教育基金會辦理)",
    "type": "spub1"
  }
]