[
  {
    "newsch": 1,
    "lat": 23.957531,
    "lng": 120.975689,
    "sid": "MQAyADUANAA1ADAAMAAwADAAMgA=",
    "name": "(準公共)南投縣私立大樹幼兒園",
    "type": "spub3"
  },
  {
    "newsch": 1,
    "lat": 23.955185,
    "lng": 120.967073,
    "sid": "MQAyADUANAA1ADAAMAAwADAAMwA=",
    "name": "(準公共)南投縣私立親子田幼兒園",
    "type": "spub3"
  },
  {
    "newsch": 1,
    "lat": 23.96232,
    "lng": 120.974898,
    "sid": "MQAyADUANAA1ADAAMAAwADAANgA=",
    "name": "(準公共)南投縣私立小叮噹幼兒園",
    "type": "spub3"
  },
  {
    "newsch": 1,
    "lat": 23.9660499,
    "lng": 120.96887,
    "sid": "MQAyADUANAA1ADAAMAAwADAANwA=",
    "name": "(準公共)南投縣私立信愛幼兒園",
    "type": "spub3"
  },
  {
    "newsch": 1,
    "lat": 23.969341,
    "lng": 120.953795,
    "sid": "MQAyADUANAA1ADAAMAAwADAAOAA=",
    "name": "(私立)南投縣私立文心幼兒園",
    "type": "spub1"
  },
  {
    "newsch": 1,
    "lat": 23.966058,
    "lng": 120.970341,
    "sid": "MQAyADUANAA1ADAAMAAwADAAOQA=",
    "name": "(準公共)南投縣私立愛迪生幼兒園",
    "type": "spub3"
  },
  {
    "newsch": 1,
    "lat": 23.967585,
    "lng": 120.958528,
    "sid": "MQAyADUANAA1ADAAMAAwADEAMAA=",
    "name": "(準公共)南投縣私立培幼幼兒園",
    "type": "spub3"
  },
  {
    "newsch": 1,
    "lat": 23.970254,
    "lng": 120.964402,
    "sid": "MQAyADUANAA1ADAAMAAwADEAMQA=",
    "name": "(準公共)南投縣私立童心幼兒園",
    "type": "spub3"
  },
  {
    "newsch": 1,
    "lat": 23.991561,
    "lng": 120.980161,
    "sid": "MQAyADUANAA1ADAAMAAwADEAMgA=",
    "name": "(公立)南投縣埔里鎮忠孝國民小學附設幼兒園",
    "type": "spub0"
  },
  {
    "newsch": 1,
    "lat": 23.9990539,
    "lng": 120.929794,
    "sid": "MQAyADUANAA1ADAAMAAwADEAMwA=",
    "name": "(公立)南投縣埔里鎮水尾國民小學附設幼兒園",
    "type": "spub0"
  },
  {
    "newsch": 1,
    "lat": 23.9738549,
    "lng": 120.943992,
    "sid": "MQAyADUANAA1ADAAMAAwADEANAA=",
    "name": "(公立)南投縣埔里鎮愛蘭國民小學附設幼兒園",
    "type": "spub0"
  },
  {
    "newsch": 1,
    "lat": 23.947829,
    "lng": 120.955794,
    "sid": "MQAyADUANAA1ADAAMAAwADEANQA=",
    "name": "(公立)南投縣埔里鎮溪南國民小學附設幼兒園",
    "type": "spub0"
  },
  {
    "newsch": 1,
    "lat": 23.9614359,
    "lng": 120.970845,
    "sid": "MQAyADUANAA1ADAAMAAwADEANgA=",
    "name": "(公立)南投縣埔里鎮南光國民小學附設幼兒園",
    "type": "spub0"
  },
  {
    "newsch": 1,
    "lat": 23.962412,
    "lng": 120.962037,
    "sid": "MQAyADUANAA1ADAAMAAwADEANwA=",
    "name": "(公立)南投縣埔里鎮育英國民小學附設幼兒園",
    "type": "spub0"
  },
  {
    "newsch": 1,
    "lat": 24.0116999,
    "lng": 120.95731,
    "sid": "MQAyADUANAA1ADAAMAAwADEAOAA=",
    "name": "(公立)南投縣埔里鎮史港國民小學附設幼兒園",
    "type": "spub0"
  },
  {
    "newsch": 1,
    "lat": 23.969585,
    "lng": 120.976171,
    "sid": "MQAyADUANAA1ADAAMAAwADIAMAA=",
    "name": "(準公共)南投縣私立福祿貝爾幼兒園",
    "type": "spub3"
  },
  {
    "newsch": 1,
    "lat": 24.0259339,
    "lng": 120.921428,
    "sid": "MQAyADUANAA1ADAAMAAwADIAMQA=",
    "name": "(公立)南投縣埔里鎮太平國民小學附設幼兒園",
    "type": "spub0"
  },
  {
    "newsch": 1,
    "lat": 23.968353,
    "lng": 120.966906,
    "sid": "MQAyADUANAA1ADAAMAAwADIAMgA=",
    "name": "(公立)南投縣埔里鎮埔里國民小學附設幼兒園",
    "type": "spub0"
  },
  {
    "newsch": 1,
    "lat": 23.971112,
    "lng": 120.959644,
    "sid": "MQAyADUANAA1ADAAMAAwADIAMwA=",
    "name": "(公立)南投縣埔里鎮立幼兒園",
    "type": "spub0"
  },
  {
    "newsch": 1,
    "lat": 23.973401,
    "lng": 120.951324,
    "sid": "MQAyADUANAA1ADAAMAAwADIANAA=",
    "name": "(私立)南投縣私立貝林幼兒園",
    "type": "spub1"
  },
  {
    "newsch": 1,
    "lat": 23.967922,
    "lng": 120.954133,
    "sid": "MQAyADUANAA1ADAAMAAwADIANQA=",
    "name": "(準公共)南投縣私立小太陽幼兒園",
    "type": "spub3"
  },
  {
    "newsch": 1,
    "lat": 23.9703004,
    "lng": 120.951057,
    "sid": "MQAyADUANAA1ADAAMAAwADIANgA=",
    "name": "(非營利)南投縣大成非營利幼兒園(委託財團法人三之三生命教育基金會辦理)",
    "type": "spub2"
  }
]