[
  {
    "newsch": 1,
    "lat": 23.896103,
    "lng": 120.935703,
    "sid": "MQAyADUANQA1ADAAMAAwADAAMQA=",
    "name": "(準公共)南投縣私立名仁幼兒園",
    "type": "spub3"
  },
  {
    "newsch": 1,
    "lat": 23.8906651,
    "lng": 120.9662388,
    "sid": "MQAyADUANQA1ADAAMAAwADAAMgA=",
    "name": "(公立)南投縣魚池鄉東光國民小學附設幼兒園",
    "type": "spub0"
  },
  {
    "newsch": 1,
    "lat": 23.903967,
    "lng": 120.924835,
    "sid": "MQAyADUANQA1ADAAMAAwADAAMwA=",
    "name": "(公立)南投縣魚池鄉新城國民小學附設幼兒園",
    "type": "spub0"
  },
  {
    "newsch": 1,
    "lat": 23.837306,
    "lng": 120.902471,
    "sid": "MQAyADUANQA1ADAAMAAwADAANAA=",
    "name": "(公立)南投縣魚池鄉頭社國民小學附設幼兒園",
    "type": "spub0"
  },
  {
    "newsch": 1,
    "lat": 23.898864,
    "lng": 120.937439,
    "sid": "MQAyADUANQA1ADAAMAAwADAANQA=",
    "name": "(公立)南投縣魚池鄉魚池國民小學附設幼兒園",
    "type": "spub0"
  },
  {
    "newsch": 1,
    "lat": 23.867582,
    "lng": 120.910368,
    "sid": "MQAyADUANQA1ADAAMAAwADAANgA=",
    "name": "(公立)南投縣魚池鄉明潭國民小學附設幼兒園",
    "type": "spub0"
  },
  {
    "newsch": 1,
    "lat": 23.919148,
    "lng": 120.966091,
    "sid": "MQAyADUANQA1ADAAMAAwADAANwA=",
    "name": "(公立)南投縣魚池鄉共和國民小學附設幼兒園",
    "type": "spub0"
  },
  {
    "newsch": 1,
    "lat": 23.890564,
    "lng": 120.88928,
    "sid": "MQAyADUANQA1ADAAMAAwADAAOAA=",
    "name": "(公立)南投縣魚池鄉五城國民小學附設幼兒園",
    "type": "spub0"
  },
  {
    "newsch": 1,
    "lat": 23.84811,
    "lng": 120.935241,
    "sid": "MQAyADUANQA1ADAAMAAwADAAOQA=",
    "name": "(公立)南投縣魚池鄉伊達邵國民小學附設幼兒園",
    "type": "spub0"
  },
  {
    "newsch": 1,
    "lat": 23.890591,
    "lng": 120.939927,
    "sid": "MQAyADUANQA1ADAAMAAwADEAMAA=",
    "name": "(準公共)南投縣私立育智幼兒園",
    "type": "spub3"
  }
]