[
  {
    "newsch": 1,
    "lat": 23.779195,
    "lng": 120.896871,
    "sid": "MQAyADUANQA2ADAAMAAwADAAMQA=",
    "name": "(公立)南投縣信義鄉人和國民小學附設幼兒園",
    "type": "spub0"
  },
  {
    "newsch": 1,
    "lat": 23.821478,
    "lng": 120.9400217,
    "sid": "MQAyADUANQA2ADAAMAAwADAAMgA=",
    "name": "(公立)南投縣信義鄉潭南國民小學附設幼兒園",
    "type": "spub0"
  },
  {
    "newsch": 1,
    "lat": 23.615579,
    "lng": 120.884149,
    "sid": "MQAyADUANQA2ADAAMAAwADAAMwA=",
    "name": "(公立)南投縣信義鄉久美國民小學附設幼兒園",
    "type": "spub0"
  },
  {
    "newsch": 1,
    "lat": 23.793903,
    "lng": 120.943154,
    "sid": "MQAyADUANQA2ADAAMAAwADAANAA=",
    "name": "(公立)南投縣信義鄉地利國民小學附設幼兒園",
    "type": "spub0"
  },
  {
    "newsch": 1,
    "lat": 23.6281141,
    "lng": 120.8703269,
    "sid": "MQAyADUANQA2ADAAMAAwADAANQA=",
    "name": "(公立)南投縣信義鄉羅娜國民小學附設幼兒園",
    "type": "spub0"
  },
  {
    "newsch": 1,
    "lat": 23.7854,
    "lng": 120.950171,
    "sid": "MQAyADUANQA2ADAAMAAwADAANgA=",
    "name": "(公立)南投縣信義鄉雙龍國民小學附設幼兒園",
    "type": "spub0"
  },
  {
    "newsch": 1,
    "lat": 23.6701731,
    "lng": 120.874663,
    "sid": "MQAyADUANQA2ADAAMAAwADAANwA=",
    "name": "(公立)南投縣信義鄉豐丘國民小學附設幼兒園",
    "type": "spub0"
  },
  {
    "newsch": 1,
    "lat": 23.69383,
    "lng": 120.84839,
    "sid": "MQAyADUANQA2ADAAMAAwADAAOAA=",
    "name": "(公立)南投縣信義鄉愛國國民小學附設幼兒園",
    "type": "spub0"
  },
  {
    "newsch": 1,
    "lat": 23.6975623,
    "lng": 120.8543587,
    "sid": "MQAyADUANQA2ADAAMAAwADAAOQA=",
    "name": "(公立)南投縣信義鄉信義國民小學附設幼兒園",
    "type": "spub0"
  },
  {
    "newsch": 1,
    "lat": 23.640283,
    "lng": 120.869617,
    "sid": "MQAyADUANQA2ADAAMAAwADEAMAA=",
    "name": "(公立)南投縣信義鄉希娜巴嵐國民小學附設幼兒園",
    "type": "spub0"
  },
  {
    "newsch": 1,
    "lat": 23.5602958,
    "lng": 120.8747683,
    "sid": "MQAyADUANQA2ADAAMAAwADEAMQA=",
    "name": "(公立)南投縣信義鄉桐林國民小學附設幼兒園",
    "type": "spub0"
  },
  {
    "newsch": 1,
    "lat": 23.561913,
    "lng": 120.927788,
    "sid": "MQAyADUANQA2ADAAMAAwADEAMgA=",
    "name": "(公立)南投縣信義鄉東埔國民小學附設幼兒園",
    "type": "spub0"
  },
  {
    "newsch": 1,
    "lat": 23.593794,
    "lng": 120.888235,
    "sid": "MQAyADUANQA2ADAAMAAwADEAMwA=",
    "name": "(公立)南投縣信義鄉同富國民小學附設幼兒園",
    "type": "spub0"
  },
  {
    "newsch": 1,
    "lat": 23.563044,
    "lng": 120.8678704,
    "sid": "MQAyADUANQA2ADAAMAAwADEANAA=",
    "name": "(公立)南投縣信義鄉隆華國民小學附設幼兒園",
    "type": "spub0"
  },
  {
    "newsch": 1,
    "lat": 23.693579,
    "lng": 120.849056,
    "sid": "MQAyADUANQA2ADAAMAAwADEANwA=",
    "name": "(公立)南投縣信義鄉立幼兒園",
    "type": "spub0"
  },
  {
    "newsch": 1,
    "lat": 23.79417,
    "lng": 120.9423231,
    "sid": "MQAyADUANQA2ADAAMAAwADEANwAtADAAMQA=",
    "name": "(公立)南投縣信義鄉立幼兒園青雲分班",
    "type": "spub0"
  },
  {
    "newsch": 1,
    "lat": 23.78352,
    "lng": 120.947007,
    "sid": "MQAyADUANQA2ADAAMAAwADEANwAtADAAMgA=",
    "name": "(公立)南投縣信義鄉立幼兒園雙龍分班",
    "type": "spub0"
  },
  {
    "newsch": 1,
    "lat": 23.628592,
    "lng": 120.869735,
    "sid": "MQAyADUANQA2ADAAMAAwADEANwAtADAAMwA=",
    "name": "(公立)南投縣信義鄉立幼兒園羅娜分班",
    "type": "spub0"
  },
  {
    "newsch": 1,
    "lat": 23.588304,
    "lng": 120.889867,
    "sid": "MQAyADUANQA2ADAAMAAwADEANwAtADAANAA=",
    "name": "(公立)南投縣信義鄉立幼兒園同富分班",
    "type": "spub0"
  },
  {
    "newsch": 1,
    "lat": 23.779398,
    "lng": 120.8966189,
    "sid": "MQAyADUANQA2ADAAMAAwADEANwAtADAANQA=",
    "name": "(公立)南投縣信義鄉立幼兒園人和分班",
    "type": "spub0"
  }
]