[
  {
    "newsch": 1,
    "lat": 23.461743,
    "lng": 120.436649,
    "sid": "MQA0ADYAMAAwADAAMAAwADAAMgA=",
    "name": "(私立)嘉義市私立想像幼兒園",
    "type": "spub1"
  },
  {
    "newsch": 1,
    "lat": 23.488887,
    "lng": 120.435616,
    "sid": "MQA0ADYAMAAwADAAMAAwADAAMwA=",
    "name": "(準公共)嘉義市私立孩得堡幼兒園",
    "type": "spub3"
  },
  {
    "newsch": 1,
    "lat": 23.486054,
    "lng": 120.457969,
    "sid": "MQA0ADYAMAAwADAAMAAwADAANQA=",
    "name": "(準公共)嘉義市私立林肯幼兒園",
    "type": "spub3"
  },
  {
    "newsch": 1,
    "lat": 23.48102,
    "lng": 120.455342,
    "sid": "MQA0ADYAMAAwADAAMAAwADAANgA=",
    "name": "(準公共)財團法人嘉義市私立榮光幼兒園",
    "type": "spub3"
  },
  {
    "newsch": 1,
    "lat": 23.452892,
    "lng": 120.456352,
    "sid": "MQA0ADYAMAAwADAAMAAwADAAOQA=",
    "name": "(準公共)嘉義市私立和睦幼兒園",
    "type": "spub3"
  },
  {
    "newsch": 1,
    "lat": 23.474461,
    "lng": 120.4616046,
    "sid": "MQA0ADYAMAAwADAAMAAwADEAMAA=",
    "name": "(非營利)國立嘉義高級家事職業學校員工子女非營利幼兒園(委託社團法人幼兒教保協會辦理)",
    "type": "spub2"
  },
  {
    "newsch": 1,
    "lat": 23.468826,
    "lng": 120.460485,
    "sid": "MQA0ADYAMAAwADAAMAAwADEAMQA=",
    "name": "(私立)私立東吳高級工業家事職業學校附設嘉義市幼兒園",
    "type": "spub1"
  },
  {
    "newsch": 1,
    "lat": 23.4922948,
    "lng": 120.4759888,
    "sid": "MQA0ADYAMAAwADAAMAAwADEANQA=",
    "name": "(準公共)嘉義市私立貝萊登幼兒園",
    "type": "spub3"
  },
  {
    "newsch": 1,
    "lat": 23.4616794,
    "lng": 120.45635,
    "sid": "MQA0ADYAMAAwADAAMAAwADEANgA=",
    "name": "(私立)財團法人天主教聖言會附設嘉義市私立輔仁幼兒園",
    "type": "spub1"
  },
  {
    "newsch": 1,
    "lat": 23.478397,
    "lng": 120.473888,
    "sid": "MQA0ADYAMAAwADAAMAAwADEANwA=",
    "name": "(私立)嘉義市私立種子幼兒園",
    "type": "spub1"
  },
  {
    "newsch": 1,
    "lat": 23.463485,
    "lng": 120.432904,
    "sid": "MQA0ADYAMAAwADAAMAAwADEAOAA=",
    "name": "(準公共)嘉義市私立愛兒幼兒園",
    "type": "spub3"
  },
  {
    "newsch": 1,
    "lat": 23.484581,
    "lng": 120.497191,
    "sid": "MQA0ADYAMAAwADAAMAAwADIAMAA=",
    "name": "(準公共)嘉義市私立東之寶幼兒園",
    "type": "spub3"
  },
  {
    "newsch": 1,
    "lat": 23.494375,
    "lng": 120.43121,
    "sid": "MQA0ADYAMAAwADAAMAAwADIAMQA=",
    "name": "(私立)嘉義市私立吉尼爾幼兒園",
    "type": "spub1"
  },
  {
    "newsch": 1,
    "lat": 23.482552,
    "lng": 120.422199,
    "sid": "MQA0ADYAMAAwADAAMAAwADIAMgA=",
    "name": "(私立)嘉義市私立愛兒堡幼兒園",
    "type": "spub1"
  },
  {
    "newsch": 1,
    "lat": 23.490941,
    "lng": 120.457138,
    "sid": "MQA0ADYAMAAwADAAMAAwADIAMwA=",
    "name": "(私立)嘉義市私立雨果幼兒園",
    "type": "spub1"
  },
  {
    "newsch": 1,
    "lat": 23.496554,
    "lng": 120.451371,
    "sid": "MQA0ADYAMAAwADAAMAAwADIANAA=",
    "name": "(準公共)財團法人天主教會嘉義教區附設嘉義市私立景仁幼兒園",
    "type": "spub3"
  },
  {
    "newsch": 1,
    "lat": 23.492548,
    "lng": 120.477592,
    "sid": "MQA0ADYAMAAwADAAMAAwADIANQA=",
    "name": "(準公共)財團法人天主教會嘉義教區附設嘉義市私立仁愛幼兒園",
    "type": "spub3"
  },
  {
    "newsch": 1,
    "lat": 23.473486,
    "lng": 120.433944,
    "sid": "MQA0ADYAMAAwADAAMAAwADIANwA=",
    "name": "(準公共)嘉義市私立小狀元幼兒園",
    "type": "spub3"
  },
  {
    "newsch": 1,
    "lat": 23.491597,
    "lng": 120.428393,
    "sid": "MQA0ADYAMAAwADAAMAAwADIAOAA=",
    "name": "(私立)嘉義市私立綠光森林幼兒園",
    "type": "spub1"
  },
  {
    "newsch": 1,
    "lat": 23.474015,
    "lng": 120.43859,
    "sid": "MQA0ADYAMAAwADAAMAAwADIAOQA=",
    "name": "(私立)嘉義市私立育光幼兒園",
    "type": "spub1"
  },
  {
    "newsch": 1,
    "lat": 23.48162,
    "lng": 120.484909,
    "sid": "MQA0ADYAMAAwADAAMAAwADMAMQA=",
    "name": "(私立)嘉義市私立諾爾堡幼兒園",
    "type": "spub1"
  },
  {
    "newsch": 1,
    "lat": 23.476055,
    "lng": 120.446753,
    "sid": "MQA0ADYAMAAwADAAMAAwADMAMgA=",
    "name": "(準公共)財團法人天主教會嘉義教區附設嘉義市私立正義幼兒園",
    "type": "spub3"
  },
  {
    "newsch": 1,
    "lat": 23.497762,
    "lng": 120.431278,
    "sid": "MQA0ADYAMAAwADAAMAAwADMAMwA=",
    "name": "(準公共)嘉義市私立北興幼兒園",
    "type": "spub3"
  },
  {
    "newsch": 1,
    "lat": 23.465123,
    "lng": 120.455019,
    "sid": "MQA0ADYAMAAwADAAMAAwADMANAA=",
    "name": "(準公共)嘉義市私立桑尼種子幼兒園",
    "type": "spub3"
  },
  {
    "newsch": 1,
    "lat": 23.477926,
    "lng": 120.448803,
    "sid": "MQA0ADYAMAAwADAAMAAwADMANgA=",
    "name": "(準公共)嘉義市私立磐石幼兒園",
    "type": "spub3"
  },
  {
    "newsch": 1,
    "lat": 23.465062,
    "lng": 120.432829,
    "sid": "MQA0ADYAMAAwADAAMAAwADQAMAA=",
    "name": "(準公共)嘉義市私立信義幼兒園",
    "type": "spub3"
  },
  {
    "newsch": 1,
    "lat": 23.489388,
    "lng": 120.428068,
    "sid": "MQA0ADYAMAAwADAAMAAwADQAMQA=",
    "name": "(公立)嘉義市西區世賢國民小學附設幼兒園",
    "type": "spub0"
  },
  {
    "newsch": 1,
    "lat": 23.472548,
    "lng": 120.438751,
    "sid": "MQA0ADYAMAAwADAAMAAwADQAMgA=",
    "name": "(公立)嘉義市西區垂楊國民小學附設幼兒園",
    "type": "spub0"
  },
  {
    "newsch": 1,
    "lat": 23.460918,
    "lng": 120.443937,
    "sid": "MQA0ADYAMAAwADAAMAAwADQAMwA=",
    "name": "(公立)嘉義市立幸福幼兒園",
    "type": "spub0"
  },
  {
    "newsch": 1,
    "lat": 23.470584,
    "lng": 120.458942,
    "sid": "MQA0ADYAMAAwADAAMAAwADQANAA=",
    "name": "(公立)嘉義市東區宣信國民小學附設幼兒園",
    "type": "spub0"
  },
  {
    "newsch": 1,
    "lat": 23.48646,
    "lng": 120.455776,
    "sid": "MQA0ADYAMAAwADAAMAAwADQANQA=",
    "name": "(公立)國立嘉義大學附設實驗國民小學附設幼兒園",
    "type": "spub0"
  },
  {
    "newsch": 1,
    "lat": 23.480261,
    "lng": 120.450211,
    "sid": "MQA0ADYAMAAwADAAMAAwADQANgA=",
    "name": "(公立)嘉義市立吳鳳幼兒園",
    "type": "spub0"
  },
  {
    "newsch": 1,
    "lat": 23.491522,
    "lng": 120.444145,
    "sid": "MQA0ADYAMAAwADAAMAAwADQANwA=",
    "name": "(公立)嘉義市西區博愛國民小學附設幼兒園",
    "type": "spub0"
  },
  {
    "newsch": 1,
    "lat": 23.48954,
    "lng": 120.465854,
    "sid": "MQA0ADYAMAAwADAAMAAwADQAOAA=",
    "name": "(公立)嘉義市東區林森國民小學附設幼兒園",
    "type": "spub0"
  },
  {
    "newsch": 1,
    "lat": 23.472146,
    "lng": 120.445636,
    "sid": "MQA0ADYAMAAwADAAMAAwADQAOQA=",
    "name": "(公立)嘉義市西區大同國民小學附設幼兒園",
    "type": "spub0"
  },
  {
    "newsch": 1,
    "lat": 23.49235,
    "lng": 120.479867,
    "sid": "MQA0ADYAMAAwADAAMAAwADUAMAA=",
    "name": "(公立)嘉義市東區精忠國民小學附設幼兒園",
    "type": "spub0"
  },
  {
    "newsch": 1,
    "lat": 23.494548,
    "lng": 120.425922,
    "sid": "MQA0ADYAMAAwADAAMAAwADUAMQA=",
    "name": "(公立)嘉義市西區北園國民小學附設幼兒園",
    "type": "spub0"
  },
  {
    "newsch": 1,
    "lat": 23.472654,
    "lng": 120.416591,
    "sid": "MQA0ADYAMAAwADAAMAAwADUAMgA=",
    "name": "(公立)嘉義市西區育人國民小學附設幼兒園",
    "type": "spub0"
  },
  {
    "newsch": 1,
    "lat": 23.476291,
    "lng": 120.455158,
    "sid": "MQA0ADYAMAAwADAAMAAwADUAMwA=",
    "name": "(公立)嘉義市東區民族國民小學附設幼兒園",
    "type": "spub0"
  },
  {
    "newsch": 1,
    "lat": 23.491015,
    "lng": 120.465551,
    "sid": "MQA0ADYAMAAwADAAMAAwADUANAA=",
    "name": "(準公共)嘉義市私立慈幼幼兒園",
    "type": "spub3"
  },
  {
    "newsch": 1,
    "lat": 23.480679,
    "lng": 120.460772,
    "sid": "MQA0ADYAMAAwADAAMAAwADUANQA=",
    "name": "(公立)嘉義市立復國幼兒園",
    "type": "spub0"
  },
  {
    "newsch": 1,
    "lat": 23.492884,
    "lng": 120.443469,
    "sid": "MQA0ADYAMAAwADAAMAAwADUANgA=",
    "name": "(準公共)嘉義市私立忠樺幼兒園",
    "type": "spub3"
  },
  {
    "newsch": 1,
    "lat": 23.47561,
    "lng": 120.471093,
    "sid": "MQA0ADYAMAAwADAAMAAwADUANwA=",
    "name": "(公立)嘉義市東區蘭潭國民小學附設幼兒園",
    "type": "spub0"
  },
  {
    "newsch": 1,
    "lat": 23.484007,
    "lng": 120.452845,
    "sid": "MQA0ADYAMAAwADAAMAAwADUAOAA=",
    "name": "(準公共)嘉義市私立育志幼兒園",
    "type": "spub3"
  },
  {
    "newsch": 1,
    "lat": 23.488613,
    "lng": 120.442807,
    "sid": "MQA0ADYAMAAwADAAMAAwADYAMAA=",
    "name": "(準公共)嘉義市私立幼華幼兒園",
    "type": "spub3"
  },
  {
    "newsch": 1,
    "lat": 23.477708,
    "lng": 120.449767,
    "sid": "MQA0ADYAMAAwADAAMAAwADYAMQA=",
    "name": "(私立)財團法人中華基督教嘉義浸信會附設嘉義市私立慈光幼兒園",
    "type": "spub1"
  },
  {
    "newsch": 1,
    "lat": 23.496323,
    "lng": 120.451226,
    "sid": "MQA0ADYAMAAwADAAMAAwADYAMgA=",
    "name": "(準公共)戴德森醫療財團法人職工福利委員會附設嘉義市私立嘉基幼兒園",
    "type": "spub3"
  },
  {
    "newsch": 1,
    "lat": 23.466302,
    "lng": 120.442608,
    "sid": "MQA0ADYAMAAwADAAMAAwADYAMwA=",
    "name": "(私立)嘉義市私立大能力幼兒園",
    "type": "spub1"
  },
  {
    "newsch": 1,
    "lat": 23.484707,
    "lng": 120.435844,
    "sid": "MQA0ADYAMAAwADAAMAAwADYANAA=",
    "name": "(準公共)嘉義市私立教之道幼兒園",
    "type": "spub3"
  },
  {
    "newsch": 1,
    "lat": 23.483875,
    "lng": 120.426823,
    "sid": "MQA0ADYAMAAwADAAMAAwADYANwA=",
    "name": "(準公共)嘉義市私立精英幼兒園",
    "type": "spub3"
  },
  {
    "newsch": 1,
    "lat": 23.490404,
    "lng": 120.451436,
    "sid": "MQA0ADYAMAAwADAAMAAwADYAOAA=",
    "name": "(私立)嘉義市私立小魚幼兒園",
    "type": "spub1"
  },
  {
    "newsch": 1,
    "lat": 23.4819,
    "lng": 120.457218,
    "sid": "MQA0ADYAMAAwADAAMAAwADcAMgA=",
    "name": "(準公共)嘉義市私立中正幼兒園",
    "type": "spub3"
  },
  {
    "newsch": 1,
    "lat": 23.466725,
    "lng": 120.4306,
    "sid": "MQA0ADYAMAAwADAAMAAwADcAMwA=",
    "name": "(私立)嘉義市私立百合幼兒園",
    "type": "spub1"
  },
  {
    "newsch": 1,
    "lat": 23.491706,
    "lng": 120.434344,
    "sid": "MQA0ADYAMAAwADAAMAAwADcANAA=",
    "name": "(準公共)嘉義市私立小叮噹幼兒園",
    "type": "spub3"
  },
  {
    "newsch": 1,
    "lat": 23.4750199,
    "lng": 120.4518663,
    "sid": "MQA0ADYAMAAwADAAMAAwADcANQA=",
    "name": "(私立)財團法人台灣聖公會附設嘉義市私立聖彼得幼兒園",
    "type": "spub1"
  },
  {
    "newsch": 1,
    "lat": 23.4903412,
    "lng": 120.4550215,
    "sid": "MQA0ADYAMAAwADAAMAAwADcANgA=",
    "name": "(準公共)嘉義市私立中國娃娃幼兒園",
    "type": "spub3"
  },
  {
    "newsch": 1,
    "lat": 23.477445,
    "lng": 120.454128,
    "sid": "MQA0ADYAMAAwADAAMAAwADcANwA=",
    "name": "(準公共)嘉義市私立恩光幼兒園",
    "type": "spub3"
  },
  {
    "newsch": 1,
    "lat": 23.460432,
    "lng": 120.458064,
    "sid": "MQA0ADYAMAAwADAAMAAwADcAOAA=",
    "name": "(準公共)嘉義市私立天欣幼兒園",
    "type": "spub3"
  },
  {
    "newsch": 1,
    "lat": 23.470094,
    "lng": 120.422542,
    "sid": "MQA0ADYAMAAwADAAMAAwADcAOQA=",
    "name": "(準公共)嘉義市私立伯士鹿幼兒園",
    "type": "spub3"
  },
  {
    "newsch": 1,
    "lat": 23.4748338,
    "lng": 120.4615752,
    "sid": "MQA0ADYAMAAwADAAMAAwADgAMAA=",
    "name": "(私立)嘉義市私立優肯幼兒園",
    "type": "spub1"
  },
  {
    "newsch": 1,
    "lat": 23.486533,
    "lng": 120.430863,
    "sid": "MQA0ADYAMAAwADAAMAAwADgAMgA=",
    "name": "(準公共)嘉義市私立美的幼兒園",
    "type": "spub3"
  },
  {
    "newsch": 1,
    "lat": 23.4841348,
    "lng": 120.4323651,
    "sid": "MQA0ADYAMAAwADAAMAAwADgAMwA=",
    "name": "(非營利)嘉義市小橘子非營利幼兒園（委託財團法人伊甸社會福利基金會辦理）",
    "type": "spub2"
  },
  {
    "newsch": 1,
    "lat": 23.4738709,
    "lng": 120.4528212,
    "sid": "MQA0ADYAMAAwADAAMAAwADgANQA=",
    "name": "(非營利)嘉義市銀河非營利幼兒園(委託社團法人東台灣幼兒教保專業促進協會辦理)",
    "type": "spub2"
  },
  {
    "newsch": 1,
    "lat": 23.4904837,
    "lng": 120.4550717,
    "sid": "MQA0ADYAMAAwADAAMAAwADgANgA=",
    "name": "(非營利)嘉義市橡木子非營利幼兒園(委託財團法人福智文教基金會辦理)",
    "type": "spub2"
  },
  {
    "newsch": 1,
    "lat": 23.4786314,
    "lng": 120.4768377,
    "sid": "MQA0ADYAMAAwADAAMAAwADgANwA=",
    "name": "(私立)嘉義市私立華特幼兒園",
    "type": "spub1"
  },
  {
    "newsch": 1,
    "lat": 23.4931274,
    "lng": 120.4552194,
    "sid": "MQA0ADYAMAAwADAAMAAwADgAOAA=",
    "name": "(公立)嘉義市東區嘉北國民小學附設幼兒園",
    "type": "spub0"
  },
  {
    "newsch": 1,
    "lat": 23.4810912,
    "lng": 120.421361,
    "sid": "MQA0ADYAMAAwADAAMAAwADgAOQA=",
    "name": "(公立)國立嘉義特殊教育學校幼兒部",
    "type": "spub0"
  },
  {
    "newsch": 1,
    "lat": 23.4833952,
    "lng": 120.461032,
    "sid": "MQA0ADYAMAAwADAAMAAwADkAMAA=",
    "name": "(私立)台電公司嘉義區營業處職場互助教保服務中心(委託社團法人中華育英社會教育關懷協會辦理)",
    "type": "spub1"
  },
  {
    "newsch": 1,
    "lat": 23.4823593,
    "lng": 120.4541932,
    "sid": "MQA0ADYAMAAwADAAMAAwADkAMQA=",
    "name": "(私立)國防部全動署後備指揮部安樂營區職場互助教保服務中心(委託台灣幸福嬰幼兒全方位發展協會辦理)",
    "type": "spub1"
  },
  {
    "newsch": 1,
    "lat": 23.485424,
    "lng": 120.4594134,
    "sid": "MQA0ADYAMAAwADAAMAAwADkAMgA=",
    "name": "(私立)法務部嘉義維新職場互助教保服務中心(委託社團法人中華宏觀專業幼童教保福利學會辦理)",
    "type": "spub1"
  },
  {
    "newsch": 1,
    "lat": 23.4779289,
    "lng": 120.4500827,
    "sid": "MQA0ADYAMAAwADAAMAAwADkAMwA=",
    "name": "(私立)中華郵政公司嘉義文化路郵局職場互助教保服務中心(委託社團法人東台灣幼兒教保專業促進協會辦理)",
    "type": "spub1"
  },
  {
    "newsch": 1,
    "lat": 23.4587209,
    "lng": 120.4534617,
    "sid": "MQA0ADYAMAAwADAAMAAwADkANAA=",
    "name": "(私立)嘉義市私立步芮幼兒園",
    "type": "spub1"
  },
  {
    "newsch": 1,
    "lat": 23.4656354,
    "lng": 120.4535152,
    "sid": "MQA0ADYAMAAwADAAMAAwADkANQA=",
    "name": "(非營利)嘉義市中油員工子女非營利幼兒園（財團法人台灣中油股份有限公司職工福利委員會申請辦理）",
    "type": "spub2"
  },
  {
    "newsch": 1,
    "lat": 23.4794884,
    "lng": 120.4316896,
    "sid": "MQA0ADYAMAAwADAAMAAwADkANgA=",
    "name": "(私立)嘉義市政府警察局職場互助教保服務中心(委託社團法人中華宏觀專業幼童教保福利學會辦理)",
    "type": "spub1"
  }
]