[
  {
    "newsch": 1,
    "lat": 23.461804,
    "lng": 120.436634,
    "sid": "MQA0ADYAMAAwADAAMAAwADAAMgA=",
    "name": "(私立)嘉義市私立想像幼兒園",
    "type": "spub1"
  },
  {
    "newsch": 1,
    "lat": 23.48832,
    "lng": 120.436442,
    "sid": "MQA0ADYAMAAwADAAMAAwADAAMwA=",
    "name": "(準公共)嘉義市私立孩得堡幼兒園",
    "type": "spub3"
  },
  {
    "newsch": 1,
    "lat": 23.48611,
    "lng": 120.457942,
    "sid": "MQA0ADYAMAAwADAAMAAwADAANQA=",
    "name": "(準公共)嘉義市私立林肯幼兒園",
    "type": "spub3"
  },
  {
    "newsch": 1,
    "lat": 23.48072,
    "lng": 120.455392,
    "sid": "MQA0ADYAMAAwADAAMAAwADAANgA=",
    "name": "(準公共)財團法人嘉義市私立榮光幼兒園",
    "type": "spub3"
  },
  {
    "newsch": 1,
    "lat": 23.453103,
    "lng": 120.45648,
    "sid": "MQA0ADYAMAAwADAAMAAwADAAOQA=",
    "name": "(準公共)嘉義市私立和睦幼兒園",
    "type": "spub3"
  },
  {
    "newsch": 1,
    "lat": 23.47341,
    "lng": 120.458492,
    "sid": "MQA0ADYAMAAwADAAMAAwADEAMAA=",
    "name": "(非營利)國立嘉義高級家事職業學校員工子女非營利幼兒園(委託社團法人幼兒教保協會辦理)",
    "type": "spub2"
  },
  {
    "newsch": 1,
    "lat": 23.468732,
    "lng": 120.460849,
    "sid": "MQA0ADYAMAAwADAAMAAwADEAMQA=",
    "name": "(私立)私立東吳高級工業家事職業學校附設嘉義市幼兒園",
    "type": "spub1"
  },
  {
    "newsch": 1,
    "lat": 23.492393,
    "lng": 120.47552,
    "sid": "MQA0ADYAMAAwADAAMAAwADEANQA=",
    "name": "(準公共)嘉義市私立貝萊登幼兒園",
    "type": "spub3"
  },
  {
    "newsch": 1,
    "lat": 23.461748,
    "lng": 120.456053,
    "sid": "MQA0ADYAMAAwADAAMAAwADEANgA=",
    "name": "(私立)財團法人天主教聖言會附設嘉義市私立輔仁幼兒園",
    "type": "spub1"
  },
  {
    "newsch": 1,
    "lat": 23.478429,
    "lng": 120.473945,
    "sid": "MQA0ADYAMAAwADAAMAAwADEANwA=",
    "name": "(準公共)嘉義市私立種子幼兒園",
    "type": "spub3"
  },
  {
    "newsch": 1,
    "lat": 23.46338,
    "lng": 120.432972,
    "sid": "MQA0ADYAMAAwADAAMAAwADEAOAA=",
    "name": "(準公共)嘉義市私立愛兒幼兒園",
    "type": "spub3"
  },
  {
    "newsch": 1,
    "lat": 23.484698,
    "lng": 120.496992,
    "sid": "MQA0ADYAMAAwADAAMAAwADIAMAA=",
    "name": "(準公共)嘉義市私立東之寶幼兒園",
    "type": "spub3"
  },
  {
    "newsch": 1,
    "lat": 23.494687,
    "lng": 120.431159,
    "sid": "MQA0ADYAMAAwADAAMAAwADIAMQA=",
    "name": "(私立)嘉義市私立吉尼爾幼兒園",
    "type": "spub1"
  },
  {
    "newsch": 1,
    "lat": 23.48257,
    "lng": 120.422052,
    "sid": "MQA0ADYAMAAwADAAMAAwADIAMgA=",
    "name": "(準公共)嘉義市私立愛兒堡幼兒園",
    "type": "spub3"
  },
  {
    "newsch": 1,
    "lat": 23.491356,
    "lng": 120.456895,
    "sid": "MQA0ADYAMAAwADAAMAAwADIAMwA=",
    "name": "(私立)嘉義市私立雨果幼兒園",
    "type": "spub1"
  },
  {
    "newsch": 1,
    "lat": 23.497062,
    "lng": 120.451164,
    "sid": "MQA0ADYAMAAwADAAMAAwADIANAA=",
    "name": "(準公共)財團法人天主教會嘉義教區附設嘉義市私立景仁幼兒園",
    "type": "spub3"
  },
  {
    "newsch": 1,
    "lat": 23.492668,
    "lng": 120.47777,
    "sid": "MQA0ADYAMAAwADAAMAAwADIANQA=",
    "name": "(準公共)財團法人天主教會嘉義教區附設嘉義市私立仁愛幼兒園",
    "type": "spub3"
  },
  {
    "newsch": 1,
    "lat": 23.473445,
    "lng": 120.433907,
    "sid": "MQA0ADYAMAAwADAAMAAwADIANwA=",
    "name": "(準公共)嘉義市私立小狀元幼兒園",
    "type": "spub3"
  },
  {
    "newsch": 1,
    "lat": 23.4924,
    "lng": 120.42114,
    "sid": "MQA0ADYAMAAwADAAMAAwADIAOAA=",
    "name": "(私立)嘉義市私立綠光森林幼兒園",
    "type": "spub1"
  },
  {
    "newsch": 1,
    "lat": 23.474086,
    "lng": 120.438619,
    "sid": "MQA0ADYAMAAwADAAMAAwADIAOQA=",
    "name": "(私立)嘉義市私立育光幼兒園",
    "type": "spub1"
  },
  {
    "newsch": 1,
    "lat": 23.481219,
    "lng": 120.484824,
    "sid": "MQA0ADYAMAAwADAAMAAwADMAMQA=",
    "name": "(私立)嘉義市私立諾爾堡幼兒園",
    "type": "spub1"
  },
  {
    "newsch": 1,
    "lat": 23.4762,
    "lng": 120.446872,
    "sid": "MQA0ADYAMAAwADAAMAAwADMAMgA=",
    "name": "(準公共)財團法人天主教會嘉義教區附設嘉義市私立正義幼兒園",
    "type": "spub3"
  },
  {
    "newsch": 1,
    "lat": 23.49771,
    "lng": 120.431252,
    "sid": "MQA0ADYAMAAwADAAMAAwADMAMwA=",
    "name": "(準公共)嘉義市私立北興幼兒園",
    "type": "spub3"
  },
  {
    "newsch": 1,
    "lat": 23.46547,
    "lng": 120.455892,
    "sid": "MQA0ADYAMAAwADAAMAAwADMANAA=",
    "name": "(準公共)嘉義市私立桑尼種子幼兒園",
    "type": "spub3"
  },
  {
    "newsch": 1,
    "lat": 23.47791,
    "lng": 120.448732,
    "sid": "MQA0ADYAMAAwADAAMAAwADMANgA=",
    "name": "(準公共)嘉義市私立磐石幼兒園",
    "type": "spub3"
  },
  {
    "newsch": 1,
    "lat": 23.465102,
    "lng": 120.432736,
    "sid": "MQA0ADYAMAAwADAAMAAwADQAMAA=",
    "name": "(準公共)嘉義市私立信義幼兒園",
    "type": "spub3"
  },
  {
    "newsch": 1,
    "lat": 23.489118,
    "lng": 120.428283,
    "sid": "MQA0ADYAMAAwADAAMAAwADQAMQA=",
    "name": "(公立)嘉義市西區世賢國民小學附設幼兒園",
    "type": "spub0"
  },
  {
    "newsch": 1,
    "lat": 23.471768,
    "lng": 120.438859,
    "sid": "MQA0ADYAMAAwADAAMAAwADQAMgA=",
    "name": "(公立)嘉義市西區垂楊國民小學附設幼兒園",
    "type": "spub0"
  },
  {
    "newsch": 1,
    "lat": 23.460352,
    "lng": 120.444172,
    "sid": "MQA0ADYAMAAwADAAMAAwADQAMwA=",
    "name": "(公立)嘉義市立幸福幼兒園",
    "type": "spub0"
  },
  {
    "newsch": 1,
    "lat": 23.470743,
    "lng": 120.459416,
    "sid": "MQA0ADYAMAAwADAAMAAwADQANAA=",
    "name": "(公立)嘉義市東區宣信國民小學附設幼兒園",
    "type": "spub0"
  },
  {
    "newsch": 1,
    "lat": 23.485943,
    "lng": 120.456034,
    "sid": "MQA0ADYAMAAwADAAMAAwADQANQA=",
    "name": "(公立)國立嘉義大學附設實驗國民小學附設幼兒園",
    "type": "spub0"
  },
  {
    "newsch": 1,
    "lat": 23.480613,
    "lng": 120.450172,
    "sid": "MQA0ADYAMAAwADAAMAAwADQANgA=",
    "name": "(公立)嘉義市立吳鳳幼兒園",
    "type": "spub0"
  },
  {
    "newsch": 1,
    "lat": 23.491062,
    "lng": 120.444022,
    "sid": "MQA0ADYAMAAwADAAMAAwADQANwA=",
    "name": "(公立)嘉義市西區博愛國民小學附設幼兒園",
    "type": "spub0"
  },
  {
    "newsch": 1,
    "lat": 23.489437,
    "lng": 120.466503,
    "sid": "MQA0ADYAMAAwADAAMAAwADQAOAA=",
    "name": "(公立)嘉義市東區林森國民小學附設幼兒園",
    "type": "spub0"
  },
  {
    "newsch": 1,
    "lat": 23.471334,
    "lng": 120.445778,
    "sid": "MQA0ADYAMAAwADAAMAAwADQAOQA=",
    "name": "(公立)嘉義市西區大同國民小學附設幼兒園",
    "type": "spub0"
  },
  {
    "newsch": 1,
    "lat": 23.491699,
    "lng": 120.480001,
    "sid": "MQA0ADYAMAAwADAAMAAwADUAMAA=",
    "name": "(公立)嘉義市東區精忠國民小學附設幼兒園",
    "type": "spub0"
  },
  {
    "newsch": 1,
    "lat": 23.494954,
    "lng": 120.42561,
    "sid": "MQA0ADYAMAAwADAAMAAwADUAMQA=",
    "name": "(公立)嘉義市西區北園國民小學附設幼兒園",
    "type": "spub0"
  },
  {
    "newsch": 1,
    "lat": 23.472504,
    "lng": 120.415545,
    "sid": "MQA0ADYAMAAwADAAMAAwADUAMgA=",
    "name": "(公立)嘉義市西區育人國民小學附設幼兒園",
    "type": "spub0"
  },
  {
    "newsch": 1,
    "lat": 23.475737,
    "lng": 120.455482,
    "sid": "MQA0ADYAMAAwADAAMAAwADUAMwA=",
    "name": "(公立)嘉義市東區民族國民小學附設幼兒園",
    "type": "spub0"
  },
  {
    "newsch": 1,
    "lat": 23.491935,
    "lng": 120.465977,
    "sid": "MQA0ADYAMAAwADAAMAAwADUANAA=",
    "name": "(準公共)嘉義市私立慈幼幼兒園",
    "type": "spub3"
  },
  {
    "newsch": 1,
    "lat": 23.480587,
    "lng": 120.460879,
    "sid": "MQA0ADYAMAAwADAAMAAwADUANQA=",
    "name": "(公立)嘉義市立復國幼兒園",
    "type": "spub0"
  },
  {
    "newsch": 1,
    "lat": 23.493017,
    "lng": 120.443536,
    "sid": "MQA0ADYAMAAwADAAMAAwADUANgA=",
    "name": "(準公共)嘉義市私立忠樺幼兒園",
    "type": "spub3"
  },
  {
    "newsch": 1,
    "lat": 23.475259,
    "lng": 120.471241,
    "sid": "MQA0ADYAMAAwADAAMAAwADUANwA=",
    "name": "(公立)嘉義市東區蘭潭國民小學附設幼兒園",
    "type": "spub0"
  },
  {
    "newsch": 1,
    "lat": 23.484003,
    "lng": 120.452878,
    "sid": "MQA0ADYAMAAwADAAMAAwADUAOAA=",
    "name": "(準公共)嘉義市私立育志幼兒園",
    "type": "spub3"
  },
  {
    "newsch": 1,
    "lat": 23.483931,
    "lng": 120.439147,
    "sid": "MQA0ADYAMAAwADAAMAAwADYAMAA=",
    "name": "(準公共)嘉義市私立幼華幼兒園",
    "type": "spub3"
  },
  {
    "newsch": 1,
    "lat": 23.47764,
    "lng": 120.449722,
    "sid": "MQA0ADYAMAAwADAAMAAwADYAMQA=",
    "name": "(準公共)財團法人中華基督教嘉義浸信會附設嘉義市私立慈光幼兒園",
    "type": "spub3"
  },
  {
    "newsch": 1,
    "lat": 23.497229,
    "lng": 120.449738,
    "sid": "MQA0ADYAMAAwADAAMAAwADYAMgA=",
    "name": "(準公共)戴德森醫療財團法人職工福利委員會附設嘉義市私立嘉基幼兒園",
    "type": "spub3"
  },
  {
    "newsch": 1,
    "lat": 23.466226,
    "lng": 120.442412,
    "sid": "MQA0ADYAMAAwADAAMAAwADYAMwA=",
    "name": "(私立)嘉義市私立大能力幼兒園",
    "type": "spub1"
  },
  {
    "newsch": 1,
    "lat": 23.484726,
    "lng": 120.43584,
    "sid": "MQA0ADYAMAAwADAAMAAwADYANAA=",
    "name": "(私立)嘉義市私立教之道幼兒園",
    "type": "spub1"
  },
  {
    "newsch": 1,
    "lat": 23.483834,
    "lng": 120.42675,
    "sid": "MQA0ADYAMAAwADAAMAAwADYANwA=",
    "name": "(準公共)嘉義市私立精英幼兒園",
    "type": "spub3"
  },
  {
    "newsch": 1,
    "lat": 23.49119,
    "lng": 120.451322,
    "sid": "MQA0ADYAMAAwADAAMAAwADYAOAA=",
    "name": "(私立)嘉義市私立小魚幼兒園",
    "type": "spub1"
  },
  {
    "newsch": 1,
    "lat": 23.48156,
    "lng": 120.457362,
    "sid": "MQA0ADYAMAAwADAAMAAwADcAMgA=",
    "name": "(準公共)嘉義市私立中正幼兒園",
    "type": "spub3"
  },
  {
    "newsch": 1,
    "lat": 23.466733,
    "lng": 120.430408,
    "sid": "MQA0ADYAMAAwADAAMAAwADcAMwA=",
    "name": "(私立)嘉義市私立百合幼兒園",
    "type": "spub1"
  },
  {
    "newsch": 1,
    "lat": 23.491694,
    "lng": 120.434456,
    "sid": "MQA0ADYAMAAwADAAMAAwADcANAA=",
    "name": "(準公共)嘉義市私立小叮噹幼兒園",
    "type": "spub3"
  },
  {
    "newsch": 1,
    "lat": 23.47498,
    "lng": 120.451862,
    "sid": "MQA0ADYAMAAwADAAMAAwADcANQA=",
    "name": "(私立)財團法人台灣聖公會附設嘉義市私立聖彼得幼兒園",
    "type": "spub1"
  },
  {
    "newsch": 1,
    "lat": 23.49155,
    "lng": 120.459532,
    "sid": "MQA0ADYAMAAwADAAMAAwADcANgA=",
    "name": "(準公共)嘉義市私立中國娃娃幼兒園",
    "type": "spub3"
  },
  {
    "newsch": 1,
    "lat": 23.460407,
    "lng": 120.458044,
    "sid": "MQA0ADYAMAAwADAAMAAwADcAOAA=",
    "name": "(準公共)嘉義市私立天欣幼兒園",
    "type": "spub3"
  },
  {
    "newsch": 1,
    "lat": 23.46996,
    "lng": 120.422792,
    "sid": "MQA0ADYAMAAwADAAMAAwADcAOQA=",
    "name": "(準公共)嘉義市私立伯士鹿幼兒園",
    "type": "spub3"
  },
  {
    "newsch": 1,
    "lat": 23.475371,
    "lng": 120.461402,
    "sid": "MQA0ADYAMAAwADAAMAAwADgAMAA=",
    "name": "(私立)嘉義市私立優肯幼兒園",
    "type": "spub1"
  },
  {
    "newsch": 1,
    "lat": 23.486552,
    "lng": 120.430861,
    "sid": "MQA0ADYAMAAwADAAMAAwADgAMgA=",
    "name": "(準公共)嘉義市私立美的幼兒園",
    "type": "spub3"
  },
  {
    "newsch": 1,
    "lat": 23.484296,
    "lng": 120.432643,
    "sid": "MQA0ADYAMAAwADAAMAAwADgAMwA=",
    "name": "(非營利)嘉義市小橘子非營利幼兒園（委託財團法人伊甸社會福利基金會辦理）",
    "type": "spub2"
  },
  {
    "newsch": 1,
    "lat": 23.473381,
    "lng": 120.453211,
    "sid": "MQA0ADYAMAAwADAAMAAwADgANQA=",
    "name": "(非營利)嘉義市銀河非營利幼兒園(委託社團法人東台灣幼兒教保專業促進協會辦理)",
    "type": "spub2"
  },
  {
    "newsch": 1,
    "lat": 23.490926,
    "lng": 120.453851,
    "sid": "MQA0ADYAMAAwADAAMAAwADgANgA=",
    "name": "(非營利)嘉義市橡木子非營利幼兒園(委託財團法人福智文教基金會辦理)",
    "type": "spub2"
  },
  {
    "newsch": 1,
    "lat": 23.478834,
    "lng": 120.476375,
    "sid": "MQA0ADYAMAAwADAAMAAwADgANwA=",
    "name": "(私立)嘉義市私立華特幼兒園",
    "type": "spub1"
  },
  {
    "newsch": 1,
    "lat": 23.493428,
    "lng": 120.45473,
    "sid": "MQA0ADYAMAAwADAAMAAwADgAOAA=",
    "name": "(公立)嘉義市東區嘉北國民小學附設幼兒園",
    "type": "spub0"
  },
  {
    "newsch": 1,
    "lat": 23.480293,
    "lng": 120.4211,
    "sid": "MQA0ADYAMAAwADAAMAAwADgAOQA=",
    "name": "(公立)國立嘉義特殊教育學校幼兒部",
    "type": "spub0"
  },
  {
    "newsch": 1,
    "lat": 23.474969,
    "lng": 120.443018,
    "sid": "MQA0ADYAMAAwADAAMAAwADkAMAA=",
    "name": "(私立)台電公司嘉義區營業處職場互助教保服務中心(委託社團法人中華育英社會教育關懷協會辦理)",
    "type": "spub1"
  },
  {
    "newsch": 1,
    "lat": 23.482361,
    "lng": 120.454174,
    "sid": "MQA0ADYAMAAwADAAMAAwADkAMQA=",
    "name": "(私立)國防部全動署後備指揮部安樂營區職場互助教保服務中心(委託台灣幸福嬰幼兒全方位發展協會辦理)",
    "type": "spub1"
  },
  {
    "newsch": 1,
    "lat": 23.48525,
    "lng": 120.459365,
    "sid": "MQA0ADYAMAAwADAAMAAwADkAMgA=",
    "name": "(私立)法務部嘉義維新職場互助教保服務中心(委託社團法人中華宏觀專業幼童教保福利學會辦理)",
    "type": "spub1"
  },
  {
    "newsch": 1,
    "lat": 23.477947,
    "lng": 120.450068,
    "sid": "MQA0ADYAMAAwADAAMAAwADkAMwA=",
    "name": "(私立)中華郵政公司嘉義文化路郵局職場互助教保服務中心(委託社團法人東台灣幼兒教保專業促進協會辦理)",
    "type": "spub1"
  },
  {
    "newsch": 1,
    "lat": 23.458722,
    "lng": 120.453277,
    "sid": "MQA0ADYAMAAwADAAMAAwADkANAA=",
    "name": "(私立)嘉義市私立步芮幼兒園",
    "type": "spub1"
  },
  {
    "newsch": 1,
    "lat": 23.465987,
    "lng": 120.453704,
    "sid": "MQA0ADYAMAAwADAAMAAwADkANQA=",
    "name": "(非營利)嘉義市中油員工子女非營利幼兒園（財團法人台灣中油股份有限公司職工福利委員會申請辦理）",
    "type": "spub2"
  },
  {
    "newsch": 1,
    "lat": 23.47960638,
    "lng": 120.43164866,
    "sid": "MQA0ADYAMAAwADAAMAAwADkANgA=",
    "name": "(私立)嘉義市政府警察局職場互助教保服務中心(委託社團法人中華宏觀專業幼童教保福利學會辦理)",
    "type": "spub1"
  },
  {
    "newsch": 1,
    "lat": 23.472139,
    "lng": 120.455854,
    "sid": "MQA0ADYAMAAwADAAMAAwADkANwA=",
    "name": "(準公共)嘉義市私立哈波特幼兒園",
    "type": "spub3"
  },
  {
    "newsch": 1,
    "lat": 23.452316,
    "lng": 120.444841,
    "sid": "MQA0ADYAMAAwADAAMAAwADkAOAA=",
    "name": "(私立)嘉義市私立朵恩幼兒園",
    "type": "spub1"
  }
]