[
  {
    "newsch": 1,
    "lat": 23.4701923,
    "lng": 120.1704766,
    "sid": "MQA1ADYAMQA0ADAAMAAwADAAMQA=",
    "name": "(公立)嘉義縣東石鄉立東石幼兒園",
    "type": "spub0"
  },
  {
    "newsch": 1,
    "lat": 23.471302,
    "lng": 120.173899,
    "sid": "MQA1ADYAMQA0ADAAMAAwADAAMgA=",
    "name": "(公立)嘉義縣東石鄉三江國民小學附設幼兒園",
    "type": "spub0"
  },
  {
    "newsch": 1,
    "lat": 23.460482,
    "lng": 120.153675,
    "sid": "MQA1ADYAMQA0ADAAMAAwADAAMwA=",
    "name": "(公立)嘉義縣東石鄉東石國民小學附設幼兒園",
    "type": "spub0"
  },
  {
    "newsch": 1,
    "lat": 23.419453,
    "lng": 120.183134,
    "sid": "MQA1ADYAMQA0ADAAMAAwADAANAA=",
    "name": "(公立)嘉義縣東石鄉港墘國民小學附設幼兒園",
    "type": "spub0"
  },
  {
    "newsch": 1,
    "lat": 23.471105,
    "lng": 120.145864,
    "sid": "MQA1ADYAMQA0ADAAMAAwADAANQA=",
    "name": "(公立)嘉義縣東石鄉塭港國民小學附設幼兒園",
    "type": "spub0"
  },
  {
    "newsch": 1,
    "lat": 23.431269,
    "lng": 120.15695,
    "sid": "MQA1ADYAMQA0ADAAMAAwADAANgA=",
    "name": "(公立)嘉義縣東石鄉網寮國民小學附設幼兒園",
    "type": "spub0"
  },
  {
    "newsch": 1,
    "lat": 23.436085,
    "lng": 120.183284,
    "sid": "MQA1ADYAMQA0ADAAMAAwADAANwA=",
    "name": "(公立)嘉義縣東石鄉龍崗國民小學附設幼兒園",
    "type": "spub0"
  },
  {
    "newsch": 1,
    "lat": 23.484372,
    "lng": 120.177147,
    "sid": "MQA1ADYAMQA0ADAAMAAwADAAOAA=",
    "name": "(公立)嘉義縣東石鄉龍港國民小學附設幼兒園",
    "type": "spub0"
  },
  {
    "newsch": 1,
    "lat": 23.492475,
    "lng": 120.18694,
    "sid": "MQA1ADYAMQA0ADAAMAAwADAAOQA=",
    "name": "(公立)嘉義縣東石鄉下楫國民小學附設幼兒園",
    "type": "spub0"
  }
]