[
  {
    "newsch": 1,
    "lat": 23.453449,
    "lng": 120.144167,
    "sid": "MQA1ADYAMQA0ADAAMAAwADAAMQA=",
    "name": "(公立)嘉義縣東石鄉立東石幼兒園",
    "type": "spub0"
  },
  {
    "newsch": 1,
    "lat": 23.471449,
    "lng": 120.174478,
    "sid": "MQA1ADYAMQA0ADAAMAAwADAAMgA=",
    "name": "(公立)嘉義縣東石鄉三江國民小學附設幼兒園",
    "type": "spub0"
  },
  {
    "newsch": 1,
    "lat": 23.460943,
    "lng": 120.154554,
    "sid": "MQA1ADYAMQA0ADAAMAAwADAAMwA=",
    "name": "(公立)嘉義縣東石鄉東石國民小學附設幼兒園",
    "type": "spub0"
  },
  {
    "newsch": 1,
    "lat": 23.464114,
    "lng": 120.213979,
    "sid": "MQA1ADYAMQA0ADAAMAAwADAANAA=",
    "name": "(公立)嘉義縣東石鄉港墘國民小學附設幼兒園",
    "type": "spub0"
  },
  {
    "newsch": 1,
    "lat": 23.471815,
    "lng": 120.145952,
    "sid": "MQA1ADYAMQA0ADAAMAAwADAANQA=",
    "name": "(公立)嘉義縣東石鄉塭港國民小學附設幼兒園",
    "type": "spub0"
  },
  {
    "newsch": 1,
    "lat": 23.431313,
    "lng": 120.155857,
    "sid": "MQA1ADYAMQA0ADAAMAAwADAANgA=",
    "name": "(公立)嘉義縣東石鄉網寮國民小學附設幼兒園",
    "type": "spub0"
  },
  {
    "newsch": 1,
    "lat": 23.436298,
    "lng": 120.183658,
    "sid": "MQA1ADYAMQA0ADAAMAAwADAANwA=",
    "name": "(公立)嘉義縣東石鄉龍崗國民小學附設幼兒園",
    "type": "spub0"
  },
  {
    "newsch": 1,
    "lat": 23.484815,
    "lng": 120.176521,
    "sid": "MQA1ADYAMQA0ADAAMAAwADAAOAA=",
    "name": "(公立)嘉義縣東石鄉龍港國民小學附設幼兒園",
    "type": "spub0"
  },
  {
    "newsch": 1,
    "lat": 23.492533,
    "lng": 120.186984,
    "sid": "MQA1ADYAMQA0ADAAMAAwADAAOQA=",
    "name": "(公立)嘉義縣東石鄉下楫國民小學附設幼兒園",
    "type": "spub0"
  }
]