[
  {
    "newsch": 1,
    "lat": 23.336828,
    "lng": 120.242462,
    "sid": "MQA1ADYAMgA0ADAAMAAwADAAMQA=",
    "name": "(準公共)財團法人天主教會嘉義教區附設嘉義縣私立星海幼兒園",
    "type": "spub3"
  },
  {
    "newsch": 1,
    "lat": 23.379579,
    "lng": 120.247046,
    "sid": "MQA1ADYAMgA0ADAAMAAwADAAMgA=",
    "name": "(公立)嘉義縣義竹鄉光榮國民小學附設幼兒園",
    "type": "spub0"
  },
  {
    "newsch": 1,
    "lat": 23.306835,
    "lng": 120.181627,
    "sid": "MQA1ADYAMgA0ADAAMAAwADAAMwA=",
    "name": "(公立)嘉義縣義竹鄉和順國民小學附設幼兒園",
    "type": "spub0"
  },
  {
    "newsch": 1,
    "lat": 23.340861,
    "lng": 120.19315,
    "sid": "MQA1ADYAMgA0ADAAMAAwADAANAA=",
    "name": "(公立)嘉義縣義竹鄉南興國民小學附設幼兒園",
    "type": "spub0"
  },
  {
    "newsch": 1,
    "lat": 23.357206,
    "lng": 120.2199,
    "sid": "MQA1ADYAMgA0ADAAMAAwADAANAAtADAAMQA=",
    "name": "(公立)嘉義縣義竹鄉南興國民小學附設幼兒園東華分班",
    "type": "spub0"
  },
  {
    "newsch": 1,
    "lat": 23.335678,
    "lng": 120.245556,
    "sid": "MQA1ADYAMgA0ADAAMAAwADAANQA=",
    "name": "(公立)嘉義縣義竹鄉義竹國民小學附設幼兒園",
    "type": "spub0"
  },
  {
    "newsch": 1,
    "lat": 23.306505,
    "lng": 120.208216,
    "sid": "MQA1ADYAMgA0ADAAMAAwADAANgA=",
    "name": "(公立)嘉義縣義竹鄉過路國民小學附設幼兒園",
    "type": "spub0"
  },
  {
    "newsch": 1,
    "lat": 23.340319,
    "lng": 120.242534,
    "sid": "MQA1ADYAMgA0ADAAMAAwADAANwA=",
    "name": "(非營利)嘉義縣義竹鄉農會非營利幼兒園(嘉義縣義竹鄉農會申請辦理)",
    "type": "spub2"
  }
]