[
  {
    "newsch": 1,
    "lat": 23.336929,
    "lng": 120.242534,
    "sid": "MQA1ADYAMgA0ADAAMAAwADAAMQA=",
    "name": "(準公共)財團法人天主教會嘉義教區附設嘉義縣私立星海幼兒園",
    "type": "spub3"
  },
  {
    "newsch": 1,
    "lat": 23.379344,
    "lng": 120.246697,
    "sid": "MQA1ADYAMgA0ADAAMAAwADAAMgA=",
    "name": "(公立)嘉義縣義竹鄉光榮國民小學附設幼兒園",
    "type": "spub0"
  },
  {
    "newsch": 1,
    "lat": 23.30683,
    "lng": 120.182195,
    "sid": "MQA1ADYAMgA0ADAAMAAwADAAMwA=",
    "name": "(公立)嘉義縣義竹鄉和順國民小學附設幼兒園",
    "type": "spub0"
  },
  {
    "newsch": 1,
    "lat": 23.340515,
    "lng": 120.193345,
    "sid": "MQA1ADYAMgA0ADAAMAAwADAANAA=",
    "name": "(公立)嘉義縣義竹鄉南興國民小學附設幼兒園",
    "type": "spub0"
  },
  {
    "newsch": 1,
    "lat": 23.3571049,
    "lng": 120.220653,
    "sid": "MQA1ADYAMgA0ADAAMAAwADAANAAtADAAMQA=",
    "name": "(公立)嘉義縣義竹鄉南興國民小學附設幼兒園東華分班",
    "type": "spub0"
  },
  {
    "newsch": 1,
    "lat": 23.335547,
    "lng": 120.245626,
    "sid": "MQA1ADYAMgA0ADAAMAAwADAANQA=",
    "name": "(公立)嘉義縣義竹鄉義竹國民小學附設幼兒園",
    "type": "spub0"
  },
  {
    "newsch": 1,
    "lat": 23.306684,
    "lng": 120.208456,
    "sid": "MQA1ADYAMgA0ADAAMAAwADAANgA=",
    "name": "(公立)嘉義縣義竹鄉過路國民小學附設幼兒園",
    "type": "spub0"
  },
  {
    "newsch": 1,
    "lat": 23.340315,
    "lng": 120.242553,
    "sid": "MQA1ADYAMgA0ADAAMAAwADAANwA=",
    "name": "(非營利)嘉義縣義竹鄉農會非營利幼兒園(嘉義縣義竹鄉農會申請辦理)",
    "type": "spub2"
  }
]