[
  {
    "newsch": 1,
    "lat": 23.380466,
    "lng": 120.152833,
    "sid": "MQA1ADYAMgA1ADAAMAAwADAAMgA=",
    "name": "(準公共)嘉義縣私立芝麻幼兒園",
    "type": "spub3"
  },
  {
    "newsch": 1,
    "lat": 23.382108,
    "lng": 120.171257,
    "sid": "MQA1ADYAMgA1ADAAMAAwADAANAA=",
    "name": "(公立)嘉義縣布袋鎮布袋國民小學附設幼兒園",
    "type": "spub0"
  },
  {
    "newsch": 1,
    "lat": 23.37893,
    "lng": 120.152347,
    "sid": "MQA1ADYAMgA1ADAAMAAwADAANQA=",
    "name": "(公立)嘉義縣布袋鎮布新國民小學附設幼兒園",
    "type": "spub0"
  },
  {
    "newsch": 1,
    "lat": 23.371416,
    "lng": 120.181672,
    "sid": "MQA1ADYAMgA1ADAAMAAwADAANgA=",
    "name": "(公立)嘉義縣布袋鎮永安國民小學附設幼兒園",
    "type": "spub0"
  },
  {
    "newsch": 1,
    "lat": 23.336812,
    "lng": 120.137465,
    "sid": "MQA1ADYAMgA1ADAAMAAwADAANwA=",
    "name": "(公立)嘉義縣布袋鎮好美國民小學附設幼兒園",
    "type": "spub0"
  },
  {
    "newsch": 1,
    "lat": 23.382529,
    "lng": 120.1932,
    "sid": "MQA1ADYAMgA1ADAAMAAwADAAOAA=",
    "name": "(公立)嘉義縣布袋鎮景山國民小學附設幼兒園",
    "type": "spub0"
  },
  {
    "newsch": 1,
    "lat": 23.419869,
    "lng": 120.214215,
    "sid": "MQA1ADYAMgA1ADAAMAAwADAAOQA=",
    "name": "(公立)嘉義縣布袋鎮貴林國民小學附設幼兒園",
    "type": "spub0"
  },
  {
    "newsch": 1,
    "lat": 23.342729,
    "lng": 120.174374,
    "sid": "MQA1ADYAMgA1ADAAMAAwADEAMAA=",
    "name": "(公立)嘉義縣布袋鎮新岑國民小學附設幼兒園",
    "type": "spub0"
  },
  {
    "newsch": 1,
    "lat": 23.329666,
    "lng": 120.160112,
    "sid": "MQA1ADYAMgA1ADAAMAAwADEAMQA=",
    "name": "(公立)嘉義縣布袋鎮新塭國民小學附設幼兒園",
    "type": "spub0"
  },
  {
    "newsch": 1,
    "lat": 23.419436,
    "lng": 120.183147,
    "sid": "MQA1ADYAMgA1ADAAMAAwADEAMgA=",
    "name": "(公立)嘉義縣布袋鎮過溝國民小學附設幼兒園",
    "type": "spub0"
  },
  {
    "newsch": 1,
    "lat": 23.381948,
    "lng": 120.190846,
    "sid": "MQA1ADYAMgA1ADAAMAAwADEAMwA=",
    "name": "(公立)嘉義縣布袋鎮立布袋幼兒園",
    "type": "spub0"
  }
]