[
  {
    "newsch": 1,
    "lat": 23.380255,
    "lng": 120.150697,
    "sid": "MQA1ADYAMgA1ADAAMAAwADAAMgA=",
    "name": "(準公共)嘉義縣私立芝麻幼兒園",
    "type": "spub3"
  },
  {
    "newsch": 1,
    "lat": 23.382013,
    "lng": 120.171607,
    "sid": "MQA1ADYAMgA1ADAAMAAwADAANAA=",
    "name": "(公立)嘉義縣布袋鎮布袋國民小學附設幼兒園",
    "type": "spub0"
  },
  {
    "newsch": 1,
    "lat": 23.378579,
    "lng": 120.15215,
    "sid": "MQA1ADYAMgA1ADAAMAAwADAANQA=",
    "name": "(公立)嘉義縣布袋鎮布新國民小學附設幼兒園",
    "type": "spub0"
  },
  {
    "newsch": 1,
    "lat": 23.371499,
    "lng": 120.181547,
    "sid": "MQA1ADYAMgA1ADAAMAAwADAANgA=",
    "name": "(公立)嘉義縣布袋鎮永安國民小學附設幼兒園",
    "type": "spub0"
  },
  {
    "newsch": 1,
    "lat": 23.337164,
    "lng": 120.137981,
    "sid": "MQA1ADYAMgA1ADAAMAAwADAANwA=",
    "name": "(公立)嘉義縣布袋鎮好美國民小學附設幼兒園",
    "type": "spub0"
  },
  {
    "newsch": 1,
    "lat": 23.382733,
    "lng": 120.193207,
    "sid": "MQA1ADYAMgA1ADAAMAAwADAAOAA=",
    "name": "(公立)嘉義縣布袋鎮景山國民小學附設幼兒園",
    "type": "spub0"
  },
  {
    "newsch": 1,
    "lat": 23.419769,
    "lng": 120.214346,
    "sid": "MQA1ADYAMgA1ADAAMAAwADAAOQA=",
    "name": "(公立)嘉義縣布袋鎮貴林國民小學附設幼兒園",
    "type": "spub0"
  },
  {
    "newsch": 1,
    "lat": 23.343193,
    "lng": 120.174375,
    "sid": "MQA1ADYAMgA1ADAAMAAwADEAMAA=",
    "name": "(公立)嘉義縣布袋鎮新岑國民小學附設幼兒園",
    "type": "spub0"
  },
  {
    "newsch": 1,
    "lat": 23.330442,
    "lng": 120.160589,
    "sid": "MQA1ADYAMgA1ADAAMAAwADEAMQA=",
    "name": "(公立)嘉義縣布袋鎮新塭國民小學附設幼兒園",
    "type": "spub0"
  },
  {
    "newsch": 1,
    "lat": 23.419784,
    "lng": 120.183295,
    "sid": "MQA1ADYAMgA1ADAAMAAwADEAMgA=",
    "name": "(公立)嘉義縣布袋鎮過溝國民小學附設幼兒園",
    "type": "spub0"
  },
  {
    "newsch": 1,
    "lat": 23.382026,
    "lng": 120.190913,
    "sid": "MQA1ADYAMgA1ADAAMAAwADEAMwA=",
    "name": "(公立)嘉義縣布袋鎮立布袋幼兒園",
    "type": "spub0"
  }
]