[
  {
    "newsch": 1,
    "lat": 23.59505,
    "lng": 120.596636,
    "sid": "MQAzADYANAA2ADAAMAAwADAANAA=",
    "name": "(公立)雲林縣古坑鄉華山國民小學附設幼兒園",
    "type": "spub0"
  },
  {
    "newsch": 1,
    "lat": 23.636647,
    "lng": 120.558093,
    "sid": "MQAzADYANAA2ADAAMAAwADAANgA=",
    "name": "(公立)雲林縣古坑鄉立幼兒園",
    "type": "spub0"
  },
  {
    "newsch": 1,
    "lat": 23.6037863,
    "lng": 120.631657,
    "sid": "MQAzADYANAA2ADAAMAAwADAANgAtADAAMwA=",
    "name": "(公立)雲林縣古坑鄉立幼兒園樟湖分班",
    "type": "spub0"
  },
  {
    "newsch": 1,
    "lat": 23.58632,
    "lng": 120.694434,
    "sid": "MQAzADYANAA2ADAAMAAwADAANwA=",
    "name": "(公立)雲林縣古坑鄉草嶺生態地質國民小學附設幼兒園",
    "type": "spub0"
  },
  {
    "newsch": 1,
    "lat": 23.686086,
    "lng": 120.603867,
    "sid": "MQAzADYANAA2ADAAMAAwADAAOQA=",
    "name": "(公立)雲林縣古坑鄉棋山國民小學附設幼兒園",
    "type": "spub0"
  },
  {
    "newsch": 1,
    "lat": 23.6128711,
    "lng": 120.6426794,
    "sid": "MQAzADYANAA2ADAAMAAwADEAMAA=",
    "name": "(公立)雲林縣山峰華德福教育實驗國民小學附設幼兒園",
    "type": "spub0"
  },
  {
    "newsch": 1,
    "lat": 23.6347421,
    "lng": 120.5219513,
    "sid": "MQAzADYANAA2ADAAMAAwADEAMQA=",
    "name": "(準公共)福智學校財團法人雲林縣福智國民小學附設私立福智幼兒園",
    "type": "spub3"
  }
]