[
  {
    "newsch": 1,
    "lat": 23.003651,
    "lng": 120.270021,
    "sid": "MQA2ADcAMQAwADAAMAAwADAAMQA=",
    "name": "(準公共)臺南市私立輔仁幼兒園",
    "type": "spub3"
  },
  {
    "newsch": 1,
    "lat": 23.010006,
    "lng": 120.259441,
    "sid": "MQA2ADcAMQAwADAAMAAwADAAMgA=",
    "name": "(準公共)臺南市私立永康文心幼兒園",
    "type": "spub3"
  },
  {
    "newsch": 1,
    "lat": 23.00812,
    "lng": 120.236975,
    "sid": "MQA2ADcAMQAwADAAMAAwADAAMwA=",
    "name": "(準公共)臺南市私立新生代幼兒園",
    "type": "spub3"
  },
  {
    "newsch": 1,
    "lat": 22.997461,
    "lng": 120.254557,
    "sid": "MQA2ADcAMQAwADAAMAAwADAANQA=",
    "name": "(私立)私立崑山科技大學附設臺南市幼兒園",
    "type": "spub1"
  },
  {
    "newsch": 1,
    "lat": 23.018856,
    "lng": 120.227189,
    "sid": "MQA2ADcAMQAwADAAMAAwADAANgA=",
    "name": "(私立)臺南市私立嬌生幼兒園",
    "type": "spub1"
  },
  {
    "newsch": 1,
    "lat": 23.020795,
    "lng": 120.262293,
    "sid": "MQA2ADcAMQAwADAAMAAwADAAOQA=",
    "name": "(私立)臺南市私立永康幼兒園",
    "type": "spub1"
  },
  {
    "newsch": 1,
    "lat": 23.014057,
    "lng": 120.249057,
    "sid": "MQA2ADcAMQAwADAAMAAwADEAMQA=",
    "name": "(準公共)臺南市私立至真幼兒園",
    "type": "spub3"
  },
  {
    "newsch": 1,
    "lat": 23.006995,
    "lng": 120.255979,
    "sid": "MQA2ADcAMQAwADAAMAAwADEAMgA=",
    "name": "(準公共)臺南市私立永強繪本藝術幼兒園",
    "type": "spub3"
  },
  {
    "newsch": 1,
    "lat": 23.028845,
    "lng": 120.257575,
    "sid": "MQA2ADcAMQAwADAAMAAwADEAMwA=",
    "name": "(準公共)臺南市私立幼華幼兒園",
    "type": "spub3"
  },
  {
    "newsch": 1,
    "lat": 23.041296,
    "lng": 120.234742,
    "sid": "MQA2ADcAMQAwADAAMAAwADEANAA=",
    "name": "(準公共)臺南市私立艾迪斯幼兒園",
    "type": "spub3"
  },
  {
    "newsch": 1,
    "lat": 23.00179,
    "lng": 120.253039,
    "sid": "MQA2ADcAMQAwADAAMAAwADEANQA=",
    "name": "(準公共)臺南市私立育智幼兒園",
    "type": "spub3"
  },
  {
    "newsch": 1,
    "lat": 23.004176,
    "lng": 120.246854,
    "sid": "MQA2ADcAMQAwADAAMAAwADEANgA=",
    "name": "(私立)臺南市私立永康芝蔴街幼兒園",
    "type": "spub1"
  },
  {
    "newsch": 1,
    "lat": 23.015615,
    "lng": 120.253931,
    "sid": "MQA2ADcAMQAwADAAMAAwADEANwA=",
    "name": "(私立)臺南市私立愛佳幼兒園",
    "type": "spub1"
  },
  {
    "newsch": 1,
    "lat": 23.018252,
    "lng": 120.272958,
    "sid": "MQA2ADcAMQAwADAAMAAwADEAOQA=",
    "name": "(準公共)臺南市私立吉得堡幼兒園",
    "type": "spub3"
  },
  {
    "newsch": 1,
    "lat": 23.016842,
    "lng": 120.260504,
    "sid": "MQA2ADcAMQAwADAAMAAwADIAMAA=",
    "name": "(私立)臺南市私立侑之苑幼兒園",
    "type": "spub1"
  },
  {
    "newsch": 1,
    "lat": 23.004888,
    "lng": 120.267736,
    "sid": "MQA2ADcAMQAwADAAMAAwADIAMQA=",
    "name": "(公立)臺南市永康區大灣國民小學附設幼兒園",
    "type": "spub0"
  },
  {
    "newsch": 1,
    "lat": 23.018811,
    "lng": 120.276101,
    "sid": "MQA2ADcAMQAwADAAMAAwADIAMgA=",
    "name": "(公立)臺南市永康區西勢國民小學附設幼兒園",
    "type": "spub0"
  },
  {
    "newsch": 1,
    "lat": 23.001203,
    "lng": 120.239025,
    "sid": "MQA2ADcAMQAwADAAMAAwADIAMwA=",
    "name": "(公立)臺南市永康區復興國民小學附設幼兒園",
    "type": "spub0"
  },
  {
    "newsch": 1,
    "lat": 23.020087,
    "lng": 120.226499,
    "sid": "MQA2ADcAMQAwADAAMAAwADIANAA=",
    "name": "(公立)臺南市永康區大橋國民小學附設幼兒園",
    "type": "spub0"
  },
  {
    "newsch": 1,
    "lat": 23.00643,
    "lng": 120.258738,
    "sid": "MQA2ADcAMQAwADAAMAAwADIANQA=",
    "name": "(公立)臺南市永康區崑山國民小學附設幼兒園",
    "type": "spub0"
  },
  {
    "newsch": 1,
    "lat": 23.009217,
    "lng": 120.237249,
    "sid": "MQA2ADcAMQAwADAAMAAwADIANgA=",
    "name": "(公立)臺南市永康區五王國民小學附設幼兒園",
    "type": "spub0"
  },
  {
    "newsch": 1,
    "lat": 23.041995,
    "lng": 120.237101,
    "sid": "MQA2ADcAMQAwADAAMAAwADIANwA=",
    "name": "(公立)臺南市永康區三村國民小學附設幼兒園",
    "type": "spub0"
  },
  {
    "newsch": 1,
    "lat": 23.033727,
    "lng": 120.268,
    "sid": "MQA2ADcAMQAwADAAMAAwADIAOAA=",
    "name": "(公立)臺南市永康區龍潭國民小學附設幼兒園",
    "type": "spub0"
  },
  {
    "newsch": 1,
    "lat": 23.01254,
    "lng": 120.235427,
    "sid": "MQA2ADcAMQAwADAAMAAwADIAOQA=",
    "name": "(準公共)臺南市私立萊恩幼兒園",
    "type": "spub3"
  },
  {
    "newsch": 1,
    "lat": 23.007548,
    "lng": 120.237894,
    "sid": "MQA2ADcAMQAwADAAMAAwADMAMAA=",
    "name": "(準公共)臺南市私立敦煌幼兒園",
    "type": "spub3"
  },
  {
    "newsch": 1,
    "lat": 23.029047,
    "lng": 120.257241,
    "sid": "MQA2ADcAMQAwADAAMAAwADMAMQA=",
    "name": "(私立)臺南市私立德安幼兒園",
    "type": "spub1"
  },
  {
    "newsch": 1,
    "lat": 23.011086,
    "lng": 120.262925,
    "sid": "MQA2ADcAMQAwADAAMAAwADMAMgA=",
    "name": "(準公共)臺南市私立童園幼兒園",
    "type": "spub3"
  },
  {
    "newsch": 1,
    "lat": 23.000666,
    "lng": 120.239765,
    "sid": "MQA2ADcAMQAwADAAMAAwADMAMwA=",
    "name": "(準公共)臺南市私立第一堡幼兒園",
    "type": "spub3"
  },
  {
    "newsch": 1,
    "lat": 23.031297,
    "lng": 120.250065,
    "sid": "MQA2ADcAMQAwADAAMAAwADMANAA=",
    "name": "(準公共)臺南市私立凱迪斯幼兒園",
    "type": "spub3"
  },
  {
    "newsch": 1,
    "lat": 23.026403,
    "lng": 120.256114,
    "sid": "MQA2ADcAMQAwADAAMAAwADMANQA=",
    "name": "(公立)臺南市永康區永康國民小學附設幼兒園",
    "type": "spub0"
  },
  {
    "newsch": 1,
    "lat": 23.010086,
    "lng": 120.237593,
    "sid": "MQA2ADcAMQAwADAAMAAwADMAOAA=",
    "name": "(準公共)臺南市私立星堡幼兒園",
    "type": "spub3"
  },
  {
    "newsch": 1,
    "lat": 23.008762,
    "lng": 120.234369,
    "sid": "MQA2ADcAMQAwADAAMAAwADMAOQA=",
    "name": "(準公共)臺南市私立中華幼兒園",
    "type": "spub3"
  },
  {
    "newsch": 1,
    "lat": 23.008781,
    "lng": 120.246508,
    "sid": "MQA2ADcAMQAwADAAMAAwADQAMQA=",
    "name": "(準公共)臺南市私立傑登幼兒園",
    "type": "spub3"
  },
  {
    "newsch": 1,
    "lat": 23.025477,
    "lng": 120.251405,
    "sid": "MQA2ADcAMQAwADAAMAAwADQAMgA=",
    "name": "(準公共)臺南市私立非凡幼兒園",
    "type": "spub3"
  },
  {
    "newsch": 1,
    "lat": 23.020968,
    "lng": 120.22477,
    "sid": "MQA2ADcAMQAwADAAMAAwADQAMwA=",
    "name": "(私立)南臺學校財團法人南臺科技大學附設臺南市私立南臺幼兒園",
    "type": "spub1"
  },
  {
    "newsch": 1,
    "lat": 23.007135,
    "lng": 120.24607,
    "sid": "MQA2ADcAMQAwADAAMAAwADQANAA=",
    "name": "(準公共)臺南市私立傑尼爾幼兒園",
    "type": "spub3"
  },
  {
    "newsch": 1,
    "lat": 23.000512,
    "lng": 120.263143,
    "sid": "MQA2ADcAMQAwADAAMAAwADQANQA=",
    "name": "(準公共)臺南市私立優學幼兒園",
    "type": "spub3"
  },
  {
    "newsch": 1,
    "lat": 23.013893,
    "lng": 120.230888,
    "sid": "MQA2ADcAMQAwADAAMAAwADQANgA=",
    "name": "(私立)臺南市私立天才幼兒園",
    "type": "spub1"
  },
  {
    "newsch": 1,
    "lat": 23.015195,
    "lng": 120.268733,
    "sid": "MQA2ADcAMQAwADAAMAAwADQAOAA=",
    "name": "(準公共)臺南市私立上恩幼兒園",
    "type": "spub3"
  },
  {
    "newsch": 1,
    "lat": 23.042478,
    "lng": 120.238325,
    "sid": "MQA2ADcAMQAwADAAMAAwADQAOQA=",
    "name": "(私立)臺南市私立史塔納幼兒園",
    "type": "spub1"
  },
  {
    "newsch": 1,
    "lat": 23.019162,
    "lng": 120.226398,
    "sid": "MQA2ADcAMQAwADAAMAAwADUAMAA=",
    "name": "(私立)臺南市私立白天鵝幼兒園",
    "type": "spub1"
  },
  {
    "newsch": 1,
    "lat": 23.016045,
    "lng": 120.247911,
    "sid": "MQA2ADcAMQAwADAAMAAwADUAMQA=",
    "name": "(準公共)臺南市私立愛森堡幼兒園",
    "type": "spub3"
  },
  {
    "newsch": 1,
    "lat": 23.005622,
    "lng": 120.258476,
    "sid": "MQA2ADcAMQAwADAAMAAwADUAMgA=",
    "name": "(準公共)臺南市私立愛幼幼兒園",
    "type": "spub3"
  },
  {
    "newsch": 1,
    "lat": 23.036069,
    "lng": 120.23904,
    "sid": "MQA2ADcAMQAwADAAMAAwADUAMwA=",
    "name": "(私立)私立台南家專學校財團法人台南應用科技大學附設臺南市漢家幼兒園",
    "type": "spub1"
  },
  {
    "newsch": 1,
    "lat": 23.01068,
    "lng": 120.270712,
    "sid": "MQA2ADcAMQAwADAAMAAwADUANAA=",
    "name": "(準公共)臺南市私立聖心幼兒園",
    "type": "spub3"
  },
  {
    "newsch": 1,
    "lat": 23.006604,
    "lng": 120.260032,
    "sid": "MQA2ADcAMQAwADAAMAAwADUANQA=",
    "name": "(準公共)臺南市私立幼幼世界幼兒園",
    "type": "spub3"
  },
  {
    "newsch": 1,
    "lat": 23.027919,
    "lng": 120.253927,
    "sid": "MQA2ADcAMQAwADAAMAAwADUANgA=",
    "name": "(準公共)臺南市私立智全幼兒園",
    "type": "spub3"
  },
  {
    "newsch": 1,
    "lat": 23.033976,
    "lng": 120.258217,
    "sid": "MQA2ADcAMQAwADAAMAAwADUANwA=",
    "name": "(準公共)臺南市私立英格堡幼兒園",
    "type": "spub3"
  },
  {
    "newsch": 1,
    "lat": 23.017313,
    "lng": 120.227125,
    "sid": "MQA2ADcAMQAwADAAMAAwADUAOAA=",
    "name": "(準公共)臺南市私立派樂特幼兒園",
    "type": "spub3"
  },
  {
    "newsch": 1,
    "lat": 23.015813,
    "lng": 120.22809,
    "sid": "MQA2ADcAMQAwADAAMAAwADYAMAA=",
    "name": "(私立)臺南市私立慈恩幼兒園",
    "type": "spub1"
  },
  {
    "newsch": 1,
    "lat": 23.003639,
    "lng": 120.230323,
    "sid": "MQA2ADcAMQAwADAAMAAwADYAMgA=",
    "name": "(公立)臺南市永康區勝利國民小學附設幼兒園",
    "type": "spub0"
  },
  {
    "newsch": 1,
    "lat": 23.017249,
    "lng": 120.235655,
    "sid": "MQA2ADcAMQAwADAAMAAwADYANAA=",
    "name": "(私立)臺南市私立郡豐幼兒園",
    "type": "spub1"
  },
  {
    "newsch": 1,
    "lat": 23.017742,
    "lng": 120.234787,
    "sid": "MQA2ADcAMQAwADAAMAAwADYANQA=",
    "name": "(私立)臺南市私立威爾森東橋幼兒園",
    "type": "spub1"
  },
  {
    "newsch": 1,
    "lat": 23.016711,
    "lng": 120.249271,
    "sid": "MQA2ADcAMQAwADAAMAAwADYANgA=",
    "name": "(公立)臺南市永康區永信國民小學附設幼兒園",
    "type": "spub0"
  },
  {
    "newsch": 1,
    "lat": 23.034147,
    "lng": 120.258057,
    "sid": "MQA2ADcAMQAwADAAMAAwADYANwA=",
    "name": "(準公共)臺南市私立英格爾幼兒園",
    "type": "spub3"
  },
  {
    "newsch": 1,
    "lat": 23.022879,
    "lng": 120.264022,
    "sid": "MQA2ADcAMQAwADAAMAAwADYAOAA=",
    "name": "(私立)臺南市私立巴洛可蒙特梭利幼兒園",
    "type": "spub1"
  },
  {
    "newsch": 1,
    "lat": 23.002713,
    "lng": 120.242362,
    "sid": "MQA2ADcAMQAwADAAMAAwADYAOQA=",
    "name": "(非營利)臺南市永仁非營利幼兒園(委託社團法人台南市基督教青年會辦理)",
    "type": "spub2"
  },
  {
    "newsch": 1,
    "lat": 23.01347,
    "lng": 120.257008,
    "sid": "MQA2ADcAMQAwADAAMAAwADcAMAA=",
    "name": "(準公共)臺南市私立資優生幼兒園",
    "type": "spub3"
  },
  {
    "newsch": 1,
    "lat": 23.013801,
    "lng": 120.259558,
    "sid": "MQA2ADcAMQAwADAAMAAwADcAMQA=",
    "name": "(準公共)臺南市私立卓越幼兒園",
    "type": "spub3"
  },
  {
    "newsch": 1,
    "lat": 23.019313,
    "lng": 120.235601,
    "sid": "MQA2ADcAMQAwADAAMAAwADcAMgA=",
    "name": "(準公共)臺南市私立青蘋果幼兒園",
    "type": "spub3"
  },
  {
    "newsch": 1,
    "lat": 22.998269,
    "lng": 120.252319,
    "sid": "MQA2ADcAMQAwADAAMAAwADcAMwA=",
    "name": "(私立)私立崑山科技大學附屬臺南市崑山哈佛幼兒園",
    "type": "spub1"
  },
  {
    "newsch": 1,
    "lat": 23.022628,
    "lng": 120.23633,
    "sid": "MQA2ADcAMQAwADAAMAAwADcANAA=",
    "name": "(私立)臺南市私立日光小河馬東橋幼兒園",
    "type": "spub1"
  }
]