[
  {
    "newsch": 1,
    "lat": 22.94733,
    "lng": 120.259438,
    "sid": "MQA2ADcAMQA3ADAAMAAwADAAMQA=",
    "name": "(公立)臺南市立仁德幼兒園",
    "type": "spub0"
  },
  {
    "newsch": 1,
    "lat": 22.917811,
    "lng": 120.214332,
    "sid": "MQA2ADcAMQA3ADAAMAAwADAAMgA=",
    "name": "(準公共)臺南市私立仁德聖兒幼兒園",
    "type": "spub3"
  },
  {
    "newsch": 1,
    "lat": 22.944895,
    "lng": 120.253779,
    "sid": "MQA2ADcAMQA3ADAAMAAwADAANAA=",
    "name": "(私立)臺南市私立愛迪堡幼兒園",
    "type": "spub1"
  },
  {
    "newsch": 1,
    "lat": 22.951105,
    "lng": 120.25802,
    "sid": "MQA2ADcAMQA3ADAAMAAwADAANQA=",
    "name": "(私立)臺南市私立維也納幼兒園",
    "type": "spub1"
  },
  {
    "newsch": 1,
    "lat": 22.965535,
    "lng": 120.253904,
    "sid": "MQA2ADcAMQA3ADAAMAAwADAANgA=",
    "name": "(準公共)臺南市私立仁義幼兒園",
    "type": "spub3"
  },
  {
    "newsch": 1,
    "lat": 22.971479,
    "lng": 120.260376,
    "sid": "MQA2ADcAMQA3ADAAMAAwADAANwA=",
    "name": "(準公共)臺南市私立洧昇幼兒園",
    "type": "spub3"
  },
  {
    "newsch": 1,
    "lat": 22.96177,
    "lng": 120.253241,
    "sid": "MQA2ADcAMQA3ADAAMAAwADAAOAA=",
    "name": "(私立)臺南市私立聖宜幼兒園",
    "type": "spub1"
  },
  {
    "newsch": 1,
    "lat": 22.961291,
    "lng": 120.245592,
    "sid": "MQA2ADcAMQA3ADAAMAAwADEAMAA=",
    "name": "(私立)私立中華醫事科技大學附設臺南市幼兒園",
    "type": "spub1"
  },
  {
    "newsch": 1,
    "lat": 22.989681,
    "lng": 120.260667,
    "sid": "MQA2ADcAMQA3ADAAMAAwADEAMQA=",
    "name": "(準公共)臺南市私立聖母幼兒園",
    "type": "spub3"
  },
  {
    "newsch": 1,
    "lat": 22.972019,
    "lng": 120.258241,
    "sid": "MQA2ADcAMQA3ADAAMAAwADEAMgA=",
    "name": "(準公共)臺南市私立大宗幼兒園",
    "type": "spub3"
  },
  {
    "newsch": 1,
    "lat": 22.960252,
    "lng": 120.221777,
    "sid": "MQA2ADcAMQA3ADAAMAAwADEAMwA=",
    "name": "(公立)臺南市仁德區仁和國民小學附設幼兒園",
    "type": "spub0"
  },
  {
    "newsch": 1,
    "lat": 22.918897,
    "lng": 120.216883,
    "sid": "MQA2ADcAMQA3ADAAMAAwADEANQA=",
    "name": "(公立)臺南市仁德區大甲國民小學附設幼兒園",
    "type": "spub0"
  },
  {
    "newsch": 1,
    "lat": 22.912901,
    "lng": 120.261184,
    "sid": "MQA2ADcAMQA3ADAAMAAwADEANgA=",
    "name": "(公立)臺南市仁德區依仁國民小學附設幼兒園",
    "type": "spub0"
  },
  {
    "newsch": 1,
    "lat": 22.969814,
    "lng": 120.259834,
    "sid": "MQA2ADcAMQA3ADAAMAAwADEANwA=",
    "name": "(私立)財團法人中華民國佛教慈濟慈善事業基金會附設臺南市私立台南大愛幼兒園",
    "type": "spub1"
  },
  {
    "newsch": 1,
    "lat": 22.952043,
    "lng": 120.24739,
    "sid": "MQA2ADcAMQA3ADAAMAAwADEAOAA=",
    "name": "(私立)臺南市私立小咪咪幼兒園",
    "type": "spub1"
  },
  {
    "newsch": 1,
    "lat": 22.989518,
    "lng": 120.261678,
    "sid": "MQA2ADcAMQA3ADAAMAAwADEAOQA=",
    "name": "(準公共)臺南市私立鴻仁幼兒園",
    "type": "spub3"
  },
  {
    "newsch": 1,
    "lat": 22.955301,
    "lng": 120.241315,
    "sid": "MQA2ADcAMQA3ADAAMAAwADIAMAA=",
    "name": "(準公共)臺南市私立熊寶寶幼兒園",
    "type": "spub3"
  },
  {
    "newsch": 1,
    "lat": 22.919516,
    "lng": 120.228472,
    "sid": "MQA2ADcAMQA3ADAAMAAwADIAMQA=",
    "name": "(私立)嘉藥學校財團法人嘉南藥理大學附設臺南市私立嘉藥幼兒園",
    "type": "spub1"
  },
  {
    "newsch": 1,
    "lat": 22.96905,
    "lng": 120.258779,
    "sid": "MQA2ADcAMQA3ADAAMAAwADIAMgA=",
    "name": "(準公共)臺南市私立明日之星幼兒園",
    "type": "spub3"
  },
  {
    "newsch": 1,
    "lat": 22.94903,
    "lng": 120.250872,
    "sid": "MQA2ADcAMQA3ADAAMAAwADIAMwA=",
    "name": "(公立)臺南市仁德區德南國民小學附設幼兒園",
    "type": "spub0"
  },
  {
    "newsch": 1,
    "lat": 22.922724,
    "lng": 120.235227,
    "sid": "MQA2ADcAMQA3ADAAMAAwADIANAA=",
    "name": "(公立)臺南市仁德區文賢國民小學附設幼兒園",
    "type": "spub0"
  },
  {
    "newsch": 1,
    "lat": 22.990599,
    "lng": 120.260237,
    "sid": "MQA2ADcAMQA3ADAAMAAwADIANQA=",
    "name": "(公立)臺南市仁德區長興國民小學附設幼兒園",
    "type": "spub0"
  },
  {
    "newsch": 1,
    "lat": 22.944294,
    "lng": 120.23057,
    "sid": "MQA2ADcAMQA3ADAAMAAwADIANgA=",
    "name": "(準公共)臺南市私立初日幼兒園",
    "type": "spub3"
  }
]