[
  {
    "newsch": 1,
    "lat": 22.959841,
    "lng": 120.324318,
    "sid": "MQA2ADcAMQA4ADAAMAAwADAAMQA=",
    "name": "(公立)臺南市立關廟幼兒園",
    "type": "spub0"
  },
  {
    "newsch": 1,
    "lat": 22.954981,
    "lng": 120.3313,
    "sid": "MQA2ADcAMQA4ADAAMAAwADAAMgA=",
    "name": "(私立)臺南市私立真善美幼兒園",
    "type": "spub1"
  },
  {
    "newsch": 1,
    "lat": 22.968433,
    "lng": 120.336828,
    "sid": "MQA2ADcAMQA4ADAAMAAwADAAMwA=",
    "name": "(準公共)臺南市私立正大幼兒園",
    "type": "spub3"
  },
  {
    "newsch": 1,
    "lat": 22.956938,
    "lng": 120.330903,
    "sid": "MQA2ADcAMQA4ADAAMAAwADAANAA=",
    "name": "(公立)臺南市關廟區關廟國民小學附設幼兒園",
    "type": "spub0"
  },
  {
    "newsch": 1,
    "lat": 22.95881,
    "lng": 120.33448,
    "sid": "MQA2ADcAMQA4ADAAMAAwADAANQA=",
    "name": "(公立)臺南市關廟區五甲國民小學附設幼兒園",
    "type": "spub0"
  },
  {
    "newsch": 1,
    "lat": 22.919032,
    "lng": 120.347777,
    "sid": "MQA2ADcAMQA4ADAAMAAwADAANgA=",
    "name": "(公立)臺南市關廟區文和實驗小學附設幼兒園",
    "type": "spub0"
  },
  {
    "newsch": 1,
    "lat": 22.939993,
    "lng": 120.333239,
    "sid": "MQA2ADcAMQA4ADAAMAAwADAANwA=",
    "name": "(公立)臺南市關廟區深坑國民小學附設幼兒園",
    "type": "spub0"
  },
  {
    "newsch": 1,
    "lat": 22.994286,
    "lng": 120.309334,
    "sid": "MQA2ADcAMQA4ADAAMAAwADAAOAA=",
    "name": "(公立)臺南市關廟區保東國民小學附設幼兒園",
    "type": "spub0"
  },
  {
    "newsch": 1,
    "lat": 22.904242,
    "lng": 120.352171,
    "sid": "MQA2ADcAMQA4ADAAMAAwADAAOQA=",
    "name": "(公立)臺南市關廟區崇和國民小學附設幼兒園",
    "type": "spub0"
  },
  {
    "newsch": 1,
    "lat": 22.956348,
    "lng": 120.336742,
    "sid": "MQA2ADcAMQA4ADAAMAAwADEAMQA=",
    "name": "(私立)臺南市私立松安幼兒園",
    "type": "spub1"
  },
  {
    "newsch": 1,
    "lat": 22.960241,
    "lng": 120.334411,
    "sid": "MQA2ADcAMQA4ADAAMAAwADEAMwA=",
    "name": "(私立)臺南市私立明德幼兒園",
    "type": "spub1"
  },
  {
    "newsch": 1,
    "lat": 22.956578,
    "lng": 120.336218,
    "sid": "MQA2ADcAMQA4ADAAMAAwADEANAA=",
    "name": "(準公共)臺南市私立安格堡幼兒園",
    "type": "spub3"
  }
]