[
  {
    "newsch": 1,
    "lat": 23.167313,
    "lng": 120.169689,
    "sid": "MQA2ADcAMgAyADAAMAAwADAAMQA=",
    "name": "(私立)臺南市私立勁寶兒唯馨幼兒園",
    "type": "spub1"
  },
  {
    "newsch": 1,
    "lat": 23.169496,
    "lng": 120.172637,
    "sid": "MQA2ADcAMgAyADAAMAAwADAAMgA=",
    "name": "(準公共)臺南市私立威爾森佳里幼兒園",
    "type": "spub3"
  },
  {
    "newsch": 1,
    "lat": 23.159934,
    "lng": 120.168592,
    "sid": "MQA2ADcAMgAyADAAMAAwADAAMwA=",
    "name": "(準公共)臺南市私立佳佳幼兒園",
    "type": "spub3"
  },
  {
    "newsch": 1,
    "lat": 23.166068,
    "lng": 120.168357,
    "sid": "MQA2ADcAMgAyADAAMAAwADAANAA=",
    "name": "(準公共)臺南市私立佳里崧安幼兒園",
    "type": "spub3"
  },
  {
    "newsch": 1,
    "lat": 23.189425,
    "lng": 120.192745,
    "sid": "MQA2ADcAMgAyADAAMAAwADAANQA=",
    "name": "(公立)臺南市佳里區佳興國民小學附設幼兒園",
    "type": "spub0"
  },
  {
    "newsch": 1,
    "lat": 23.174217,
    "lng": 120.202001,
    "sid": "MQA2ADcAMgAyADAAMAAwADAANgA=",
    "name": "(公立)臺南市佳里區子龍國民小學附設幼兒園",
    "type": "spub0"
  },
  {
    "newsch": 1,
    "lat": 23.125651,
    "lng": 120.165019,
    "sid": "MQA2ADcAMgAyADAAMAAwADAANwA=",
    "name": "(公立)臺南市佳里區塭內國民小學附設幼兒園",
    "type": "spub0"
  },
  {
    "newsch": 1,
    "lat": 23.178825,
    "lng": 120.152603,
    "sid": "MQA2ADcAMgAyADAAMAAwADAAOAA=",
    "name": "(公立)臺南市佳里區延平國民小學附設幼兒園",
    "type": "spub0"
  },
  {
    "newsch": 1,
    "lat": 23.164191,
    "lng": 120.172295,
    "sid": "MQA2ADcAMgAyADAAMAAwADAAOQA=",
    "name": "(公立)臺南市佳里區佳里國民小學附設幼兒園",
    "type": "spub0"
  },
  {
    "newsch": 1,
    "lat": 23.152889,
    "lng": 120.180114,
    "sid": "MQA2ADcAMgAyADAAMAAwADEAMAA=",
    "name": "(公立)臺南市佳里區仁愛國民小學附設幼兒園",
    "type": "spub0"
  },
  {
    "newsch": 1,
    "lat": 23.152979,
    "lng": 120.176565,
    "sid": "MQA2ADcAMgAyADAAMAAwADEAMQA=",
    "name": "(私立)臺南市私立維多利亞幼兒園",
    "type": "spub1"
  },
  {
    "newsch": 1,
    "lat": 23.167396,
    "lng": 120.169984,
    "sid": "MQA2ADcAMgAyADAAMAAwADEAMgA=",
    "name": "(準公共)臺南市私立立人幼兒園",
    "type": "spub3"
  },
  {
    "newsch": 1,
    "lat": 23.153739,
    "lng": 120.174503,
    "sid": "MQA2ADcAMgAyADAAMAAwADEAMwA=",
    "name": "(準公共)臺南市私立佳里劍橋幼兒園",
    "type": "spub3"
  },
  {
    "newsch": 1,
    "lat": 23.166404,
    "lng": 120.173536,
    "sid": "MQA2ADcAMgAyADAAMAAwADEANAA=",
    "name": "(私立)臺南市私立佳祥幼兒園",
    "type": "spub1"
  },
  {
    "newsch": 1,
    "lat": 23.161032,
    "lng": 120.175901,
    "sid": "MQA2ADcAMgAyADAAMAAwADEANQA=",
    "name": "(私立)臺南市私立善行幼兒園",
    "type": "spub1"
  },
  {
    "newsch": 1,
    "lat": 23.162113,
    "lng": 120.175623,
    "sid": "MQA2ADcAMgAyADAAMAAwADEANgA=",
    "name": "(準公共)臺南市私立聖三幼兒園",
    "type": "spub3"
  },
  {
    "newsch": 1,
    "lat": 23.157016,
    "lng": 120.163348,
    "sid": "MQA2ADcAMgAyADAAMAAwADEANwA=",
    "name": "(準公共)臺南市私立泑潛幼兒園",
    "type": "spub3"
  },
  {
    "newsch": 1,
    "lat": 23.144763,
    "lng": 120.157464,
    "sid": "MQA2ADcAMgAyADAAMAAwADEAOQA=",
    "name": "(公立)臺南市佳里區通興國民小學附設幼兒園",
    "type": "spub0"
  },
  {
    "newsch": 1,
    "lat": 23.160084,
    "lng": 120.182093,
    "sid": "MQA2ADcAMgAyADAAMAAwADIAMAA=",
    "name": "(公立)臺南市佳里區信義國民小學附設幼兒園",
    "type": "spub0"
  },
  {
    "newsch": 1,
    "lat": 23.157401,
    "lng": 120.171483,
    "sid": "MQA2ADcAMgAyADAAMAAwADIAMQA=",
    "name": "(非營利)臺南市伯利恆佳里非營利幼兒園(委託財團法人臺南市私立天主教伯利恆社會福利基金會辦理)",
    "type": "spub2"
  }
]