[
  {
    "newsch": 1,
    "lat": 23.167288,
    "lng": 120.169387,
    "sid": "MQA2ADcAMgAyADAAMAAwADAAMQA=",
    "name": "(私立)臺南市私立勁寶兒唯馨幼兒園",
    "type": "spub1"
  },
  {
    "newsch": 1,
    "lat": 23.160677,
    "lng": 120.1709,
    "sid": "MQA2ADcAMgAyADAAMAAwADAAMgA=",
    "name": "(私立)臺南市私立威爾森佳里幼兒園",
    "type": "spub1"
  },
  {
    "newsch": 1,
    "lat": 23.161734,
    "lng": 120.155902,
    "sid": "MQA2ADcAMgAyADAAMAAwADAAMwA=",
    "name": "(私立)臺南市私立佳佳幼兒園",
    "type": "spub1"
  },
  {
    "newsch": 1,
    "lat": 23.166203,
    "lng": 120.168041,
    "sid": "MQA2ADcAMgAyADAAMAAwADAANAA=",
    "name": "(私立)臺南市私立佳里崧安幼兒園",
    "type": "spub1"
  },
  {
    "newsch": 1,
    "lat": 23.189598,
    "lng": 120.191942,
    "sid": "MQA2ADcAMgAyADAAMAAwADAANQA=",
    "name": "(公立)臺南市佳里區佳興國民小學附設幼兒園",
    "type": "spub0"
  },
  {
    "newsch": 1,
    "lat": 23.1738759,
    "lng": 120.201639,
    "sid": "MQA2ADcAMgAyADAAMAAwADAANgA=",
    "name": "(公立)臺南市佳里區子龍國民小學附設幼兒園",
    "type": "spub0"
  },
  {
    "newsch": 1,
    "lat": 23.125361,
    "lng": 120.165152,
    "sid": "MQA2ADcAMgAyADAAMAAwADAANwA=",
    "name": "(公立)臺南市佳里區塭內國民小學附設幼兒園",
    "type": "spub0"
  },
  {
    "newsch": 1,
    "lat": 23.17867,
    "lng": 120.15305,
    "sid": "MQA2ADcAMgAyADAAMAAwADAAOAA=",
    "name": "(公立)臺南市佳里區延平國民小學附設幼兒園",
    "type": "spub0"
  },
  {
    "newsch": 1,
    "lat": 23.164259,
    "lng": 120.172665,
    "sid": "MQA2ADcAMgAyADAAMAAwADAAOQA=",
    "name": "(公立)臺南市佳里區佳里國民小學附設幼兒園",
    "type": "spub0"
  },
  {
    "newsch": 1,
    "lat": 23.153704,
    "lng": 120.178905,
    "sid": "MQA2ADcAMgAyADAAMAAwADEAMAA=",
    "name": "(公立)臺南市佳里區仁愛國民小學附設幼兒園",
    "type": "spub0"
  },
  {
    "newsch": 1,
    "lat": 23.153209,
    "lng": 120.176562,
    "sid": "MQA2ADcAMgAyADAAMAAwADEAMQA=",
    "name": "(私立)臺南市私立維多利亞幼兒園",
    "type": "spub1"
  },
  {
    "newsch": 1,
    "lat": 23.167273,
    "lng": 120.172289,
    "sid": "MQA2ADcAMgAyADAAMAAwADEAMgA=",
    "name": "(私立)臺南市私立立人幼兒園",
    "type": "spub1"
  },
  {
    "newsch": 1,
    "lat": 23.153802,
    "lng": 120.174382,
    "sid": "MQA2ADcAMgAyADAAMAAwADEAMwA=",
    "name": "(私立)臺南市私立佳里劍橋幼兒園",
    "type": "spub1"
  },
  {
    "newsch": 1,
    "lat": 23.166382,
    "lng": 120.173573,
    "sid": "MQA2ADcAMgAyADAAMAAwADEANAA=",
    "name": "(私立)臺南市私立佳祥幼兒園",
    "type": "spub1"
  },
  {
    "newsch": 1,
    "lat": 23.160615,
    "lng": 120.175623,
    "sid": "MQA2ADcAMgAyADAAMAAwADEANQA=",
    "name": "(私立)臺南市私立善行幼兒園",
    "type": "spub1"
  },
  {
    "newsch": 1,
    "lat": 23.162156,
    "lng": 120.175605,
    "sid": "MQA2ADcAMgAyADAAMAAwADEANgA=",
    "name": "(私立)臺南市私立聖三幼兒園",
    "type": "spub1"
  },
  {
    "newsch": 1,
    "lat": 23.1577344,
    "lng": 120.1650707,
    "sid": "MQA2ADcAMgAyADAAMAAwADEANwA=",
    "name": "(準公共)臺南市私立泑潛幼兒園",
    "type": "spub3"
  },
  {
    "newsch": 1,
    "lat": 23.1576079,
    "lng": 120.177891,
    "sid": "MQA2ADcAMgAyADAAMAAwADEAOAA=",
    "name": "(私立)臺南市私立正心幼兒園",
    "type": "spub1"
  },
  {
    "newsch": 1,
    "lat": 23.144247,
    "lng": 120.157642,
    "sid": "MQA2ADcAMgAyADAAMAAwADEAOQA=",
    "name": "(公立)臺南市佳里區通興國民小學附設幼兒園",
    "type": "spub0"
  },
  {
    "newsch": 1,
    "lat": 23.1598294,
    "lng": 120.1816255,
    "sid": "MQA2ADcAMgAyADAAMAAwADIAMAA=",
    "name": "(公立)臺南市佳里區信義國民小學附設幼兒園",
    "type": "spub0"
  },
  {
    "newsch": 1,
    "lat": 23.157522,
    "lng": 120.1712415,
    "sid": "MQA2ADcAMgAyADAAMAAwADIAMQA=",
    "name": "(非營利)臺南市伯利恆佳里非營利幼兒園(委託財團法人臺南市私立天主教伯利恆社會福利基金會辦理)",
    "type": "spub2"
  }
]