[
  {
    "newsch": 1,
    "lat": 23.21987,
    "lng": 120.117901,
    "sid": "MQA2ADcAMgA1ADAAMAAwADAAMQA=",
    "name": "(公立)臺南市立將軍幼兒園",
    "type": "spub0"
  },
  {
    "newsch": 1,
    "lat": 23.198118,
    "lng": 120.159259,
    "sid": "MQA2ADcAMgA1ADAAMAAwADAAMgA=",
    "name": "(公立)臺南市將軍區漚汪國民小學附設幼兒園",
    "type": "spub0"
  },
  {
    "newsch": 1,
    "lat": 23.188467,
    "lng": 120.089081,
    "sid": "MQA2ADcAMgA1ADAAMAAwADAAMwA=",
    "name": "(公立)臺南市將軍區鯤鯓國民小學附設幼兒園",
    "type": "spub0"
  },
  {
    "newsch": 1,
    "lat": 23.219398,
    "lng": 120.161625,
    "sid": "MQA2ADcAMgA1ADAAMAAwADAANAA=",
    "name": "(公立)臺南市將軍區苓和國民小學附設幼兒園",
    "type": "spub0"
  },
  {
    "newsch": 1,
    "lat": 23.214938,
    "lng": 120.136003,
    "sid": "MQA2ADcAMgA1ADAAMAAwADAANQA=",
    "name": "(公立)臺南市將軍區將軍國民小學附設幼兒園",
    "type": "spub0"
  }
]