[
  {
    "newsch": 1,
    "lat": 23.363345,
    "lng": 120.365258,
    "sid": "MQA2ADcAMwAxADAAMAAwADAAMQA=",
    "name": "(準公共)臺南市私立開心幼兒園",
    "type": "spub3"
  },
  {
    "newsch": 1,
    "lat": 23.384724,
    "lng": 120.380492,
    "sid": "MQA2ADcAMwAxADAAMAAwADAAMgA=",
    "name": "(準公共)臺南市私立名人幼兒園",
    "type": "spub3"
  },
  {
    "newsch": 1,
    "lat": 23.366238,
    "lng": 120.365792,
    "sid": "MQA2ADcAMwAxADAAMAAwADAAMwA=",
    "name": "(公立)臺南市後壁區後壁國民小學附設幼兒園",
    "type": "spub0"
  },
  {
    "newsch": 1,
    "lat": 23.333447,
    "lng": 120.360954,
    "sid": "MQA2ADcAMwAxADAAMAAwADAANAA=",
    "name": "(公立)臺南市後壁區安溪國民小學附設幼兒園",
    "type": "spub0"
  },
  {
    "newsch": 1,
    "lat": 23.344694,
    "lng": 120.315913,
    "sid": "MQA2ADcAMwAxADAAMAAwADAANQA=",
    "name": "(公立)臺南市後壁區新東國民小學附設幼兒園",
    "type": "spub0"
  },
  {
    "newsch": 1,
    "lat": 23.37275,
    "lng": 120.309152,
    "sid": "MQA2ADcAMwAxADAAMAAwADAANgA=",
    "name": "(公立)臺南市後壁區新嘉國民小學附設幼兒園",
    "type": "spub0"
  },
  {
    "newsch": 1,
    "lat": 23.379014,
    "lng": 120.339173,
    "sid": "MQA2ADcAMwAxADAAMAAwADAANwA=",
    "name": "(公立)臺南市後壁區菁寮國民小學附設幼兒園",
    "type": "spub0"
  }
]