[
  {
    "newsch": 1,
    "lat": 23.326622,
    "lng": 120.400296,
    "sid": "MQA2ADcAMwAzADAAMAAwADAAMQA=",
    "name": "(私立)臺南市私立幸福幼兒園",
    "type": "spub1"
  },
  {
    "newsch": 1,
    "lat": 23.319001,
    "lng": 120.423508,
    "sid": "MQA2ADcAMwAzADAAMAAwADAAMgA=",
    "name": "(私立)臺南市私立領袖學院慈仁幼兒園",
    "type": "spub1"
  },
  {
    "newsch": 1,
    "lat": 23.323319,
    "lng": 120.404955,
    "sid": "MQA2ADcAMwAzADAAMAAwADAAMwA=",
    "name": "(公立)臺南市東山區東山國民小學附設幼兒園",
    "type": "spub0"
  },
  {
    "newsch": 1,
    "lat": 23.266031,
    "lng": 120.446744,
    "sid": "MQA2ADcAMwAzADAAMAAwADAANAA=",
    "name": "(公立)臺南市東山區東原國民小學附設幼兒園",
    "type": "spub0"
  },
  {
    "newsch": 1,
    "lat": 23.294599,
    "lng": 120.386601,
    "sid": "MQA2ADcAMwAzADAAMAAwADAANQA=",
    "name": "(公立)臺南市東山區吉貝耍國民小學附設幼兒園",
    "type": "spub0"
  },
  {
    "newsch": 1,
    "lat": 23.305567,
    "lng": 120.362649,
    "sid": "MQA2ADcAMwAzADAAMAAwADAANgA=",
    "name": "(公立)臺南市東山區聖賢國民小學附設幼兒園",
    "type": "spub0"
  },
  {
    "newsch": 1,
    "lat": 23.280487,
    "lng": 120.466906,
    "sid": "MQA2ADcAMwAzADAAMAAwADAANwA=",
    "name": "(公立)臺南市東山區青山國民小學附設幼兒園",
    "type": "spub0"
  }
]