[
  {
    "newsch": 1,
    "lat": 23.09295,
    "lng": 120.243682,
    "sid": "MQA2ADcANAA1ADAAMAAwADAAMQA=",
    "name": "(私立)臺南市私立倍幼安幼兒園",
    "type": "spub1"
  },
  {
    "newsch": 1,
    "lat": 23.087519,
    "lng": 120.233452,
    "sid": "MQA2ADcANAA1ADAAMAAwADAAMgA=",
    "name": "(私立)臺南市私立米琪幼兒園",
    "type": "spub1"
  },
  {
    "newsch": 1,
    "lat": 23.0878468,
    "lng": 120.2287064,
    "sid": "MQA2ADcANAA1ADAAMAAwADAAMwA=",
    "name": "(私立)臺南市私立筑園幼兒園",
    "type": "spub1"
  },
  {
    "newsch": 1,
    "lat": 23.102461,
    "lng": 120.235541,
    "sid": "MQA2ADcANAA1ADAAMAAwADAANAA=",
    "name": "(私立)臺南市私立活水幼兒園",
    "type": "spub1"
  },
  {
    "newsch": 1,
    "lat": 23.098957,
    "lng": 120.225022,
    "sid": "MQA2ADcANAA1ADAAMAAwADAANQA=",
    "name": "(公立)臺南市安定區南安國民小學附設幼兒園",
    "type": "spub0"
  },
  {
    "newsch": 1,
    "lat": 23.123573,
    "lng": 120.24623,
    "sid": "MQA2ADcANAA1ADAAMAAwADAANgA=",
    "name": "(公立)臺南市安定區安定國民小學附設幼兒園",
    "type": "spub0"
  },
  {
    "newsch": 1,
    "lat": 23.0939111,
    "lng": 120.2296358,
    "sid": "MQA2ADcANAA1ADAAMAAwADAAOAA=",
    "name": "(私立)臺南市私立慈暉幼兒園",
    "type": "spub1"
  },
  {
    "newsch": 1,
    "lat": 23.10478,
    "lng": 120.235215,
    "sid": "MQA2ADcANAA1ADAAMAAwADEAMQA=",
    "name": "(準公共)臺南市私立小博士幼兒園",
    "type": "spub3"
  },
  {
    "newsch": 1,
    "lat": 23.085577,
    "lng": 120.222795,
    "sid": "MQA2ADcANAA1ADAAMAAwADEAMgA=",
    "name": "(非營利)臺南市直加弄非營利幼兒園(委託台南縣幼兒托育職業工會辦理)",
    "type": "spub3"
  },
  {
    "newsch": 1,
    "lat": 23.0731,
    "lng": 120.211032,
    "sid": "MQA2ADcANAA1ADAAMAAwADEAMwA=",
    "name": "(公立)臺南市安定區南興國民小學附設幼兒園",
    "type": "spub0"
  }
]