[
  {
    "newsch": 1,
    "lat": 22.60915,
    "lng": 120.320249,
    "sid": "MQA4ADgAMAA2ADAAMAAwADAAMQA=",
    "name": "(準公共)高雄市私立嘉惠幼兒園",
    "type": "spub3"
  },
  {
    "newsch": 1,
    "lat": 22.604197,
    "lng": 120.330903,
    "sid": "MQA4ADgAMAA2ADAAMAAwADAAMwA=",
    "name": "(私立)高雄市私立中興幼兒園",
    "type": "spub1"
  },
  {
    "newsch": 1,
    "lat": 22.589361,
    "lng": 120.320417,
    "sid": "MQA4ADgAMAA2ADAAMAAwADAANQA=",
    "name": "(私立)高雄市私立聖文幼兒園",
    "type": "spub1"
  },
  {
    "newsch": 1,
    "lat": 22.579674,
    "lng": 120.324943,
    "sid": "MQA4ADgAMAA2ADAAMAAwADAANgA=",
    "name": "(準公共)高雄市私立松柏幼兒園",
    "type": "spub3"
  },
  {
    "newsch": 1,
    "lat": 22.605664,
    "lng": 120.329591,
    "sid": "MQA4ADgAMAA2ADAAMAAwADAAOAA=",
    "name": "(私立)高雄市私立愛迪生幼兒園",
    "type": "spub1"
  },
  {
    "newsch": 1,
    "lat": 22.591017,
    "lng": 120.315511,
    "sid": "MQA4ADgAMAA2ADAAMAAwADEAMAA=",
    "name": "(私立)高雄市私立地球村幼兒園",
    "type": "spub1"
  },
  {
    "newsch": 1,
    "lat": 22.607258,
    "lng": 120.304595,
    "sid": "MQA4ADgAMAA2ADAAMAAwADEAMQA=",
    "name": "(準公共)高雄市私立前鎮心心幼兒園",
    "type": "spub3"
  },
  {
    "newsch": 1,
    "lat": 22.607221,
    "lng": 120.31544,
    "sid": "MQA4ADgAMAA2ADAAMAAwADEAMgA=",
    "name": "(私立)高雄市私立格銳幼兒園",
    "type": "spub1"
  },
  {
    "newsch": 1,
    "lat": 22.614234,
    "lng": 120.319163,
    "sid": "MQA4ADgAMAA2ADAAMAAwADEAMwA=",
    "name": "(準公共)高雄市私立學成幼兒園",
    "type": "spub3"
  },
  {
    "newsch": 1,
    "lat": 22.576642,
    "lng": 120.322316,
    "sid": "MQA4ADgAMAA2ADAAMAAwADEANAA=",
    "name": "(私立)高雄市私立國民幼兒園",
    "type": "spub1"
  },
  {
    "newsch": 1,
    "lat": 22.575813,
    "lng": 120.323357,
    "sid": "MQA4ADgAMAA2ADAAMAAwADEANQA=",
    "name": "(準公共)高雄市私立興學幼兒園",
    "type": "spub3"
  },
  {
    "newsch": 1,
    "lat": 22.586481,
    "lng": 120.308394,
    "sid": "MQA4ADgAMAA2ADAAMAAwADEANgA=",
    "name": "(公立)高雄市前鎮區前鎮國民小學附設幼兒園",
    "type": "spub0"
  },
  {
    "newsch": 1,
    "lat": 22.605928,
    "lng": 120.306958,
    "sid": "MQA4ADgAMAA2ADAAMAAwADEANwA=",
    "name": "(公立)高雄市前鎮區獅甲國民小學附設幼兒園",
    "type": "spub0"
  },
  {
    "newsch": 1,
    "lat": 22.607173,
    "lng": 120.336155,
    "sid": "MQA4ADgAMAA2ADAAMAAwADEAOAA=",
    "name": "(公立)高雄市前鎮區瑞豐國民小學附設幼兒園",
    "type": "spub0"
  },
  {
    "newsch": 1,
    "lat": 22.580608,
    "lng": 120.326268,
    "sid": "MQA4ADgAMAA2ADAAMAAwADEAOQA=",
    "name": "(公立)高雄市前鎮區明正國民小學附設幼兒園",
    "type": "spub0"
  },
  {
    "newsch": 1,
    "lat": 22.608469,
    "lng": 120.311312,
    "sid": "MQA4ADgAMAA2ADAAMAAwADIAMAA=",
    "name": "(公立)高雄市前鎮區復興國民小學附設幼兒園",
    "type": "spub0"
  },
  {
    "newsch": 1,
    "lat": 22.614012,
    "lng": 120.312554,
    "sid": "MQA4ADgAMAA2ADAAMAAwADIAMQA=",
    "name": "(公立)高雄市前鎮區愛群國民小學附設幼兒園",
    "type": "spub0"
  },
  {
    "newsch": 1,
    "lat": 22.573261,
    "lng": 120.319999,
    "sid": "MQA4ADgAMAA2ADAAMAAwADIAMgA=",
    "name": "(公立)高雄市前鎮區佛公國民小學附設幼兒園",
    "type": "spub0"
  },
  {
    "newsch": 1,
    "lat": 22.581337,
    "lng": 120.317897,
    "sid": "MQA4ADgAMAA2ADAAMAAwADIAMwA=",
    "name": "(公立)高雄市前鎮區仁愛國民小學附設幼兒園",
    "type": "spub0"
  },
  {
    "newsch": 1,
    "lat": 22.608345,
    "lng": 120.314546,
    "sid": "MQA4ADgAMAA2ADAAMAAwADIANAA=",
    "name": "(公立)高雄市前鎮區民權國民小學附設幼兒園",
    "type": "spub0"
  },
  {
    "newsch": 1,
    "lat": 22.590159,
    "lng": 120.31817,
    "sid": "MQA4ADgAMAA2ADAAMAAwADIANQA=",
    "name": "(公立)高雄市前鎮區鎮昌國民小學附設幼兒園",
    "type": "spub0"
  },
  {
    "newsch": 1,
    "lat": 22.58412,
    "lng": 120.334346,
    "sid": "MQA4ADgAMAA2ADAAMAAwADIANgA=",
    "name": "(公立)高雄市前鎮區紅毛港國民小學附設幼兒園",
    "type": "spub0"
  },
  {
    "newsch": 1,
    "lat": 22.60764,
    "lng": 120.322292,
    "sid": "MQA4ADgAMAA2ADAAMAAwADIANwA=",
    "name": "(公立)高雄市前鎮區樂群國民小學附設幼兒園",
    "type": "spub0"
  },
  {
    "newsch": 1,
    "lat": 22.615196,
    "lng": 120.320458,
    "sid": "MQA4ADgAMAA2ADAAMAAwADIAOAA=",
    "name": "(公立)高雄市前鎮區光華國民小學附設幼兒園",
    "type": "spub0"
  },
  {
    "newsch": 1,
    "lat": 22.599447,
    "lng": 120.327133,
    "sid": "MQA4ADgAMAA2ADAAMAAwADIAOQA=",
    "name": "(準公共)高雄市私立碧優庭幼兒園",
    "type": "spub3"
  },
  {
    "newsch": 1,
    "lat": 22.57439,
    "lng": 120.323536,
    "sid": "MQA4ADgAMAA2ADAAMAAwADMAMAA=",
    "name": "(私立)高雄市私立童話幼兒園",
    "type": "spub1"
  },
  {
    "newsch": 1,
    "lat": 22.589127,
    "lng": 120.319831,
    "sid": "MQA4ADgAMAA2ADAAMAAwADMAMQA=",
    "name": "(準公共)高雄市私立立賢幼兒園",
    "type": "spub3"
  },
  {
    "newsch": 1,
    "lat": 22.609006,
    "lng": 120.311978,
    "sid": "MQA4ADgAMAA2ADAAMAAwADMAMgA=",
    "name": "(準公共)高雄市私立向光幼兒園",
    "type": "spub3"
  },
  {
    "newsch": 1,
    "lat": 22.611451,
    "lng": 120.328493,
    "sid": "MQA4ADgAMAA2ADAAMAAwADMAMwA=",
    "name": "(準公共)高雄市私立冠冠幼兒園",
    "type": "spub3"
  },
  {
    "newsch": 1,
    "lat": 22.61096,
    "lng": 120.307178,
    "sid": "MQA4ADgAMAA2ADAAMAAwADMANgA=",
    "name": "(準公共)高雄市私立林森幼兒園",
    "type": "spub3"
  },
  {
    "newsch": 1,
    "lat": 22.607625,
    "lng": 120.332526,
    "sid": "MQA4ADgAMAA2ADAAMAAwADMANwA=",
    "name": "(準公共)高雄市私立佑昇幼兒園",
    "type": "spub3"
  },
  {
    "newsch": 1,
    "lat": 22.605677,
    "lng": 120.331378,
    "sid": "MQA4ADgAMAA2ADAAMAAwADQAMAA=",
    "name": "(準公共)高雄市私立善導幼兒園",
    "type": "spub3"
  },
  {
    "newsch": 1,
    "lat": 22.583162,
    "lng": 120.321121,
    "sid": "MQA4ADgAMAA2ADAAMAAwADQANQA=",
    "name": "(非營利)高雄市前鎮非營利幼兒園（委託高雄市教保人員職業工會辦理）",
    "type": "spub2"
  },
  {
    "newsch": 1,
    "lat": 22.600637,
    "lng": 120.326895,
    "sid": "MQA4ADgAMAA2ADAAMAAwADQANgA=",
    "name": "(公立)高雄市前鎮區瑞祥國民小學附設幼兒園",
    "type": "spub0"
  },
  {
    "newsch": 1,
    "lat": 22.609166,
    "lng": 120.331425,
    "sid": "MQA4ADgAMAA2ADAAMAAwADQANwA=",
    "name": "(非營利)高雄市瑞豐非營利幼兒園（委託社團法人東台灣幼兒教保專業促進協會辦理）",
    "type": "spub2"
  },
  {
    "newsch": 1,
    "lat": 22.586058,
    "lng": 120.31261,
    "sid": "MQA4ADgAMAA2ADAAMAAwADQAOAA=",
    "name": "(非營利)高雄市興仁非營利幼兒園（委託社團法人高雄市佳欣幼兒發展學會辦理）",
    "type": "spub2"
  },
  {
    "newsch": 1,
    "lat": 22.605604,
    "lng": 120.307737,
    "sid": "MQA4ADgAMAA2ADAAMAAwADQAOQA=",
    "name": "(非營利)高雄市獅甲非營利幼兒園(委託財團法人高雄市私立復華高級中學辦理)",
    "type": "spub2"
  },
  {
    "newsch": 1,
    "lat": 22.593555,
    "lng": 120.308387,
    "sid": "MQA4ADgAMAA2ADAAMAAwADUAMAA=",
    "name": "(私立)勞動部勞動力發展署高屏澎東分署職場互助教保服務中心(委託社團法人高雄市社區教育協會辦理)",
    "type": "spub1"
  },
  {
    "newsch": 1,
    "lat": 22.606388,
    "lng": 120.301902,
    "sid": "MQA4ADgAMAA2ADAAMAAwADUAMQA=",
    "name": "(公立)高雄市立成功特殊教育學校幼兒部",
    "type": "spub0"
  }
]