[
  {
    "newsch": 1,
    "lat": 22.711216,
    "lng": 120.291019,
    "sid": "MQA4ADgAMQAxADAAMAAwADAAMQA=",
    "name": "(私立)高雄市私立育志幼兒園",
    "type": "spub1"
  },
  {
    "newsch": 1,
    "lat": 22.73512,
    "lng": 120.329141,
    "sid": "MQA4ADgAMQAxADAAMAAwADAAMgA=",
    "name": "(準公共)高雄市私立吉米亨利幼兒園",
    "type": "spub3"
  },
  {
    "newsch": 1,
    "lat": 22.733799,
    "lng": 120.326951,
    "sid": "MQA4ADgAMQAxADAAMAAwADAAMwA=",
    "name": "(準公共)高雄市私立愛吉兒幼兒園",
    "type": "spub3"
  },
  {
    "newsch": 1,
    "lat": 22.737659,
    "lng": 120.339285,
    "sid": "MQA4ADgAMQAxADAAMAAwADAANAA=",
    "name": "(準公共)高雄市私立乖寶貝幼兒園",
    "type": "spub3"
  },
  {
    "newsch": 1,
    "lat": 22.713333,
    "lng": 120.298563,
    "sid": "MQA4ADgAMQAxADAAMAAwADAANQA=",
    "name": "(私立)高雄市私立野鳥幼兒園",
    "type": "spub1"
  },
  {
    "newsch": 1,
    "lat": 22.713094,
    "lng": 120.292477,
    "sid": "MQA4ADgAMQAxADAAMAAwADAANgA=",
    "name": "(準公共)高雄市私立小豆豆幼兒園",
    "type": "spub3"
  },
  {
    "newsch": 1,
    "lat": 22.711658,
    "lng": 120.289931,
    "sid": "MQA4ADgAMQAxADAAMAAwADAANwA=",
    "name": "(私立)高雄市私立英倫幼兒園",
    "type": "spub1"
  },
  {
    "newsch": 1,
    "lat": 22.725185,
    "lng": 120.298479,
    "sid": "MQA4ADgAMQAxADAAMAAwADAAOQA=",
    "name": "(準公共)高雄市私立百立幼兒園",
    "type": "spub3"
  },
  {
    "newsch": 1,
    "lat": 22.71804,
    "lng": 120.285007,
    "sid": "MQA4ADgAMQAxADAAMAAwADEAMAA=",
    "name": "(準公共)高雄市私立達仁幼兒園",
    "type": "spub3"
  },
  {
    "newsch": 1,
    "lat": 22.728259,
    "lng": 120.278358,
    "sid": "MQA4ADgAMQAxADAAMAAwADEAMQA=",
    "name": "(公立)高雄市楠梓區援中國民小學附設幼兒園",
    "type": "spub0"
  },
  {
    "newsch": 1,
    "lat": 22.733815,
    "lng": 120.327803,
    "sid": "MQA4ADgAMQAxADAAMAAwADEAMgA=",
    "name": "(公立)高雄市楠梓區楠梓國民小學附設幼兒園",
    "type": "spub0"
  },
  {
    "newsch": 1,
    "lat": 22.725338,
    "lng": 120.33084,
    "sid": "MQA4ADgAMQAxADAAMAAwADEAMwA=",
    "name": "(公立)高雄市楠梓區楠陽國民小學附設幼兒園",
    "type": "spub0"
  },
  {
    "newsch": 1,
    "lat": 22.721903,
    "lng": 120.313112,
    "sid": "MQA4ADgAMQAxADAAMAAwADEANAA=",
    "name": "(公立)高雄市楠梓區後勁國民小學附設幼兒園",
    "type": "spub0"
  },
  {
    "newsch": 1,
    "lat": 22.720472,
    "lng": 120.296544,
    "sid": "MQA4ADgAMQAxADAAMAAwADEANQA=",
    "name": "(公立)高雄市楠梓區加昌國民小學附設幼兒園",
    "type": "spub0"
  },
  {
    "newsch": 1,
    "lat": 22.714223,
    "lng": 120.291922,
    "sid": "MQA4ADgAMQAxADAAMAAwADEANgA=",
    "name": "(公立)高雄市楠梓區右昌國民小學附設幼兒園",
    "type": "spub0"
  },
  {
    "newsch": 1,
    "lat": 22.71195,
    "lng": 120.295698,
    "sid": "MQA4ADgAMQAxADAAMAAwADEANwA=",
    "name": "(公立)高雄市楠梓區莒光國民小學附設幼兒園",
    "type": "spub0"
  },
  {
    "newsch": 1,
    "lat": 22.750902,
    "lng": 120.331028,
    "sid": "MQA4ADgAMQAxADAAMAAwADEAOAA=",
    "name": "(私立)高雄市私立成就非凡楠梓幼兒園",
    "type": "spub1"
  },
  {
    "newsch": 1,
    "lat": 22.726975,
    "lng": 120.303022,
    "sid": "MQA4ADgAMQAxADAAMAAwADEAOQA=",
    "name": "(準公共)高雄市私立牛頓幼兒園",
    "type": "spub3"
  },
  {
    "newsch": 1,
    "lat": 22.726882,
    "lng": 120.304459,
    "sid": "MQA4ADgAMQAxADAAMAAwADIAMAA=",
    "name": "(準公共)高雄市私立楠梓長春藤幼兒園",
    "type": "spub3"
  },
  {
    "newsch": 1,
    "lat": 22.726971,
    "lng": 120.291458,
    "sid": "MQA4ADgAMQAxADAAMAAwADIANAA=",
    "name": "(私立)高雄市私立學儒幼兒園",
    "type": "spub1"
  },
  {
    "newsch": 1,
    "lat": 22.735969,
    "lng": 120.336958,
    "sid": "MQA4ADgAMQAxADAAMAAwADIANQA=",
    "name": "(準公共)高雄市私立小種籽幼兒園",
    "type": "spub3"
  },
  {
    "newsch": 1,
    "lat": 22.721868,
    "lng": 120.297992,
    "sid": "MQA4ADgAMQAxADAAMAAwADIANgA=",
    "name": "(非營利)經濟部產業園區管理局楠梓示範員工子女非營利幼兒園(委託台灣科技產業園區產業工會聯合會辦理)",
    "type": "spub2"
  },
  {
    "newsch": 1,
    "lat": 22.718476,
    "lng": 120.311521,
    "sid": "MQA4ADgAMQAxADAAMAAwADIANwA=",
    "name": "(準公共)高雄市私立育正幼兒園",
    "type": "spub3"
  },
  {
    "newsch": 1,
    "lat": 22.724518,
    "lng": 120.32835,
    "sid": "MQA4ADgAMQAxADAAMAAwADIAOQA=",
    "name": "(準公共)高雄市私立嘉欣幼兒園",
    "type": "spub3"
  },
  {
    "newsch": 1,
    "lat": 22.725396,
    "lng": 120.328036,
    "sid": "MQA4ADgAMQAxADAAMAAwADMAMAA=",
    "name": "(私立)高雄市私立楠梓童心園幼兒園",
    "type": "spub1"
  },
  {
    "newsch": 1,
    "lat": 22.711773,
    "lng": 120.290267,
    "sid": "MQA4ADgAMQAxADAAMAAwADMAMQA=",
    "name": "(準公共)高雄市私立右昌麥米倫幼兒園",
    "type": "spub3"
  },
  {
    "newsch": 1,
    "lat": 22.712417,
    "lng": 120.291418,
    "sid": "MQA4ADgAMQAxADAAMAAwADMAMgA=",
    "name": "(準公共)右昌基督長老教會附設高雄市私立右光幼兒園",
    "type": "spub3"
  },
  {
    "newsch": 1,
    "lat": 22.718605,
    "lng": 120.297239,
    "sid": "MQA4ADgAMQAxADAAMAAwADMANAA=",
    "name": "(準公共)高雄市私立貝吉田幼兒園",
    "type": "spub3"
  },
  {
    "newsch": 1,
    "lat": 22.714072,
    "lng": 120.303995,
    "sid": "MQA4ADgAMQAxADAAMAAwADMANwA=",
    "name": "(非營利)高雄市煉油廠員工子女非營利幼兒園(財團法人台灣中油股份有限公司職工福利委員會申請辦理)",
    "type": "spub2"
  },
  {
    "newsch": 1,
    "lat": 22.708955,
    "lng": 120.302918,
    "sid": "MQA4ADgAMQAxADAAMAAwADMAOQA=",
    "name": "(公立)高雄市楠梓區油廠國民小學附設幼兒園",
    "type": "spub0"
  },
  {
    "newsch": 1,
    "lat": 22.739271,
    "lng": 120.329269,
    "sid": "MQA4ADgAMQAxADAAMAAwADQAMAA=",
    "name": "(準公共)高雄市私立威廉王子幼兒園",
    "type": "spub3"
  },
  {
    "newsch": 1,
    "lat": 22.729448,
    "lng": 120.299457,
    "sid": "MQA4ADgAMQAxADAAMAAwADQAMQA=",
    "name": "(非營利)高雄市翠屏非營利幼兒園(委託財團法人樹德科技大學設立之樹德科技大學辦理)",
    "type": "spub2"
  },
  {
    "newsch": 1,
    "lat": 22.732454,
    "lng": 120.326153,
    "sid": "MQA4ADgAMQAxADAAMAAwADQAMgA=",
    "name": "(準公共)高雄市私立愛萌兒幼兒園",
    "type": "spub3"
  },
  {
    "newsch": 1,
    "lat": 22.713581,
    "lng": 120.286524,
    "sid": "MQA4ADgAMQAxADAAMAAwADQAMwA=",
    "name": "(非營利)高雄市右昌非營利幼兒園（委託社團法人高雄市婦幼培訓關懷協會辦理）",
    "type": "spub2"
  },
  {
    "newsch": 1,
    "lat": 22.722955,
    "lng": 120.315675,
    "sid": "MQA4ADgAMQAxADAAMAAwADQANAA=",
    "name": "(非營利)高雄市後勁非營利幼兒園(委託社團法人高雄市碩苗社會教育關懷協會辦理)",
    "type": "spub2"
  },
  {
    "newsch": 1,
    "lat": 22.728843,
    "lng": 120.29038,
    "sid": "MQA4ADgAMQAxADAAMAAwADQANQA=",
    "name": "(私立)高雄市私立何嘉仁楠梓幼兒園",
    "type": "spub1"
  },
  {
    "newsch": 1,
    "lat": 22.71032,
    "lng": 120.302829,
    "sid": "MQA4ADgAMQAxADAAMAAwADQANgA=",
    "name": "(準公共)日月光集團聯合職工福利委員會附設高雄市私立三好幼兒園",
    "type": "spub3"
  },
  {
    "newsch": 1,
    "lat": 22.740751,
    "lng": 120.335881,
    "sid": "MQA4ADgAMQAxADAAMAAwADQANwA=",
    "name": "(私立)高雄市私立伊頓大地幼兒園",
    "type": "spub1"
  },
  {
    "newsch": 1,
    "lat": 22.716962,
    "lng": 120.293455,
    "sid": "MQA4ADgAMQAxADAAMAAwADQAOAA=",
    "name": "(私立)高雄市私立星彩幼兒園",
    "type": "spub1"
  },
  {
    "newsch": 1,
    "lat": 22.728253,
    "lng": 120.313728,
    "sid": "MQA4ADgAMQAxADAAMAAwADQAOQA=",
    "name": "(公立)高雄市立楠梓特殊學校幼兒部",
    "type": "spub0"
  },
  {
    "newsch": 1,
    "lat": 22.736638,
    "lng": 120.325582,
    "sid": "MQA4ADgAMQAxADAAMAAwADUAMAA=",
    "name": "(私立)衛生福利部南區兒童之家職場互助教保服務中心(委託社團法人台灣公共托育協會辦理)",
    "type": "spub1"
  },
  {
    "newsch": 1,
    "lat": 22.727072,
    "lng": 120.284679,
    "sid": "MQA4ADgAMQAxADAAMAAwADUAMgA=",
    "name": "(準公共)高雄市私立新資優生楠梓幼兒園",
    "type": "spub3"
  },
  {
    "newsch": 1,
    "lat": 22.714826,
    "lng": 120.302243,
    "sid": "MQA4ADgAMQAxADAAMAAwADUAMwA=",
    "name": "(私立)國軍退除役官兵輔導委員會高雄榮譽國民之家職場互助教保服務中心(委託社團法人台灣公共托育協會辦理)",
    "type": "spub1"
  },
  {
    "newsch": 1,
    "lat": 22.72146697,
    "lng": 120.31349714,
    "sid": "MQA4ADgAMQAxADAAMAAwADUANAA=",
    "name": "(非營利)高雄市和平非營利幼兒園(委託社團法人高雄市幼童教育關懷協會辦理)",
    "type": "spub2"
  },
  {
    "newsch": 1,
    "lat": 22.726938,
    "lng": 120.28958,
    "sid": "MQA4ADgAMQAxADAAMAAwADUANQA=",
    "name": "(準公共)高雄市私立楠梓哈波特幼兒園",
    "type": "spub3"
  },
  {
    "newsch": 1,
    "lat": 22.729305,
    "lng": 120.28755,
    "sid": "MQA4ADgAMQAxADAAMAAwADUANgA=",
    "name": "(準公共)高雄市私立保進菁華幼兒園",
    "type": "spub3"
  }
]