[
  {
    "newsch": 1,
    "lat": 22.791736,
    "lng": 120.346346,
    "sid": "MQA4ADgAMgA0ADAAMAAwADAAMQA=",
    "name": "(準公共)高雄市私立宏欣幼兒園",
    "type": "spub3"
  },
  {
    "newsch": 1,
    "lat": 22.7944772,
    "lng": 120.3265377,
    "sid": "MQA4ADgAMgA0ADAAMAAwADAAMgA=",
    "name": "(準公共)高雄市私立晨光幼兒園",
    "type": "spub3"
  },
  {
    "newsch": 1,
    "lat": 22.791734,
    "lng": 120.346376,
    "sid": "MQA4ADgAMgA0ADAAMAAwADAAMwA=",
    "name": "(準公共)高雄市私立燕巢宏欣幼兒園",
    "type": "spub3"
  },
  {
    "newsch": 1,
    "lat": 22.768437,
    "lng": 120.37947,
    "sid": "MQA4ADgAMgA0ADAAMAAwADAANAA=",
    "name": "(公立)高雄市燕巢區橫山國民小學附設幼兒園",
    "type": "spub0"
  },
  {
    "newsch": 1,
    "lat": 22.753373,
    "lng": 120.358003,
    "sid": "MQA4ADgAMgA0ADAAMAAwADAANQA=",
    "name": "(公立)高雄市燕巢區鳳雄國民小學附設幼兒園",
    "type": "spub0"
  },
  {
    "newsch": 1,
    "lat": 22.795255,
    "lng": 120.365948,
    "sid": "MQA4ADgAMgA0ADAAMAAwADAANgA=",
    "name": "(公立)高雄市燕巢區燕巢國民小學附設幼兒園",
    "type": "spub0"
  },
  {
    "newsch": 1,
    "lat": 22.7933823,
    "lng": 120.365355,
    "sid": "MQA4ADgAMgA0ADAAMAAwADAANwA=",
    "name": "(準公共)高雄市私立家家幼兒園",
    "type": "spub3"
  },
  {
    "newsch": 1,
    "lat": 22.7650456,
    "lng": 120.3646343,
    "sid": "MQA4ADgAMgA0ADAAMAAwADAAOQA=",
    "name": "(私立)義大醫療財團法人附設高雄市私立義大醫療幼兒園",
    "type": "spub1"
  },
  {
    "newsch": 1,
    "lat": 22.7906883,
    "lng": 120.3380438,
    "sid": "MQA4ADgAMgA0ADAAMAAwADEAMAA=",
    "name": "(公立)高雄市燕巢區安招國民小學附設幼兒園",
    "type": "spub0"
  },
  {
    "newsch": 1,
    "lat": 22.7595623,
    "lng": 120.3725979,
    "sid": "MQA4ADgAMgA0ADAAMAAwADEAMQA=",
    "name": "(私立)法務部高雄正德職場互助教保服務中心(委託社團法人高雄市佳欣幼兒發展學會辦理)",
    "type": "spub1"
  }
]