[
  {
    "newsch": 1,
    "lat": 22.8882631,
    "lng": 120.480624,
    "sid": "MQA4ADgANAAyADAAMAAwADAAMgA=",
    "name": "(公立)高雄市旗山區旗山國民小學附設幼兒園",
    "type": "spub0"
  },
  {
    "newsch": 1,
    "lat": 22.847315,
    "lng": 120.465447,
    "sid": "MQA4ADgANAAyADAAMAAwADAAMwA=",
    "name": "(公立)高雄市旗山區溪洲國民小學附設幼兒園",
    "type": "spub0"
  },
  {
    "newsch": 1,
    "lat": 22.933406,
    "lng": 120.503694,
    "sid": "MQA4ADgANAAyADAAMAAwADAANAA=",
    "name": "(公立)高雄市旗山區圓潭國民小學附設幼兒園",
    "type": "spub0"
  },
  {
    "newsch": 1,
    "lat": 22.8987741,
    "lng": 120.482344,
    "sid": "MQA4ADgANAAyADAAMAAwADAANQA=",
    "name": "(公立)高雄市旗山區鼓山國民小學附設幼兒園",
    "type": "spub0"
  },
  {
    "newsch": 1,
    "lat": 22.8819241,
    "lng": 120.491867,
    "sid": "MQA4ADgANAAyADAAMAAwADAANgA=",
    "name": "(公立)高雄市旗山區旗尾國民小學附設幼兒園",
    "type": "spub0"
  },
  {
    "newsch": 1,
    "lat": 22.776015,
    "lng": 120.449136,
    "sid": "MQA4ADgANAAyADAAMAAwADAANwA=",
    "name": "(公立)高雄市旗山區嶺口國民小學附設幼兒園",
    "type": "spub0"
  },
  {
    "newsch": 1,
    "lat": 22.9339801,
    "lng": 120.504054,
    "sid": "MQA4ADgANAAyADAAMAAwADAAOAA=",
    "name": "(私立)高雄市私立圓緣幼兒園",
    "type": "spub1"
  },
  {
    "newsch": 1,
    "lat": 22.894783,
    "lng": 120.483233,
    "sid": "MQA4ADgANAAyADAAMAAwADEAMAA=",
    "name": "(準公共)高雄市私立緣親親幼兒園",
    "type": "spub3"
  },
  {
    "newsch": 1,
    "lat": 22.9010857,
    "lng": 120.4783584,
    "sid": "MQA4ADgANAAyADAAMAAwADEAMgA=",
    "name": "(準公共)高雄市私立蒲公英家藝術幼兒園",
    "type": "spub3"
  },
  {
    "newsch": 1,
    "lat": 22.8904865,
    "lng": 120.4801088,
    "sid": "MQA4ADgANAAyADAAMAAwADEAMwA=",
    "name": "(私立)高雄市私立博愛幼兒園",
    "type": "spub1"
  },
  {
    "newsch": 1,
    "lat": 22.8834251,
    "lng": 120.481803,
    "sid": "MQA4ADgANAAyADAAMAAwADEANAA=",
    "name": "(私立)高雄市私立旗山心心幼兒園",
    "type": "spub1"
  },
  {
    "newsch": 1,
    "lat": 22.899467,
    "lng": 120.480952,
    "sid": "MQA4ADgANAAyADAAMAAwADEANQA=",
    "name": "(私立)高雄市私立心心幼兒園",
    "type": "spub1"
  },
  {
    "newsch": 1,
    "lat": 22.884131,
    "lng": 120.485459,
    "sid": "MQA4ADgANAAyADAAMAAwADEANgA=",
    "name": "(私立)高雄市私立超群幼兒園",
    "type": "spub1"
  }
]