[
  {
    "newsch": 1,
    "lat": 22.888696,
    "lng": 120.481545,
    "sid": "MQA4ADgANAAyADAAMAAwADAAMgA=",
    "name": "(公立)高雄市旗山區旗山國民小學附設幼兒園",
    "type": "spub0"
  },
  {
    "newsch": 1,
    "lat": 22.847822,
    "lng": 120.464549,
    "sid": "MQA4ADgANAAyADAAMAAwADAAMwA=",
    "name": "(公立)高雄市旗山區溪洲國民小學附設幼兒園",
    "type": "spub0"
  },
  {
    "newsch": 1,
    "lat": 22.934016,
    "lng": 120.503165,
    "sid": "MQA4ADgANAAyADAAMAAwADAANAA=",
    "name": "(公立)高雄市旗山區圓潭國民小學附設幼兒園",
    "type": "spub0"
  },
  {
    "newsch": 1,
    "lat": 22.898865,
    "lng": 120.482562,
    "sid": "MQA4ADgANAAyADAAMAAwADAANQA=",
    "name": "(公立)高雄市旗山區鼓山國民小學附設幼兒園",
    "type": "spub0"
  },
  {
    "newsch": 1,
    "lat": 22.882463,
    "lng": 120.492408,
    "sid": "MQA4ADgANAAyADAAMAAwADAANgA=",
    "name": "(公立)高雄市旗山區旗尾國民小學附設幼兒園",
    "type": "spub0"
  },
  {
    "newsch": 1,
    "lat": 22.775958,
    "lng": 120.448436,
    "sid": "MQA4ADgANAAyADAAMAAwADAANwA=",
    "name": "(公立)高雄市旗山區嶺口國民小學附設幼兒園",
    "type": "spub0"
  },
  {
    "newsch": 1,
    "lat": 22.933965,
    "lng": 120.504052,
    "sid": "MQA4ADgANAAyADAAMAAwADAAOAA=",
    "name": "(準公共)高雄市私立圓緣幼兒園",
    "type": "spub3"
  },
  {
    "newsch": 1,
    "lat": 22.894775,
    "lng": 120.483238,
    "sid": "MQA4ADgANAAyADAAMAAwADEAMAA=",
    "name": "(準公共)高雄市私立緣親親幼兒園",
    "type": "spub3"
  },
  {
    "newsch": 1,
    "lat": 22.901043,
    "lng": 120.47856,
    "sid": "MQA4ADgANAAyADAAMAAwADEAMgA=",
    "name": "(準公共)高雄市私立蒲公英家藝術幼兒園",
    "type": "spub3"
  },
  {
    "newsch": 1,
    "lat": 22.889283,
    "lng": 120.479741,
    "sid": "MQA4ADgANAAyADAAMAAwADEAMwA=",
    "name": "(私立)高雄市私立博愛幼兒園",
    "type": "spub1"
  },
  {
    "newsch": 1,
    "lat": 22.88341644,
    "lng": 120.4814361,
    "sid": "MQA4ADgANAAyADAAMAAwADEANAA=",
    "name": "(私立)高雄市私立旗山心心幼兒園",
    "type": "spub1"
  },
  {
    "newsch": 1,
    "lat": 22.883339,
    "lng": 120.481691,
    "sid": "MQA4ADgANAAyADAAMAAwADEANQA=",
    "name": "(私立)高雄市私立心心幼兒園",
    "type": "spub1"
  },
  {
    "newsch": 1,
    "lat": 22.884031,
    "lng": 120.4853,
    "sid": "MQA4ADgANAAyADAAMAAwADEANgA=",
    "name": "(私立)高雄市私立超群幼兒園",
    "type": "spub1"
  }
]