[
  {
    "newsch": 1,
    "lat": 24.439346,
    "lng": 118.388211,
    "sid": "MgA0ADgAOQAxADAAMAAwADAAMQA=",
    "name": "(公立)金門縣金湖鎮正義國民小學附設幼兒園",
    "type": "spub0"
  },
  {
    "newsch": 1,
    "lat": 24.445636,
    "lng": 118.376505,
    "sid": "MgA0ADgAOQAxADAAMAAwADAAMgA=",
    "name": "(公立)金門縣金湖鎮開瑄國民小學附設幼兒園",
    "type": "spub0"
  },
  {
    "newsch": 1,
    "lat": 24.422779,
    "lng": 118.438341,
    "sid": "MgA0ADgAOQAxADAAMAAwADAAMwA=",
    "name": "(公立)金門縣金湖鎮柏村國民小學附設幼兒園",
    "type": "spub0"
  },
  {
    "newsch": 1,
    "lat": 24.441946,
    "lng": 118.416167,
    "sid": "MgA0ADgAOQAxADAAMAAwADAANAA=",
    "name": "(公立)金門縣金湖鎮金湖國民小學附設幼兒園",
    "type": "spub0"
  },
  {
    "newsch": 1,
    "lat": 24.437641,
    "lng": 118.407954,
    "sid": "MgA0ADgAOQAxADAAMAAwADAANQA=",
    "name": "(私立)金門縣私立肯利熊優質幼兒園",
    "type": "spub1"
  }
]