[
  {
    "newsch": 1,
    "lat": 22.740607,
    "lng": 120.554236,
    "sid": "MgAwADkAMAA3ADAAMAAwADAAMQA=",
    "name": "(準公共)屏東縣私立芊育幼兒園",
    "type": "spub3"
  },
  {
    "newsch": 1,
    "lat": 22.758434,
    "lng": 120.580164,
    "sid": "MgAwADkAMAA3ADAAMAAwADAAMgA=",
    "name": "(準公共)屏東縣私立乙幼幼兒園",
    "type": "spub3"
  },
  {
    "newsch": 1,
    "lat": 22.725973,
    "lng": 120.610135,
    "sid": "MgAwADkAMAA3ADAAMAAwADAAMwA=",
    "name": "(公立)屏東縣鹽埔鄉振興國民小學附設幼兒園",
    "type": "spub0"
  },
  {
    "newsch": 1,
    "lat": 22.739609,
    "lng": 120.531637,
    "sid": "MgAwADkAMAA3ADAAMAAwADAANAA=",
    "name": "(公立)屏東縣鹽埔鄉彭厝國民小學附設幼兒園",
    "type": "spub0"
  },
  {
    "newsch": 1,
    "lat": 22.738496,
    "lng": 120.554269,
    "sid": "MgAwADkAMAA3ADAAMAAwADAANQA=",
    "name": "(公立)屏東縣鹽埔鄉新圍國民小學附設幼兒園",
    "type": "spub0"
  },
  {
    "newsch": 1,
    "lat": 22.757598,
    "lng": 120.578738,
    "sid": "MgAwADkAMAA3ADAAMAAwADAANgA=",
    "name": "(準公共)屏東縣私立仁美幼兒園",
    "type": "spub3"
  },
  {
    "newsch": 1,
    "lat": 22.740175,
    "lng": 120.583726,
    "sid": "MgAwADkAMAA3ADAAMAAwADAANwA=",
    "name": "(準公共)屏東縣私立信華幼兒園",
    "type": "spub3"
  },
  {
    "newsch": 1,
    "lat": 22.741576,
    "lng": 120.557896,
    "sid": "MgAwADkAMAA3ADAAMAAwADAAOAA=",
    "name": "(準公共)屏東縣私立狄仕耐幼兒園",
    "type": "spub3"
  },
  {
    "newsch": 1,
    "lat": 22.760073,
    "lng": 120.577931,
    "sid": "MgAwADkAMAA3ADAAMAAwADAAOQA=",
    "name": "(公立)屏東縣鹽埔鄉立幼兒園",
    "type": "spub0"
  },
  {
    "newsch": 1,
    "lat": 22.739154,
    "lng": 120.521787,
    "sid": "MgAwADkAMAA3ADAAMAAwADEAMAA=",
    "name": "(準公共)屏東縣私立洛陽幼兒園",
    "type": "spub3"
  },
  {
    "newsch": 1,
    "lat": 22.737037,
    "lng": 120.553832,
    "sid": "MgAwADkAMAA3ADAAMAAwADEAMQA=",
    "name": "(準公共)屏東縣私立培正幼兒園",
    "type": "spub3"
  },
  {
    "newsch": 1,
    "lat": 22.735481,
    "lng": 120.582705,
    "sid": "MgAwADkAMAA3ADAAMAAwADEAMgA=",
    "name": "(公立)屏東縣鹽埔鄉高朗國民小學附設幼兒園",
    "type": "spub0"
  }
]