[
  {
    "newsch": 1,
    "lat": 22.7405836,
    "lng": 120.5570179,
    "sid": "MgAwADkAMAA3ADAAMAAwADAAMQA=",
    "name": "(準公共)屏東縣私立芊育幼兒園",
    "type": "spub3"
  },
  {
    "newsch": 1,
    "lat": 22.7623259,
    "lng": 120.5883446,
    "sid": "MgAwADkAMAA3ADAAMAAwADAAMgA=",
    "name": "(準公共)屏東縣私立乙幼幼兒園",
    "type": "spub3"
  },
  {
    "newsch": 1,
    "lat": 22.72562,
    "lng": 120.610146,
    "sid": "MgAwADkAMAA3ADAAMAAwADAAMwA=",
    "name": "(公立)屏東縣鹽埔鄉振興國民小學附設幼兒園",
    "type": "spub0"
  },
  {
    "newsch": 1,
    "lat": 22.739601,
    "lng": 120.531779,
    "sid": "MgAwADkAMAA3ADAAMAAwADAANAA=",
    "name": "(公立)屏東縣鹽埔鄉彭厝國民小學附設幼兒園",
    "type": "spub0"
  },
  {
    "newsch": 1,
    "lat": 22.738282,
    "lng": 120.55396,
    "sid": "MgAwADkAMAA3ADAAMAAwADAANQA=",
    "name": "(公立)屏東縣鹽埔鄉新圍國民小學附設幼兒園",
    "type": "spub0"
  },
  {
    "newsch": 1,
    "lat": 22.75778,
    "lng": 120.5786,
    "sid": "MgAwADkAMAA3ADAAMAAwADAANgA=",
    "name": "(準公共)屏東縣私立仁美幼兒園",
    "type": "spub3"
  },
  {
    "newsch": 1,
    "lat": 22.7402,
    "lng": 120.5837,
    "sid": "MgAwADkAMAA3ADAAMAAwADAANwA=",
    "name": "(準公共)屏東縣私立信華幼兒園",
    "type": "spub3"
  },
  {
    "newsch": 1,
    "lat": 22.741401,
    "lng": 120.557591,
    "sid": "MgAwADkAMAA3ADAAMAAwADAAOAA=",
    "name": "(準公共)屏東縣私立狄仕耐幼兒園",
    "type": "spub3"
  },
  {
    "newsch": 1,
    "lat": 22.7548,
    "lng": 120.5749,
    "sid": "MgAwADkAMAA3ADAAMAAwADAAOQA=",
    "name": "(公立)屏東縣鹽埔鄉立幼兒園",
    "type": "spub0"
  },
  {
    "newsch": 1,
    "lat": 22.739142,
    "lng": 120.521792,
    "sid": "MgAwADkAMAA3ADAAMAAwADEAMAA=",
    "name": "(準公共)屏東縣私立洛陽幼兒園",
    "type": "spub3"
  },
  {
    "newsch": 1,
    "lat": 22.7372036,
    "lng": 120.5533421,
    "sid": "MgAwADkAMAA3ADAAMAAwADEAMQA=",
    "name": "(準公共)屏東縣私立培正幼兒園",
    "type": "spub3"
  }
]