[
  {
    "newsch": 1,
    "lat": 22.600174,
    "lng": 120.46133,
    "sid": "MgAwADkAMQAzADAAMAAwADAAMQA=",
    "name": "(準公共)屏東縣私立聚英幼兒園",
    "type": "spub3"
  },
  {
    "newsch": 1,
    "lat": 22.612696,
    "lng": 120.489138,
    "sid": "MgAwADkAMQAzADAAMAAwADAAMgA=",
    "name": "(準公共)屏東縣私立貝兒幼兒園",
    "type": "spub3"
  },
  {
    "newsch": 1,
    "lat": 22.618314,
    "lng": 120.47211,
    "sid": "MgAwADkAMQAzADAAMAAwADAANAA=",
    "name": "(私立)屏東縣私立宏靜幼兒園",
    "type": "spub1"
  },
  {
    "newsch": 1,
    "lat": 22.582915,
    "lng": 120.4879,
    "sid": "MgAwADkAMQAzADAAMAAwADAANgA=",
    "name": "(公立)屏東縣萬丹鄉萬丹國民小學附設幼兒園",
    "type": "spub0"
  },
  {
    "newsch": 1,
    "lat": 22.563134,
    "lng": 120.480648,
    "sid": "MgAwADkAMQAzADAAMAAwADAANwA=",
    "name": "(公立)屏東縣萬丹鄉新庄國民小學附設幼兒園",
    "type": "spub0"
  },
  {
    "newsch": 1,
    "lat": 22.618356,
    "lng": 120.46889,
    "sid": "MgAwADkAMQAzADAAMAAwADAAOAA=",
    "name": "(準公共)屏東縣私立明蕙幼兒園",
    "type": "spub3"
  },
  {
    "newsch": 1,
    "lat": 22.583479,
    "lng": 120.48655,
    "sid": "MgAwADkAMQAzADAAMAAwADAAOQA=",
    "name": "(準公共)財團法人天主教會高雄教區附設屏東縣私立玫瑰幼兒園",
    "type": "spub3"
  },
  {
    "newsch": 1,
    "lat": 22.549693,
    "lng": 120.49953,
    "sid": "MgAwADkAMQAzADAAMAAwADEAMAA=",
    "name": "(公立)屏東縣萬丹鄉興化國民小學附設幼兒園",
    "type": "spub0"
  },
  {
    "newsch": 1,
    "lat": 22.582996,
    "lng": 120.492266,
    "sid": "MgAwADkAMQAzADAAMAAwADEAMgA=",
    "name": "(準公共)屏東縣私立心橋光幼兒園",
    "type": "spub3"
  },
  {
    "newsch": 1,
    "lat": 22.574544,
    "lng": 120.491814,
    "sid": "MgAwADkAMQAzADAAMAAwADEAMwA=",
    "name": "(準公共)屏東縣私立立育幼兒園",
    "type": "spub3"
  },
  {
    "newsch": 1,
    "lat": 22.586298,
    "lng": 120.48547,
    "sid": "MgAwADkAMQAzADAAMAAwADEANAA=",
    "name": "(準公共)屏東縣私立萬丹培正幼兒園",
    "type": "spub3"
  },
  {
    "newsch": 1,
    "lat": 22.581645,
    "lng": 120.489364,
    "sid": "MgAwADkAMQAzADAAMAAwADEANgA=",
    "name": "(準公共)屏東縣私立上品幼兒園",
    "type": "spub3"
  },
  {
    "newsch": 1,
    "lat": 22.595129,
    "lng": 120.489486,
    "sid": "MgAwADkAMQAzADAAMAAwADEANwA=",
    "name": "(非營利)屏東縣四維非營利幼兒園(委託社團法人台灣公共托育協會辦理)",
    "type": "spub2"
  },
  {
    "newsch": 1,
    "lat": 22.571038,
    "lng": 120.45858,
    "sid": "MgAwADkAMQAzADAAMAAwADEANwAtADAAMQA=",
    "name": "(非營利)屏東縣四維非營利幼兒園(委託社團法人台灣公共托育協會辦理)新興分班",
    "type": "spub2"
  },
  {
    "newsch": 1,
    "lat": 22.614262,
    "lng": 120.468231,
    "sid": "MgAwADkAMQAzADAAMAAwADEAOAA=",
    "name": "(非營利)屏東縣社皮非營利幼兒園(委託社團法人台灣公共托育協會辦理)",
    "type": "spub2"
  },
  {
    "newsch": 1,
    "lat": 22.615191,
    "lng": 120.490388,
    "sid": "MgAwADkAMQAzADAAMAAwADEAOAAtADAAMQA=",
    "name": "(非營利)屏東縣社皮非營利幼兒園(委託社團法人台灣公共托育協會辦理)廣安分班",
    "type": "spub2"
  },
  {
    "newsch": 1,
    "lat": 22.582463,
    "lng": 120.486678,
    "sid": "MgAwADkAMQAzADAAMAAwADEAOQA=",
    "name": "(私立)屏東縣私立威士頓幼兒園",
    "type": "spub1"
  }
]