[
  {
    "newsch": 1,
    "lat": 22.190757,
    "lng": 120.691942,
    "sid": "MgAwADkANAAxADAAMAAwADAAMQA=",
    "name": "(公立)屏東縣枋山鄉楓港國民小學附設幼兒園",
    "type": "spub0"
  },
  {
    "newsch": 1,
    "lat": 22.320381,
    "lng": 120.630279,
    "sid": "MgAwADkANAAxADAAMAAwADAAMgA=",
    "name": "(公立)屏東縣枋山鄉立幼兒園",
    "type": "spub0"
  },
  {
    "newsch": 1,
    "lat": 22.333536,
    "lng": 120.619322,
    "sid": "MgAwADkANAAxADAAMAAwADAAMgAtADAAMQA=",
    "name": "(公立)屏東縣枋山鄉立幼兒園加祿分班",
    "type": "spub0"
  },
  {
    "newsch": 1,
    "lat": 22.258599,
    "lng": 120.650483,
    "sid": "MgAwADkANAAxADAAMAAwADAAMgAtADAAMgA=",
    "name": "(公立)屏東縣枋山鄉立幼兒園枋山分班",
    "type": "spub0"
  },
  {
    "newsch": 1,
    "lat": 22.193115,
    "lng": 120.689374,
    "sid": "MgAwADkANAAxADAAMAAwADAAMgAtADAAMwA=",
    "name": "(公立)屏東縣枋山鄉立幼兒園楓港分班",
    "type": "spub0"
  },
  {
    "newsch": 1,
    "lat": 22.330151999999998,
    "lng": 120.621075,
    "sid": "MgAwADkANAAxADAAMAAwADAAMwA=",
    "name": "(公立)屏東縣枋山鄉加祿國民小學附設幼兒園",
    "type": "spub0"
  }
]