[
  {
    "newsch": 1,
    "lat": 22.1901399,
    "lng": 120.692638,
    "sid": "MgAwADkANAAxADAAMAAwADAAMQA=",
    "name": "(公立)屏東縣枋山鄉楓港國民小學附設幼兒園",
    "type": "spub0"
  },
  {
    "newsch": 1,
    "lat": 22.2640049,
    "lng": 120.652469,
    "sid": "MgAwADkANAAxADAAMAAwADAAMgA=",
    "name": "(公立)屏東縣枋山鄉立幼兒園",
    "type": "spub0"
  },
  {
    "newsch": 1,
    "lat": 22.3303871,
    "lng": 120.6210709,
    "sid": "MgAwADkANAAxADAAMAAwADAAMgAtADAAMQA=",
    "name": "(公立)屏東縣枋山鄉立幼兒園加祿分班",
    "type": "spub0"
  },
  {
    "newsch": 1,
    "lat": 22.2611,
    "lng": 120.650993,
    "sid": "MgAwADkANAAxADAAMAAwADAAMgAtADAAMgA=",
    "name": "(公立)屏東縣枋山鄉立幼兒園枋山分班",
    "type": "spub0"
  },
  {
    "newsch": 1,
    "lat": 22.323805,
    "lng": 120.626395,
    "sid": "MgAwADkANAAxADAAMAAwADAAMgAtADAAMwA=",
    "name": "(公立)屏東縣枋山鄉立幼兒園楓港分班",
    "type": "spub0"
  }
]