[
  {
    "newsch": 1,
    "lat": 22.176235,
    "lng": 120.837916,
    "sid": "MgAwADkANAA1ADAAMAAwADAAMQA=",
    "name": "(公立)屏東縣牡丹鄉牡丹國民小學附設幼兒園",
    "type": "spub0"
  },
  {
    "newsch": 1,
    "lat": 22.1256151,
    "lng": 120.77297,
    "sid": "MgAwADkANAA1ADAAMAAwADAAMgA=",
    "name": "(公立)屏東縣牡丹鄉石門國民小學附設幼兒園",
    "type": "spub0"
  },
  {
    "newsch": 1,
    "lat": 22.124784,
    "lng": 120.846316,
    "sid": "MgAwADkANAA1ADAAMAAwADAAMwA=",
    "name": "(公立)屏東縣牡丹鄉高士國民小學附設幼兒園",
    "type": "spub0"
  },
  {
    "newsch": 1,
    "lat": 22.0729911,
    "lng": 120.814023,
    "sid": "MgAwADkANAA1ADAAMAAwADAAMwAtADAAMQA=",
    "name": "(公立)屏東縣牡丹鄉高士國民小學附設幼兒園牡林分班",
    "type": "spub0"
  },
  {
    "newsch": 1,
    "lat": 22.1256151,
    "lng": 120.77297,
    "sid": "MgAwADkANAA1ADAAMAAwADAANAA=",
    "name": "(公立)屏東縣牡丹鄉立幼兒園",
    "type": "spub0"
  },
  {
    "newsch": 1,
    "lat": 22.1520217,
    "lng": 120.7809676,
    "sid": "MgAwADkANAA1ADAAMAAwADAANAAtADAAMQA=",
    "name": "(公立)屏東縣牡丹鄉立幼兒園牡丹分班",
    "type": "spub0"
  },
  {
    "newsch": 1,
    "lat": 22.1893879,
    "lng": 120.877519,
    "sid": "MgAwADkANAA1ADAAMAAwADAANQA=",
    "name": "(私立)屏東縣牡丹鄉旭海社區互助教保服務中心(牡丹鄉旭海社區發展協會辦理)",
    "type": "spub1"
  }
]