[
  {
    "newsch": 1,
    "lat": 22.8936771,
    "lng": 121.063761,
    "sid": "MgAxADkANQAzADAAMAAwADAAMQA=",
    "name": "(公立)臺東縣延平鄉紅葉國民小學附設幼兒園",
    "type": "spub0"
  },
  {
    "newsch": 1,
    "lat": 22.902168,
    "lng": 121.083732,
    "sid": "MgAxADkANQAzADAAMAAwADAAMgA=",
    "name": "(公立)臺東縣延平鄉桃源國民小學附設幼兒園",
    "type": "spub0"
  },
  {
    "newsch": 1,
    "lat": 22.893705,
    "lng": 121.063714,
    "sid": "MgAxADkANQAzADAAMAAwADAAMwA=",
    "name": "(公立)臺東縣延平鄉鸞山國民小學附設幼兒園",
    "type": "spub0"
  },
  {
    "newsch": 1,
    "lat": 22.96987,
    "lng": 121.117495,
    "sid": "MgAxADkANQAzADAAMAAwADAANAA=",
    "name": "(公立)臺東縣延平鄉武陵國民小學附設幼兒園",
    "type": "spub0"
  },
  {
    "newsch": 1,
    "lat": 22.9022442,
    "lng": 121.0863873,
    "sid": "MgAxADkANQAzADAAMAAwADAANQA=",
    "name": "(公立)臺東縣延平鄉立幼兒園",
    "type": "spub0"
  }
]