[
  {
    "newsch": 1,
    "lat": 22.892997,
    "lng": 121.063253,
    "sid": "MgAxADkANQAzADAAMAAwADAAMQA=",
    "name": "(公立)臺東縣延平鄉紅葉國民小學附設幼兒園",
    "type": "spub0"
  },
  {
    "newsch": 1,
    "lat": 22.902872,
    "lng": 121.083622,
    "sid": "MgAxADkANQAzADAAMAAwADAAMgA=",
    "name": "(公立)臺東縣延平鄉桃源國民小學附設幼兒園",
    "type": "spub0"
  },
  {
    "newsch": 1,
    "lat": 22.898427,
    "lng": 121.149893,
    "sid": "MgAxADkANQAzADAAMAAwADAAMwA=",
    "name": "(公立)臺東縣延平鄉鸞山國民小學附設幼兒園",
    "type": "spub0"
  },
  {
    "newsch": 1,
    "lat": 22.970148,
    "lng": 121.115726,
    "sid": "MgAxADkANQAzADAAMAAwADAANAA=",
    "name": "(公立)臺東縣延平鄉武陵國民小學附設幼兒園",
    "type": "spub0"
  },
  {
    "newsch": 1,
    "lat": 22.93258,
    "lng": 121.114301,
    "sid": "MgAxADkANQAzADAAMAAwADAANQA=",
    "name": "(公立)臺東縣延平鄉立幼兒園",
    "type": "spub0"
  }
]