[
  {
    "newsch": 1,
    "lat": 23.049879,
    "lng": 121.163068,
    "sid": "MgAxADkANQA2ADAAMAAwADAAMgA=",
    "name": "(準公共)臺東縣私立鴻德幼兒園",
    "type": "spub3"
  },
  {
    "newsch": 1,
    "lat": 23.005811,
    "lng": 121.173588,
    "sid": "MgAxADkANQA2ADAAMAAwADAAMwA=",
    "name": "(公立)臺東縣關山鎮電光國民小學附設幼兒園",
    "type": "spub0"
  },
  {
    "newsch": 1,
    "lat": 23.073664,
    "lng": 121.177334,
    "sid": "MgAxADkANQA2ADAAMAAwADAANAA=",
    "name": "(公立)臺東縣關山鎮德高國民小學附設幼兒園",
    "type": "spub0"
  },
  {
    "newsch": 1,
    "lat": 23.050211,
    "lng": 121.16327,
    "sid": "MgAxADkANQA2ADAAMAAwADAANQA=",
    "name": "(公立)臺東縣關山鎮關山國民小學附設幼兒園",
    "type": "spub0"
  },
  {
    "newsch": 1,
    "lat": 23.009945,
    "lng": 121.148439,
    "sid": "MgAxADkANQA2ADAAMAAwADAANgA=",
    "name": "(公立)臺東縣關山鎮月眉國民小學附設幼兒園",
    "type": "spub0"
  },
  {
    "newsch": 1,
    "lat": 23.047246,
    "lng": 121.160147,
    "sid": "MgAxADkANQA2ADAAMAAwADAANwA=",
    "name": "(公立)臺東縣關山鎮立幼兒園",
    "type": "spub0"
  }
]