[
  {
    "newsch": 1,
    "lat": 23.0448331,
    "lng": 121.146508,
    "sid": "MgAxADkANQA3ADAAMAAwADAAMQA=",
    "name": "(公立)臺東縣海端鄉崁頂國民小學附設幼兒園",
    "type": "spub0"
  },
  {
    "newsch": 1,
    "lat": 23.131553,
    "lng": 121.176581,
    "sid": "MgAxADkANQA3ADAAMAAwADAAMgA=",
    "name": "(公立)臺東縣海端鄉錦屏國民小學附設幼兒園",
    "type": "spub0"
  },
  {
    "newsch": 1,
    "lat": 23.149453,
    "lng": 121.206673,
    "sid": "MgAxADkANQA3ADAAMAAwADAAMwA=",
    "name": "(公立)臺東縣海端鄉廣原國民小學附設幼兒園",
    "type": "spub0"
  },
  {
    "newsch": 1,
    "lat": 23.000988,
    "lng": 121.130676,
    "sid": "MgAxADkANQA3ADAAMAAwADAANAA=",
    "name": "(公立)臺東縣海端鄉加拿國民小學附設幼兒園",
    "type": "spub0"
  },
  {
    "newsch": 1,
    "lat": 23.168809,
    "lng": 121.041806,
    "sid": "MgAxADkANQA3ADAAMAAwADAANQA=",
    "name": "(公立)臺東縣海端鄉霧鹿國民小學附設幼兒園",
    "type": "spub0"
  },
  {
    "newsch": 1,
    "lat": 23.186124,
    "lng": 121.025023,
    "sid": "MgAxADkANQA3ADAAMAAwADAANQAtADAAMQA=",
    "name": "(公立)臺東縣海端鄉霧鹿國民小學附設幼兒園利稻分班",
    "type": "spub0"
  },
  {
    "newsch": 1,
    "lat": 23.101552,
    "lng": 121.176305,
    "sid": "MgAxADkANQA3ADAAMAAwADAANgA=",
    "name": "(公立)臺東縣海端鄉海端國民小學附設幼兒園",
    "type": "spub0"
  },
  {
    "newsch": 1,
    "lat": 23.117339,
    "lng": 121.16975,
    "sid": "MgAxADkANQA3ADAAMAAwADAANwA=",
    "name": "(公立)臺東縣海端鄉初來國民小學附設幼兒園",
    "type": "spub0"
  }
]