[
  {
    "newsch": 1,
    "lat": 23.044226,
    "lng": 121.146401,
    "sid": "MgAxADkANQA3ADAAMAAwADAAMQA=",
    "name": "(公立)臺東縣海端鄉崁頂國民小學附設幼兒園",
    "type": "spub0"
  },
  {
    "newsch": 1,
    "lat": 23.132302,
    "lng": 121.176506,
    "sid": "MgAxADkANQA3ADAAMAAwADAAMgA=",
    "name": "(公立)臺東縣海端鄉錦屏國民小學附設幼兒園",
    "type": "spub0"
  },
  {
    "newsch": 1,
    "lat": 23.149582,
    "lng": 121.2073,
    "sid": "MgAxADkANQA3ADAAMAAwADAAMwA=",
    "name": "(公立)臺東縣海端鄉廣原國民小學附設幼兒園",
    "type": "spub0"
  },
  {
    "newsch": 1,
    "lat": 23.002017,
    "lng": 121.131231,
    "sid": "MgAxADkANQA3ADAAMAAwADAANAA=",
    "name": "(公立)臺東縣海端鄉加拿國民小學附設幼兒園",
    "type": "spub0"
  },
  {
    "newsch": 1,
    "lat": 23.169507,
    "lng": 121.041613,
    "sid": "MgAxADkANQA3ADAAMAAwADAANQA=",
    "name": "(公立)臺東縣海端鄉霧鹿國民小學附設幼兒園",
    "type": "spub0"
  },
  {
    "newsch": 1,
    "lat": 23.186878,
    "lng": 121.025433,
    "sid": "MgAxADkANQA3ADAAMAAwADAANQAtADAAMQA=",
    "name": "(公立)臺東縣海端鄉霧鹿國民小學附設幼兒園利稻分班",
    "type": "spub0"
  },
  {
    "newsch": 1,
    "lat": 23.101418,
    "lng": 121.17571,
    "sid": "MgAxADkANQA3ADAAMAAwADAANgA=",
    "name": "(公立)臺東縣海端鄉海端國民小學附設幼兒園",
    "type": "spub0"
  },
  {
    "newsch": 1,
    "lat": 23.116767,
    "lng": 121.168953,
    "sid": "MgAxADkANQA3ADAAMAAwADAANwA=",
    "name": "(公立)臺東縣海端鄉初來國民小學附設幼兒園",
    "type": "spub0"
  }
]