[
  {
    "newsch": 1,
    "lat": 23.244261,
    "lng": 121.414332,
    "sid": "MgAxADkANgAyADAAMAAwADAAMQA=",
    "name": "(公立)臺東縣長濱鄉寧埔國民小學附設幼兒園",
    "type": "spub0"
  },
  {
    "newsch": 1,
    "lat": 23.412178,
    "lng": 121.482119,
    "sid": "MgAxADkANgAyADAAMAAwADAAMgA=",
    "name": "(公立)臺東縣長濱鄉樟原國民小學附設幼兒園",
    "type": "spub0"
  },
  {
    "newsch": 1,
    "lat": 23.315454,
    "lng": 121.45242,
    "sid": "MgAxADkANgAyADAAMAAwADAAMwA=",
    "name": "(公立)臺東縣長濱鄉長濱國民小學附設幼兒園",
    "type": "spub0"
  },
  {
    "newsch": 1,
    "lat": 23.285447,
    "lng": 121.42913699999995,
    "sid": "MgAxADkANgAyADAAMAAwADAANAA=",
    "name": "(公立)臺東縣長濱鄉竹湖國民小學附設幼兒園",
    "type": "spub0"
  },
  {
    "newsch": 1,
    "lat": 23.3557186,
    "lng": 121.4688873,
    "sid": "MgAxADkANgAyADAAMAAwADAANQA=",
    "name": "(公立)臺東縣長濱鄉三間國民小學附設幼兒園",
    "type": "spub0"
  }
]