[
  {
    "newsch": 1,
    "lat": 23.244669,
    "lng": 121.414261,
    "sid": "MgAxADkANgAyADAAMAAwADAAMQA=",
    "name": "(公立)臺東縣長濱鄉寧埔國民小學附設幼兒園",
    "type": "spub0"
  },
  {
    "newsch": 1,
    "lat": 23.412979,
    "lng": 121.481471,
    "sid": "MgAxADkANgAyADAAMAAwADAAMgA=",
    "name": "(公立)臺東縣長濱鄉樟原國民小學附設幼兒園",
    "type": "spub0"
  },
  {
    "newsch": 1,
    "lat": 23.316467,
    "lng": 121.451969,
    "sid": "MgAxADkANgAyADAAMAAwADAAMwA=",
    "name": "(公立)臺東縣長濱鄉長濱國民小學附設幼兒園",
    "type": "spub0"
  },
  {
    "newsch": 1,
    "lat": 23.285456,
    "lng": 121.428446,
    "sid": "MgAxADkANgAyADAAMAAwADAANAA=",
    "name": "(公立)臺東縣長濱鄉竹湖國民小學附設幼兒園",
    "type": "spub0"
  },
  {
    "newsch": 1,
    "lat": 23.355307,
    "lng": 121.467739,
    "sid": "MgAxADkANgAyADAAMAAwADAANQA=",
    "name": "(公立)臺東縣長濱鄉三間國民小學附設幼兒園",
    "type": "spub0"
  }
]