[
  {
    "newsch": 1,
    "lat": 23.660072,
    "lng": 121.448432,
    "sid": "MgAyADkANwA2ADAAMAAwADAAMQA=",
    "name": "(公立)花蓮縣光復鄉太巴塱國民小學附設幼兒園",
    "type": "spub0"
  },
  {
    "newsch": 1,
    "lat": 23.673556,
    "lng": 121.426927,
    "sid": "MgAyADkANwA2ADAAMAAwADAAMgA=",
    "name": "(公立)花蓮縣光復鄉光復國民小學附設幼兒園",
    "type": "spub0"
  },
  {
    "newsch": 1,
    "lat": 23.652192,
    "lng": 121.418139,
    "sid": "MgAyADkANwA2ADAAMAAwADAAMwA=",
    "name": "(公立)花蓮縣光復鄉立幼兒園",
    "type": "spub0"
  },
  {
    "newsch": 1,
    "lat": 23.654056,
    "lng": 121.4196,
    "sid": "MgAyADkANwA2ADAAMAAwADAANAA=",
    "name": "(公立)花蓮縣光復鄉大進國民小學附設幼兒園",
    "type": "spub0"
  },
  {
    "newsch": 1,
    "lat": 23.659062,
    "lng": 121.450296,
    "sid": "MgAyADkANwA2ADAAMAAwADAANQA=",
    "name": "(私立)花蓮縣光復鄉太巴塱部落互助教保服務中心（花蓮縣光復鄉東北社區發展協會辦理）",
    "type": "spub1"
  }
]